     2.11           OBSERVATION DATA    GPS(GPS)            RINEX VERSION / TYPE
convertToRinex 1.14 convertToRINEX OPR  16-Jan-08 22:03 UTC PGM / RUN BY / DATE 
----------------------------------------------------------- COMMENT             
nw1                                                         MARKER NAME         
                                                            MARKER NUMBER       
GNSS Observer       Trimble                                 OBSERVER / AGENCY   
4629118867          R8 Model 2          Version 3.50        REC # / TYPE / VERS 
                    TRM_R8_GNSS                             ANT # / TYPE        
 -1641900.4608 -3664874.3586  4939973.4076                  APPROX POSITION XYZ 
        1.7710        0.0000        0.0000                  ANTENNA: DELTA H/E/N
     1     1     0                                          WAVELENGTH FACT L1/2
     8    C1    D1    D2    L1    L2    P2    S1    S2      # / TYPES OF OBSERV 
  2008     1    16    16    40   15.0000000     GPS         TIME OF FIRST OBS   
  2008     1    16    17    55   30.0000000     GPS         TIME OF LAST OBS    
     0                                                      RCV CLOCK OFFS APPL 
    14                                                      LEAP SECONDS        
    15                                                      # OF SATELLITES     
   G01   192   189   189   192   192   192   192   192      PRN / # OF OBS      
   G02   302   293   293   302   302   302   302   302      PRN / # OF OBS      
   G04   302   293   293   302   302   302   302   302      PRN / # OF OBS      
   G05   302   293   293   302   302   302   302   302      PRN / # OF OBS      
   G06     8     7     7     8     8     8     8     8      PRN / # OF OBS      
   G09   302   301   301   302   302   302   302   302      PRN / # OF OBS      
   G10    24    23    23    24    24    24    24    24      PRN / # OF OBS      
   G12   302   293   293   302   302   302   302   302      PRN / # OF OBS      
   G14   106   105   105   106   106   106   106   106      PRN / # OF OBS      
   G17   302   293   293   302   302   302   302   302      PRN / # OF OBS      
   G20   232   229   221   232   225   225   232   225      PRN / # OF OBS      
   G28     2     1     1     2     2     2     2     2      PRN / # OF OBS      
   G29   126   125   125   126   126   126   126   126      PRN / # OF OBS      
   G30   302   297   297   302   302   302   302   302      PRN / # OF OBS      
   G31    32    31    31    32    32    32    32    32      PRN / # OF OBS      
                                                            END OF HEADER       
 08  1 16 16 41  0.0000000  0 10G01G02G04G05G09G12G14G17G20G30   -0.000438288
  25154812.172 4       464.137 4       361.66046  -1981418.007 4  -1538394.68846
  25154807.58646        39.000          19.000  
  21747840.000 6      2718.460 6      2118.28148  -5009769.690 6  -3861537.23448
  21747833.09448        47.500          35.400  
  20410976.125 7       241.846 7       188.45248  -2363252.148 7  -1830739.45048
  20410971.69148        49.900          39.800  
  22477900.672 6      2943.505 6      2293.64146  -5092297.735 6  -3933084.95346
  22477894.43446        42.900          25.600  
  21374151.461 6     -2403.488 6     -1872.84848    690075.400 6    523196.03848
  21374147.01248        47.300          34.700  
  21767423.141 6      2193.418 6      1709.15748  -4326242.018 6  -3351941.61048
  21767417.82848        46.600          35.100  
  24862189.039 3     -1135.731 3      -884.98845   -736812.959 3   -576358.71645
  24862184.72345        36.000          18.300  
  22197112.414 6     -2988.095 6     -2328.38548   1639942.871 6   1255924.30448
  22197107.43848        46.100          35.900  
  23921179.586 6      -905.078 6      -705.25646  -1021045.260 6   -796090.70246
  23921173.87946        42.600          22.500  
  24321955.398 5      3434.565 5      2676.28446  -4226099.979 5  -3270397.87546
  24321950.03146        41.500          20.100  
 08  1 16 16 41 15.0000000  0 10G01G02G04G05G09G12G14G17G20G30   -0.000435770
  25153515.406 4       453.946 4       353.72645  -1988227.202 4  -1543700.57145
  25153512.39845        38.400          18.600  
  21740100.594 6      2711.353 6      2112.74148  -5050439.979 6  -3893228.35748
  21740093.80548        47.400          35.400  
  20410318.727 7       230.178 7       179.36048  -2366704.823 7  -1833429.84748
  20410313.96948        49.400          40.100  
  22469512.953 6      2938.479 6      2289.72546  -5136374.922 6  -3967430.82846
  22469507.48446        43.000          24.700  
  21381043.563 7     -2414.251 7     -1881.23448    726289.172 7    551414.54148
  21381038.32848        47.600          34.900  
  21761179.422 6      2187.340 6      1704.42248  -4359052.122 6  -3377507.93848
  21761174.07448        46.600          34.800  
  24865461.039 5     -1145.836 5      -892.85745   -719625.416 5   -562965.85745
  24865455.37545        39.200          18.600  
  22205654.734 6     -2992.616 6     -2331.90848   1684832.108 6   1290902.92248
  22205649.43048        46.200          36.300  
  23923794.031 5      -916.022 5      -713.78546  -1007304.924 5   -785383.93146
  23923788.92246        41.400          22.300  
  24312159.234 6      3432.067 6      2674.34046  -4277580.981 6  -3310512.97146
  24312153.41846        42.800          20.400  
 08  1 16 16 41 30.0000000  0 10G01G02G04G05G09G12G14G17G20G30   -0.000433241
  25152250.336 5       443.745 5       345.77545  -1994883.376 5  -1548887.19345
  25152245.80145        39.500          17.800  
  21732382.227 7      2704.214 7      2107.17948  -5091003.190 7  -3924836.05048
  21732375.35948        47.700          35.500  
  20409695.039 7       218.506 7       170.26548  -2369982.417 7  -1835983.81548
  20409690.57048        49.300          39.900  
  22461139.656 6      2933.425 6      2285.78547  -5180376.299 6  -4001717.60747
  22461133.24647        42.900          26.500  
  21387965.008 6     -2424.997 6     -1889.60848    762664.129 6    579758.66248
  21387960.27348        47.500          34.900  
  21754953.594 7      2181.243 7      1699.66948  -4391770.762 7  -3403002.97048
  21754948.09448        47.800          34.800  
  24868760.195 4     -1155.933 4      -900.72546   -702286.423 4   -549454.98946
  24868755.04346        38.900          19.300  
  22214209.961 6     -2997.129 6     -2335.42548   1729789.048 6   1325934.29648
  22214204.68448        46.200          36.600  
  23926440.203 5      -926.978 5      -722.31946   -993400.254 5   -774549.15046
  23926434.61746        41.900          22.500  
  24302368.188 5      3429.545 5      2672.37446  -4329024.158 5  -3350598.57246
  24302364.45346        41.300          19.600  
 08  1 16 16 41 45.0000000  0 10G01G02G04G05G09G12G14G17G20G30   -0.000430700
  25151011.445 4       433.700 4       337.95146  -2001388.882 4  -1553956.45646
  25151007.71946        38.000          19.000  
  21724682.836 7      2697.230 7      2101.73748  -5131461.639 7  -3956362.10548
  21724676.30148        47.800          35.600  
  20409104.438 7       206.994 7       161.29548  -2373087.328 7  -1838403.23348
  20409099.60248        49.200          40.500  
  22452780.383 6      2928.517 6      2281.96247  -5224304.058 6  -4035947.04547
  22452774.57447        43.000          26.700  
  21394917.125 7     -2435.564 7     -1897.84148    799197.589 7    608226.28248
  21394912.00048        47.600          35.100  
  21748744.109 6      2175.293 6      1695.03548  -4424400.159 6  -3428428.48848
  21748738.77048        46.400          35.100  
  24872087.875 4     -1165.864 4      -908.46545   -684798.471 4   -535828.01245
  24872082.44145        38.800          17.800  
  22222776.930 6     -3001.468 6     -2338.80548   1774811.060 6   1361016.37448
  22222771.69948        46.600          36.100  
  23929116.633 5      -937.754 5      -730.71946   -979333.939 5   -763588.36246
  23929111.35246        42.300          22.500  
  24292586.328 5      3427.171 5      2670.52146  -4380431.717 5  -3390656.38646
  24292582.12946        40.600          20.900  
 08  1 16 16 42  0.0000000  0 10G01G02G04G05G09G12G14G17G20G30   -0.000428148
  25149803.555 4       423.557 4       330.04545  -2007742.231 4  -1558907.13745
  25149798.92245        37.900          16.900  
  21717003.875 7      2690.127 7      2096.20348  -5171813.549 7  -3987805.14648
  21716997.37548        47.600          35.800  
  20408546.516 7       195.394 7       152.25548  -2376018.232 7  -1840687.05248
  20408542.28548        48.900          40.500  
  22444435.594 6      2923.492 6      2278.04447  -5268156.436 6  -4070117.70147
  22444430.18447        43.700          26.700  
  21401899.750 7     -2446.198 7     -1906.12948    835890.566 7    636818.21648
  21401894.61748        48.000          34.900  
  21742552.023 6      2169.229 6      1690.30848  -4456938.597 6  -3453783.10548
  21742546.85248        46.200          34.700  
  24875444.664 4     -1175.850 4      -916.24746   -667160.725 4   -522084.30546
  24875439.02346        38.500          19.000  
  22231357.539 6     -3005.893 6     -2342.25348   1819899.450 6   1396150.17148
  22231352.24248        46.200          35.900  
  23931824.508 5      -948.636 5      -739.19746   -965104.406 5   -752500.41146
  23931818.98846        42.200          20.900  
  24282811.602 5      3424.694 5      2668.59646  -4431802.131 5  -3430685.33346
  24282806.06646        41.700          19.600  
 08  1 16 16 42 15.0000000  0 10G01G02G04G05G09G12G14G17G20G30   -0.000425587
  25148622.188 4       413.461 4       322.17645  -2013944.142 4  -1563739.77845
  25148618.18845        38.100          16.900  
  21709345.695 7      2683.059 7      2090.69448  -5212059.431 7  -4019165.56148
  21709339.14148        47.600          36.100  
  20408021.922 7       183.839 7       143.25148  -2378775.820 7  -1842835.82148
  20408017.38748        49.100          40.100  
  22436104.773 6      2918.500 6      2274.15847  -5311933.934 6  -4104230.06547
  22436098.93047        42.600          27.400  
  21408911.820 6     -2456.760 6     -1914.35848    872741.974 6    665533.58448
  21408907.50848        47.500          35.000  
  21736377.633 6      2163.192 6      1685.60548  -4489386.483 6  -3479067.17548
  21736372.31648        47.200          34.900  
  24878828.766 4     -1185.787 4      -923.99145   -649373.925 4   -508224.43345
  24878823.76645        38.600          18.300  
  22239949.828 6     -3010.258 6     -2345.65648   1865053.325 6   1431335.01448
  22239944.61348        45.700          35.700  
  23934562.273 5      -959.450 5      -747.62646   -950712.650 5   -741286.02846
  23934557.90646        42.000          22.600  
  24273043.156 5      3422.240 5      2666.68046  -4483135.735 5  -3470685.53346
  24273037.97346        40.400          22.000  
 08  1 16 16 42 30.0000000  0 10G01G02G04G05G09G12G14G17G20G30   -0.000423014
  25147470.930 4       403.380 4       314.32246  -2019994.837 4  -1568454.60446
  25147466.89146        38.800          19.300  
  21701707.344 7      2676.002 7      2085.19648  -5252199.462 7  -4050443.49648
  21701701.00848        47.900          36.600  
  20407530.000 7       172.303 7       134.26248  -2381360.360 7  -1844849.75048
  20407525.38348        49.200          40.200  
  22427788.492 6      2913.521 6      2270.27447  -5355636.742 6  -4138284.16947
  22427783.39547        42.600          28.400  
  21415954.422 7     -2467.273 7     -1922.55048    909751.076 7    694371.83948
  21415950.01648        47.900          35.500  
  21730220.148 6      2157.170 6      1680.91148  -4521744.036 6  -3504280.84248
  21730214.76648        47.300          34.700  
  24882242.859 5     -1195.697 5      -931.70945   -631438.471 5   -494248.79745
  24882237.08645        40.500          18.300  
  22248554.188 6     -3014.591 6     -2349.03148   1910272.185 6   1466570.47848
  22248548.98448        46.300          36.000  
  23937332.547 5      -970.248 5      -756.03746   -936158.931 5   -729945.46946
  23937327.03146        41.700          21.800  
  24263280.789 5      3419.821 5      2664.79146  -4534433.045 5  -3510657.39346
  24263276.69946        41.500          19.900  
 08  1 16 16 42 45.0000000  0 10G01G02G04G05G09G12G14G17G20G30   -0.000420429
  25146348.422 4       393.281 4       306.45045  -2025894.046 4  -1573051.35045
  25146344.91445        38.800          18.300  
  21694089.242 7      2668.901 7      2079.66448  -5292232.979 7  -4081638.44848
  21694082.52748        47.700          37.000  
  20407071.258 7       160.762 7       125.26948  -2383771.787 7  -1846728.78548
  20407066.54748        48.800          40.600  
  22419486.242 6      2908.499 6      2266.36347  -5399264.232 6  -4172279.61047
  22419480.69147        42.800          27.400  
  21423027.086 7     -2477.779 7     -1930.73548    946917.754 7    723332.86748
  21423022.73848        47.700          35.400  
  21724079.695 6      2151.124 6      1676.20048  -4554010.889 6  -3529423.84148
  21724074.91048        46.800          35.500  
  24885683.156 4     -1205.606 4      -939.43246   -613354.388 4   -480157.31046
  24885677.61346        38.500          19.300  
  22257171.375 6     -3018.931 6     -2352.41448   1955556.154 6   1501856.68648
  22257166.82848        46.100          36.300  
  23940133.602 5      -981.045 5      -764.45046   -921443.262 5   -718478.71746
  23940127.28546        42.300          21.800  
  24253527.086 5      3417.343 5      2662.87246  -4585693.183 5  -3550600.47046
  24253521.84046        41.700          21.700  
 08  1 16 16 43  0.0000000  0 10G01G02G04G05G09G12G14G17G20G30   -0.000417833
  25145254.680 5       383.227 5       298.62146  -2031642.444 5  -1577530.66046
  25145250.00846        39.200          19.000  
  21686491.086 7      2661.846 7      2074.16548  -5332160.678 7  -4112750.92948
  21686484.90648        48.300          37.400  
  20406645.094 7       149.268 7       116.31348  -2386010.814 7  -1848473.47948
  20406640.78948        48.600          40.600  
  22411198.758 6      2903.521 6      2262.48447  -5442817.054 6  -4206216.87247
  22411192.95747        43.100          27.200  
  21430129.484 7     -2488.214 7     -1938.86848    984240.961 7    752415.88348
  21430124.73848        48.400          35.300  
  21717956.961 6      2145.121 6      1671.52348  -4586187.706 6  -3554496.68548
  21717951.79748        47.500          35.000  
  24889152.266 4     -1215.443 4      -947.09945   -595122.739 4   -465950.82445
  24889146.87145        38.300          18.600  
  22265800.953 6     -3023.199 6     -2355.73948   2000904.145 6   1537192.76848
  22265795.91848        46.000          36.100  
  23942964.484 5      -991.793 5      -772.82646   -906566.366 5   -706886.33146
  23942958.26246        41.300          22.300  
  24243777.914 4      3414.922 4      2660.97346  -4636917.011 4  -3590515.06346
  24243775.08646        38.600          20.900  
 08  1 16 16 43 15.0000000  0 10G01G02G04G05G09G12G14G17G20G30   -0.000415228
  25144190.211 5       373.080 5       290.71146  -2037238.639 5  -1581891.32146
  25144185.62946        39.500          20.100  
  21678913.836 7      2654.679 7      2068.58048  -5371980.862 7  -4143779.62848
  21678907.36748        48.300          37.000  
  20406252.109 7       137.685 7       107.28748  -2388076.086 7  -1850082.78948
  20406247.99648        49.200          40.900  
  22402925.281 6      2898.429 6      2258.51847  -5486293.496 6  -4240094.63947
  22402919.75847        43.400          27.900  
  21437262.367 7     -2498.723 7     -1947.05648   1021721.813 7    781621.72948
  21437257.75448        47.800          35.800  
  21711851.352 6      2138.990 6      1666.74548  -4618272.547 6  -3579497.86348
  21711845.99248        46.000          35.000  
  24892650.141 4     -1225.362 4      -954.82845   -576742.303 4   -451628.40045
  24892644.77045        37.800          18.300  
  22274443.023 6     -3027.552 6     -2359.13148   2046317.417 6   1572579.72948
  22274437.99648        45.700          35.700  
  23945825.852 5     -1002.612 5      -781.25746   -891527.182 5   -695167.47046
  23945820.35546        42.300          21.700  
  24234038.820 5      3412.375 5      2658.99446  -4688102.639 5  -3630399.97246
  24234034.96146        39.800          20.900  
 08  1 16 16 43 30.0000000  0 10G01G02G04G05G09G12G14G17G20G30   -0.000412613
  25143154.938 5       362.972 5       282.83746  -2042683.221 5  -1586133.87346
  25143149.60946        39.500          19.300  
  21671357.086 7      2647.534 7      2063.01448  -5411693.879 7  -4174724.83548
  21671350.00448        48.100          38.000  
  20405892.156 7       126.127 7        98.28148  -2389967.991 7  -1851556.99748
  20405887.90248        49.300          40.500  
  22394666.461 6      2893.361 6      2254.56547  -5529693.903 6  -4273913.11447
  22394660.86347        43.400          27.400  
  21444424.172 7     -2509.170 7     -1955.19748   1059359.366 7    810949.68948
  21444419.55948        47.600          35.300  
  21705763.508 7      2132.888 7      1661.99148  -4650265.872 7  -3604427.72348
  21705757.69948        47.600          35.200  
  24896176.789 4     -1235.237 4      -962.52246   -558213.750 4   -437190.56846
  24896171.16046        38.400          20.100  
  22283096.914 6     -3031.849 6     -2362.47948   2091795.159 6   1608016.92148
  22283092.13348        45.700          35.300  
  23948717.781 5     -1013.394 5      -789.66046   -876326.268 5   -683322.57046
  23948713.06346        41.600          21.800  
  24224306.055 5      3409.856 5      2657.03446  -4739250.485 5  -3670255.47946
  24224300.32846        40.500          20.900  
 08  1 16 16 43 45.0000000  0 10G01G02G04G05G09G12G14G17G20G30   -0.000409985
  25142146.563 5       352.731 5       274.85546  -2047974.191 5  -1590256.70546
  25142143.15646        40.400          20.900  
  21663820.156 7      2640.243 7      2057.33248  -5451297.527 7  -4205584.80848
  21663814.04348        48.100          37.400  
  20405565.602 7       114.457 7        89.18748  -2391684.845 7  -1852894.80048
  20405561.37148        49.800          40.700  
  22386423.023 6      2888.144 6      2250.50347  -5573016.056 6  -4307670.66247
  22386417.68047        43.200          28.500  
  21451616.898 7     -2519.719 7     -1963.41548   1097155.147 7    840400.92048
  21451612.07048        47.800          35.200  
  21699693.203 6      2126.655 6      1657.13348  -4682165.691 6  -3629284.72248
  21699687.34848        47.300          35.600  
  24899730.297 4     -1245.216 4      -970.29746   -539535.514 4   -422636.11546
  24899725.01646        39.100          19.000  
  22291763.391 6     -3036.260 6     -2365.91648   2137339.062 6   1643505.66548
  22291758.69548        45.200          35.500  
  23951641.594 5     -1024.295 5      -798.15146   -860961.836 5   -671350.30746
  23951636.40246        41.600          21.100  
  24214579.094 4      3407.206 4      2654.96446  -4790358.567 4  -3710079.93546
  24214575.36346        38.400          21.300  
 08  1 16 16 44  0.0000000  0 10G01G02G04G05G09G12G14G17G20G30   -0.000407347
  25141169.023 5       342.732 5       267.06746  -2053115.170 5  -1594262.70646
  25141165.06346        40.100          20.600  
  21656304.063 7      2633.189 7      2051.83448  -5490795.362 7  -4236362.32648
  21656297.67648        49.000          37.300  
  20405271.469 7       103.049 7        80.29848  -2393230.581 7  -1854099.27448
  20405266.91048        49.300          41.000  
  22378192.844 6      2883.172 6      2246.62847  -5616263.638 6  -4341370.08247
  22378187.17647        42.900          28.100  
  21458838.211 7     -2529.986 7     -1971.41748   1135104.931 7    869972.17248
  21458833.53148        48.300          35.700  
  21693639.633 6      2120.661 6      1652.46448  -4713975.606 6  -3654071.67448
  21693634.69148        47.000          36.100  
  24903312.883 4     -1254.933 4      -977.87146   -520711.520 4   -407968.05146
  24903307.21546        38.600          19.300  
  22300442.133 6     -3040.411 6     -2369.15248   2182945.233 6   1679042.94448
  22300436.94148        45.100          35.300  
  23954595.219 5     -1034.937 5      -806.44546   -845437.776 5   -659253.63746
  23954590.36346        40.400          20.900  
  24204862.516 5      3404.773 5      2653.06846  -4841430.157 5  -3749875.94846
  24204857.19546        41.700          21.700  
 08  1 16 16 44 15.0000000  0 10G01G02G04G05G09G12G14G17G20G30   -0.000404697
  25140219.336 4       332.589 4       259.15846  -2058104.006 4  -1598150.07746
  25140215.28546        38.700          19.600  
  21648808.531 7      2625.971 7      2046.21148  -5530184.926 7  -4267055.48848
  21648801.75848        48.000          37.500  
  20405010.242 7        91.479 7        71.28248  -2394602.763 7  -1855168.50748
  20405005.59448        49.300          40.900  
  22369978.602 6      2878.028 6      2242.61947  -5659434.052 6  -4375009.36647
  22369972.53947        43.100          27.900  
  21466089.438 7     -2540.369 7     -1979.50848   1173210.471 7    899664.79448
  21466084.93848        48.000          35.600  
  21687604.141 6      2114.496 6      1647.65948  -4745693.049 6  -3678786.56048
  21687598.68048        47.000          35.600  
  24906923.594 4     -1264.793 4      -985.54946   -501739.621 4   -393184.80946
  24906917.71546        38.000          19.000  
  22309133.000 6     -3044.708 6     -2372.49948   2228615.848 6   1714630.42948
  22309128.02748        44.300          35.100  
  23957580.438 5     -1045.730 5      -814.85446   -829751.830 5   -647030.83446
  23957575.33246        41.200          21.100  
  24195150.055 3      3402.197 3      2651.06546  -4892463.105 3  -3789641.92646
  24195145.67246        37.300          19.900  
 08  1 16 16 44 30.0000000  0 10G01G02G04G05G09G12G14G17G20G30   -0.000402037
  25139299.438 5       322.454 5       251.26346  -2062940.810 5  -1601919.02646
  25139294.64846        40.500          19.600  
  21641333.391 7      2618.756 7      2040.58948  -5569466.270 7  -4297664.31648
  21641326.92648        48.400          38.200  
  20404782.094 7        79.931 7        62.28548  -2395801.733 7  -1856102.77848
  20404777.45348        49.600          41.200  
  22361777.531 6      2872.884 6      2238.60947  -5702527.310 6  -4408588.50647
  22361772.42247        43.200          27.700  
  21473370.469 7     -2550.717 7     -1987.57048   1211471.226 7    929478.33748
  21473365.44148        48.500          36.200  
  21681586.086 7      2108.336 7      1642.86048  -4777318.094 7  -3703429.45448
  21681580.57848        47.800          35.100  
  24910561.492 4     -1274.609 4      -993.20446   -482620.489 4   -378286.75346
  24910555.74646        38.300          19.600  
  22317836.109 6     -3048.968 6     -2375.81948   2274350.366 6   1750267.70748
  22317830.77748        44.700          35.200  
  23960594.984 5     -1056.491 5      -823.24146   -813904.470 5   -634682.22346
  23960591.48446        40.500          21.800  
  24185445.719 5      3399.619 5      2649.05446  -4943457.386 5  -3829377.73946
  24185441.84046        41.000          20.900  
 08  1 16 16 44 45.0000000  0 10G01G02G04G05G09G12G14G17G20G30   -0.000399366
  25138407.914 5       312.386 5       243.42046  -2067626.604 5  -1605570.32246
  25138403.16846        39.900          20.600  
  21633878.813 7      2611.597 7      2035.01048  -5608640.221 7  -4328189.47548
  21633872.01648        48.700          38.300  
  20404586.523 7        68.455 7        53.34249  -2396828.559 7  -1856902.90349
  20404582.14849        48.800          41.300  
  22353591.523 6      2867.789 6      2234.64347  -5745544.137 6  -4442108.14947
  22353585.64147        43.200          26.400  
  21480680.680 7     -2560.986 7     -1995.57548   1249886.017 7    959411.95648
  21480676.11348        48.800          35.200  
  21675585.469 7      2102.234 7      1638.10448  -4808851.598 7  -3728001.00948
  21675580.20748        47.700          35.300  
  24914226.727 4     -1284.345 4     -1000.78745   -463355.309 4   -363274.94645
  24914221.58245        37.600          18.300  
  22326551.281 6     -3053.142 6     -2379.07148   2320147.494 6   1785953.77148
  22326545.81348        44.700          35.000  
  23963643.586 5     -1067.184 5      -831.56746   -797896.711 5   -622208.72246
  23963637.01246        41.800          20.400  
  24175750.867 5      3397.101 5      2647.09146  -4994413.900 5  -3869084.10746
  24175745.43446        40.100          22.800  
 08  1 16 16 45  0.0000000  0 10G01G02G04G05G09G12G14G17G20G30   -0.000396688
  25137544.992 5       302.423 5       235.65646  -2072162.947 5  -1609105.16546
  25137539.66046        40.000          19.600  
  21626444.891 7      2604.516 7      2029.49248  -5647707.957 7  -4358631.85148
  21626437.81348        48.700          38.200  
  20404423.789 7        57.089 7        44.48549  -2397684.899 7  -1857570.18449
  20404419.11349        49.100          41.400  
  22345420.297 6      2862.788 6      2230.74347  -5788485.955 6  -4475569.30147
  22345414.80147        43.900          27.500  
  21488019.266 7     -2571.121 7     -2003.47148   1288452.834 7    989464.01548
  21488014.73848        48.200          34.600  
  21669602.305 6      2096.224 6      1633.42248  -4840294.956 6  -3752502.33248
  21669596.43048        47.500          35.200  
  24917921.094 4     -1293.958 4     -1008.27945   -443945.933 4   -348150.76645
  24917915.18845        37.900          17.800  
  22335277.227 6     -3057.201 6     -2382.23348   2366005.510 6   1821687.27148
  22335272.13348        44.700          34.200  
  23966718.789 5     -1077.755 5      -839.81246   -781730.381 5   -609611.54546
  23966713.33246        41.600          21.700  
  24166059.055 4      3394.667 4      2645.19046  -5045333.903 4  -3908761.95346
  24166054.81346        38.400          19.300  
 08  1 16 16 45 15.0000000  0 10G01G02G04G05G09G12G14G17G20G30   -0.000393997
  25136710.641 4       292.214 4       227.69746  -2076546.158 4  -1612520.62746
  25136705.76246        39.000          19.000  
  21619031.344 7      2597.179 7      2023.77548  -5686665.637 7  -4388988.48148
  21619024.27748        49.200          38.000  
  20404294.148 7        45.471 7        35.43249  -2398366.957 7  -1858101.66249
  20404289.68849        48.100          41.300  
  22337262.984 5      2857.522 5      2226.64147  -5831348.783 5  -4508968.91347
  22337258.66047        42.000          28.100  
  21495387.813 7     -2581.472 7     -2011.53648   1327174.908 7   1019637.04948
  21495383.25448        48.300          34.100  
  21663636.438 6      2089.967 6      1628.54548  -4871644.455 6  -3776930.51048
  21663630.78148        45.800          35.500  
  24921642.117 3     -1303.805 3     -1015.95246   -424388.864 3   -332911.48046
  24921636.76646        37.100          19.600  
  22344016.180 6     -3061.496 6     -2385.58148   2411927.948 6   1857470.97848
  22344010.93448        44.400          34.600  
  23969826.789 5     -1088.571 5      -848.23546   -765401.822 5   -596888.02446
  23969821.02046        40.300          20.600  
  24156378.227 5      3391.970 5      2643.10146  -5096213.451 5  -3948408.46846
  24156372.21546        42.300          20.400  
 08  1 16 16 45 30.0000000  0 10G01G02G04G05G09G12G14G17G20G30   -0.000391296
  25135904.633 4       282.177 4       219.87846  -2080778.813 4  -1615818.79346
  25135900.36346        38.900          19.000  
  21611638.500 7      2590.006 7      2018.18548  -5725515.720 7  -4419261.25948
  21611631.94548        49.300          37.300  
  20404196.922 7        34.045 7        26.52849  -2398877.636 7  -1858499.58949
  20404192.34449        48.800          41.700  
  22329121.430 5      2852.422 5      2222.66647  -5874135.114 5  -4542308.89647
  22329115.90647        42.200          27.500  
  21502785.164 7     -2591.620 7     -2019.44348   1366049.204 7   1049928.69748
  21502780.80148        48.400          34.700  
  21657688.328 6      2083.843 6      1623.77448  -4902902.102 6  -3801287.12048
  21657682.65648        47.100          35.600  
  24925391.320 4     -1313.472 4     -1023.48446   -404686.779 4   -317559.21646
  24925386.04346        38.300          19.000  
  22352767.156 6     -3065.597 6     -2388.77648   2457911.906 6   1893302.61948
  22352761.73848        44.100          35.100  
  23972963.992 5     -1099.192 5      -856.51446   -748913.943 5   -584040.31446
  23972958.37946        42.000          20.900  
  24146702.813 5      3389.442 5      2641.11946  -5147055.082 5  -3988025.26046
  24146698.46146        40.800          21.500  
 08  1 16 16 45 45.0000000  0 10G01G02G04G05G09G12G14G17G20G30   -0.000388586
  25135128.180 5       272.180 5       212.08846  -2084861.510 5  -1619000.10846
  25135123.11346        39.800          19.300  
  21604266.031 7      2582.863 7      2012.62048  -5764258.667 7  -4449450.56048
  21604258.82848        49.100          37.600  
  20404132.055 7        22.665 7        17.66148  -2399217.606 7  -1858764.50148
  20404127.54748        48.000          40.900  
  22320993.875 6      2847.341 6      2218.70847  -5916845.233 6  -4575589.51347
  22320988.49247        42.600          28.200  
  21510211.109 7     -2601.695 7     -2027.29648   1405074.635 7   1080338.13148
  21510206.71548        48.800          34.700  
  21651757.570 6      2077.761 6      1619.03548  -4934068.515 6  -3825572.63848
  21651751.89548        45.700          35.200  
  24929168.867 3     -1323.058 3     -1030.95645   -384840.906 3   -302094.88345
  24929162.59045        36.800          18.600  
  22361528.633 6     -3069.641 6     -2391.92848   2503956.517 6   1929181.53948
  22361523.48848        44.100          34.800  
  23976132.023 5     -1109.768 5      -864.75246   -732267.425 5   -571069.03746
  23976126.12946        41.300          21.300  
  24137035.523 6      3386.936 6      2639.16746  -5197859.119 6  -4027612.76846
  24137030.92646        42.500          21.300  
 08  1 16 16 46  0.0000000  0 10G01G02G04G05G09G12G14G17G20G30   -0.000385866
  25134380.430 5       261.998 5       204.15646  -2088791.478 5  -1622062.44246
  25134375.26646        39.900          20.100  
  21596914.492 7      2575.514 7      2006.89448  -5802891.379 7  -4479553.97148
  21596907.62948        47.800          37.700  
  20404100.586 7        11.094 7         8.64548  -2399384.017 7  -1858894.17848
  20404095.90648        48.400          40.700  
  22312881.086 6      2842.067 6      2214.59747  -5959476.231 6  -4608808.46447
  22312876.10947        42.700          28.300  
  21517667.445 6     -2611.937 6     -2035.27548   1444253.688 6   1110867.25748
  21517662.47748        47.400          34.600  
  21645844.625 6      2071.486 6      1614.14548  -4965140.800 6  -3849784.80748
  21645838.97748        47.200          36.200  
  24932972.422 4     -1332.819 4     -1038.55845   -364848.621 4   -286516.51245
  24932966.49645        38.300          18.600  
  22370302.969 6     -3073.858 6     -2395.21348   2550064.393 6   1965109.73548
  22370297.66848        43.700          34.800  
  23979330.508 5     -1120.524 5      -873.13446   -715459.563 5   -557972.02146
  23979324.66846        41.100          22.000  
  24127376.094 5      3384.229 5      2637.06746  -5248622.546 5  -4067168.77646
  24127369.62146        40.100          19.600  
 08  1 16 16 46 15.0000000  0 10G01G02G04G05G09G12G14G17G20G30   -0.000383135
  25133661.383 5       251.924 5       196.30646  -2092570.331 5  -1625007.03246
  25133656.47346        40.400          20.600  
  21589583.586 7      2568.249 7      2001.23248  -5841415.108 7  -4509572.45148
  21589576.28148        49.000          37.900  
  20404101.336 7        -0.360 7        -0.28048  -2399378.623 7  -1858889.97548
  20404096.89148        48.800          41.100  
  22304783.930 6      2836.878 6      2210.55547  -6002029.406 6  -4641966.78747
  22304779.39847        43.200          27.900  
  21525151.391 7     -2622.043 7     -2043.14948   1483584.331 7   1141514.49848
  21525146.96948        47.800          34.800  
  21639949.547 6      2065.304 6      1609.32848  -4996120.366 6  -3873924.73148
  21639943.88348        47.200          36.000  
  24936805.344 4     -1342.462 4     -1046.07445   -344711.696 4   -270825.40245
  24936799.23045        37.700          18.300  
  22379088.531 6     -3077.952 6     -2398.40448   2596233.668 6   2001085.79148
  22379083.52748        44.200          34.400  
  23982559.117 5     -1131.155 5      -881.41946   -698492.240 5   -544750.73846
  23982553.49646        40.800          21.800  
  24117723.484 5      3381.637 5      2635.03646  -5299347.098 5  -4106694.32146
  24117718.56646        41.100          19.600  
 08  1 16 16 46 30.0000000  0 10G01G02G04G05G09G12G14G17G20G30   -0.000380396
  25132971.078 5       242.011 5       188.57846  -2096200.493 5  -1627835.69746
  25132965.81646        40.600          20.100  
  21582272.820 7      2561.150 7      1995.70148  -5879832.354 7  -4539507.96148
  21582266.00448        49.200          38.400  
  20404134.758 7       -11.654 7        -9.08149  -2399203.813 7  -1858753.75549
  20404130.27049        49.400          41.300  
  22296700.516 6      2831.847 6      2206.63347  -6044507.105 6  -4675066.27647
  22296695.94547        42.900          27.800  
  21532664.344 7     -2631.954 7     -2050.87348   1523063.645 7   1172277.59548
  21532659.66048        48.300          35.100  
  21634071.805 7      2059.269 7      1604.62548  -5027009.403 7  -3897994.10348
  21634066.31348        47.800          35.700  
  24940663.313 4     -1351.927 4     -1053.45045   -324432.785 4   -255023.64845
  24940658.34845        37.900          18.600  
  22387885.656 6     -3081.881 6     -2401.46548   2642461.880 6   2037107.76748
  22387880.52748        44.600          34.200  
  23985816.672 5     -1141.611 5      -889.56846   -681368.069 5   -531407.21946
  23985812.77346        42.100          22.200  
  24108078.203 6      3379.168 6      2633.11846  -5350034.624 6  -4146191.08546
  24108073.92246        42.700          22.200  
 08  1 16 16 46 45.0000000  0 10G01G02G04G05G09G12G14G17G20G30   -0.000377647
  25132308.414 5       231.963 5       180.75146  -2099679.936 5  -1630546.96846
  25132303.68446        39.500          19.000  
  21574983.305 7      2553.895 7      1990.04748  -5918140.777 7  -4569358.67048
  21574975.82048        49.100          38.000  
  20404200.750 7       -23.065 7       -17.97348  -2398857.830 7  -1858484.16248
  20404196.40248        49.100          40.900  
  22288632.383 6      2826.650 6      2202.58547  -6086906.849 6  -4708105.05447
  22288627.39547        43.700          28.400  
  21540205.531 6     -2641.980 6     -2058.68548   1562693.341 6   1203157.86248
  21540200.73848        47.300          34.500  
  21628211.164 6      2053.090 6      1599.81048  -5057805.754 6  -3921991.26048
  21628205.67248        47.200          35.900  
  24944549.641 4     -1361.501 4     -1060.90945   -304010.266 4   -239110.01245
  24944544.35245        37.900          18.300  
  22396693.945 6     -3085.922 6     -2404.61448   2688750.703 6   2073176.96948
  22396688.86748        43.800          34.200  
  23989106.625 5     -1152.220 5      -897.83246   -664084.775 5   -517939.74046
  23989101.24246        40.900          21.300  
  24098439.289 5      3376.577 5      2631.10346  -5400683.285 5  -4185657.63146
  24098434.10246        41.300          20.400  
 08  1 16 16 47  0.0000000  0 10G01G02G04G05G09G12G14G17G20G30   -0.000374889
  25131674.617 4       221.956 4       172.95245  -2103009.273 4  -1633141.24845
  25131670.03545        38.800          18.600  
  21567713.930 7      2546.678 7      1984.42548  -5956340.951 7  -4599125.03848
  21567706.78148        48.800          38.200  
  20404298.906 7       -34.436 7       -26.83348  -2398341.291 7  -1858081.66648
  20404294.52748        48.900          40.800  
  22280578.945 6      2821.493 6      2198.56547  -6129229.240 6  -4741083.53647
  22280573.37547        42.900          28.300  
  21547774.977 7     -2651.931 7     -2066.43848   1602472.300 7   1234154.43848
  21547770.58648        47.800          34.600  
  21622368.227 6      2046.940 6      1595.01948  -5088509.857 6  -3945916.54248
  21622362.62148        47.500          35.700  
  24948463.648 4     -1371.027 4     -1068.33045   -283444.863 4   -223085.06445
  24948458.10245        38.100          18.300  
  22405513.820 6     -3089.908 6     -2407.71948   2735099.320 6   2109292.75748
  22405508.57048        43.900          33.900  
  23992425.664 5     -1162.764 5      -906.04946   -646643.320 5   -504349.00746
  23992420.03946        39.400          19.900  
  24088807.859 5      3374.013 5      2629.09946  -5451293.483 5  -4225094.11746
  24088803.64846        41.800          20.600  
 08  1 16 16 47 15.0000000  0 10G01G02G04G05G09G12G14G17G20G30   -0.000372122
  25131069.398 5       211.927 5       165.13846  -2106188.184 5  -1635618.31846
  25131065.10246        39.400          19.900  
  21560465.453 7      2539.420 7      1978.76948  -5994432.257 7  -4628806.56648
  21560458.52348        49.500          38.000  
  20404429.711 7       -45.827 7       -35.70948  -2397653.887 7  -1857546.02848
  20404425.15248        48.700          40.400  
  22272539.750 6      2816.292 6      2194.51347  -6171473.617 6  -4774001.22947
  22272534.32847        43.400          28.200  
  21555373.117 7     -2661.885 7     -2074.19548   1642400.568 7   1265267.36148
  21555368.66848        48.200          34.700  
  21616543.117 6      2040.753 6      1590.19748  -5119121.149 6  -3969769.49348
  21616537.83248        47.400          35.700  
  24952404.297 4     -1380.551 4     -1075.75545   -262736.601 4   -206948.74445
  24952398.93845        37.400          17.800  
  22414344.633 6     -3093.908 6     -2410.83648   2781507.940 6   2145455.30548
  22414339.77048        44.500          34.300  
  23995774.344 5     -1173.294 5      -914.25646   -629043.905 5   -490635.17146
  23995769.27046        39.700          20.600  
  24079187.547 6      3371.393 6      2627.06146  -5501864.371 6  -4264500.03246
  24079180.98446        42.600          22.300  
 08  1 16 16 47 30.0000000  0 10G01G02G04G05G09G12G14G17G20G30   -0.000369345
  25130492.570 5       201.925 5       157.34646  -2109217.053 5  -1637978.50546
  25130489.04346        40.000          19.000  
  21553237.211 7      2532.175 7      1973.12448  -6032414.887 7  -4658403.42548
  21553230.34448        49.300          37.700  
  20404592.656 7       -57.177 7       -44.55348  -2396796.236 7  -1856877.73248
  20404588.13748        48.500          40.900  
  22264515.773 6      2811.112 6      2190.47847  -6213640.290 6  -4806858.39747
  22264511.05547        43.600          28.100  
  21562999.859 7     -2671.778 7     -2081.90448   1682477.231 7   1296495.91948
  21562994.96148        48.300          34.800  
  21610735.703 6      2034.589 6      1585.39448  -5149639.986 6  -3993550.40448
  21610729.93048        47.000          36.300  
  24956372.016 4     -1390.026 4     -1083.13945   -241886.208 4   -190701.66245
  24956366.54745        37.900          17.800  
  22423187.656 6     -3097.857 6     -2413.91548   2827975.803 6   2181664.03248
  22423182.39148        44.300          34.200  
  23999153.078 5     -1183.799 5      -922.44146   -611286.918 5   -476798.55046
  23999148.85246        41.100          20.400  
  24069568.828 5      3368.811 5      2625.04546  -5552396.539 5  -4303875.70746
  24069564.67646        39.900          20.400  
 08  1 16 16 47 45.0000000  0 10G01G02G04G05G09G12G14G17G20G30   -0.000366560
  25129944.828 5       192.037 5       149.63846  -2112097.611 5  -1640223.06946
  25129940.59846        39.800          19.900  
  21546029.906 7      2525.033 7      1967.55848  -6070290.386 7  -4687916.79348
  21546023.30148        49.000          37.600  
  20404787.789 7       -68.415 7       -53.31048  -2395770.017 7  -1856078.08348
  20404783.63348        48.800          40.800  
  22256505.852 5      2806.025 5      2186.51147  -6255730.658 5  -4839656.06247
  22256501.15247        41.900          28.100  
  21570653.758 7     -2681.530 7     -2089.50348   1722700.186 7   1327838.47148
  21570649.14548        47.800          34.600  
  21604945.258 6      2028.517 6      1580.66448  -5180067.744 6  -4017260.35848
  21604939.84448        47.500          36.400  
  24960366.203 4     -1399.382 4     -1090.42945   -220895.484 4   -174345.22445
  24960360.89845        38.600          17.400  
  22432041.250 6     -3101.682 6     -2416.89448   2874501.039 6   2217917.44448
  22432036.20348        44.300          34.200  
  24002562.383 5     -1194.198 5      -930.54546   -593373.946 5   -462840.38046
  24002557.11346        40.400          20.100  
  24059960.703 6      3366.308 6      2623.09946  -5602891.159 6  -4343222.19346
  24059955.60546        43.500          22.200  
 08  1 16 16 48  0.0000000  0 10G01G02G04G05G09G12G14G17G20G30   -0.000363768
  25129425.555 5       182.084 5       141.88745  -2114828.872 5  -1642351.37645
  25129420.64145        40.000          18.600  
  21538842.719 7      2517.810 7      1961.92948  -6108057.530 7  -4717345.72948
  21538836.10548        49.200          37.400  
  20405015.813 7       -79.716 7       -62.11749  -2394574.282 7  -1855146.33549
  20405011.37149        49.300          41.300  
  22248511.461 6      2800.861 6      2182.48947  -6297743.569 6  -4872393.39947
  22248505.94547        43.800          27.000  
  21578336.320 7     -2691.318 7     -2097.13048   1763069.960 7   1359295.42548
  21578331.55948        48.300          35.500  
  21599172.984 7      2022.375 7      1575.87648  -5210403.363 7  -4040898.50148
  21599167.25448        47.800          36.200  
  24964387.297 4     -1408.780 4     -1097.74945   -199763.784 4   -157878.98745
  24964382.53945        38.800          18.600  
  22440905.641 6     -3105.552 6     -2419.91148   2921084.328 6   2254216.10348
  22440900.34448        45.000          35.200  
  24006000.359 5     -1204.639 5      -938.67846   -575304.356 5   -448760.20346
  24005995.44146        40.300          19.600  
  24050358.961 5      3363.743 5      2621.09946  -5653347.307 5  -4382538.67846
  24050354.63746        40.200          22.200  
 08  1 16 16 48 15.0000000  0 10G01G02G04G05G09G12G14G17G20G30   -0.000360968
  25128932.602 4       172.285 4       134.24445  -2117413.153 4  -1644365.03045
  25128929.03945        38.600          18.300  
  21531676.500 7      2510.722 7      1956.40748  -6145718.354 7  -4746691.83248
  21531669.52048        48.800          36.900  
  20405274.961 7       -90.854 7       -70.79549  -2393211.476 7  -1854084.41149
  20405270.57849        49.400          41.500  
  22240531.578 6      2795.833 6      2178.57247  -6339681.059 6  -4905071.98347
  22240525.38747        42.800          27.000  
  21586045.930 7     -2700.935 7     -2104.62448   1803583.987 7   1390864.78048
  21586040.87948        47.700          35.000  
  21593417.547 7      2016.382 7      1571.20748  -5240649.093 7  -4064466.60148
  21593411.60948        48.500          35.700  
  24968435.273 4     -1418.010 4     -1104.94245   -178493.626 4   -141304.85545
  24968429.06645        37.600          17.400  
  22449780.789 6     -3109.266 6     -2422.80348   2967723.316 6   2290558.15148
  22449775.88748        44.900          35.100  
  24009467.844 4     -1214.917 4      -946.69046   -557080.604 4   -434559.85246
  24009463.20746        38.700          21.300  
  24040763.977 5      3361.311 5      2619.19946  -5703766.977 5  -4421826.66246
  24040759.97346        41.400          21.100  
 08  1 16 16 48 30.0000000  0 10G01G02G04G05G09G12G14G17G20G30   -0.000358160
  25128469.625 4       162.456 4       126.59145  -2119849.988 4  -1646263.90245
  25128465.19545        38.700          18.300  
  21524530.070 7      2503.599 7      1950.85648  -6183272.338 7  -4775954.66648
  21524523.31648        49.300          37.300  
  20405566.336 7      -102.012 7       -79.48949  -2391681.292 7  -1852892.07149
  20405561.52749        48.900          41.700  
  22232565.141 5      2790.760 5      2174.61747  -6381542.455 5  -4937691.23547
  22232559.69147        42.100          27.700  
  21593782.383 6     -2710.542 6     -2112.11148   1844242.122 6   1422546.44348
  21593778.13748        47.300          34.900  
  21587678.828 6      2010.335 6      1566.49548  -5270804.119 6  -4087964.02648
  21587673.36348        47.500          36.000  
  24972509.500 4     -1427.241 4     -1112.13645   -157085.008 4   -124622.81945
  24972503.03545        38.400          17.800  
  22458666.602 6     -3112.984 6     -2425.70048   3014418.073 6   2326943.65548
  22458661.50048        45.000          35.200  
  24012965.305 5     -1225.204 5      -954.70546   -538702.550 5   -420239.28346
  24012960.57846        40.400          21.300  
  24031178.039 6      3358.833 6      2617.28146  -5754149.467 6  -4461085.88546
  24031171.47346        42.600          21.700  
 08  1 16 16 48 45.0000000  0 10G01G02G04G05G09G12G14G17G20G30   -0.000355345
  25128034.164 5       152.559 5       118.87646  -2122138.379 5  -1648047.03946
  25128029.69546        40.300          19.300  
  21517404.180 7      2496.384 7      1945.23548  -6220718.102 7  -4805133.18948
  21517397.37148        48.000          37.400  
  20405889.352 7      -113.245 7       -88.24349  -2389982.613 7  -1851568.42349
  20405885.25049        48.900          41.500  
  22224613.930 6      2785.598 6      2170.59847  -6423326.424 6  -4970250.19947
  22224608.38347        43.700          28.000  
  21601547.602 7     -2720.209 7     -2119.64248   1885045.252 7   1454341.07248
  21601542.99648        47.900          34.600  
  21581958.539 7      2004.203 7      1561.71748  -5300867.160 7  -4111389.77648
  21581952.40648        48.400          36.300  
  24976608.727 4     -1436.530 4     -1119.37245   -135537.061 4   -107832.23745
  24976604.16445        37.700          18.600  
  22467563.039 6     -3116.766 6     -2428.64948   3061169.568 6   2363373.38548
  22467557.88748        45.200          35.000  
  24016492.336 5     -1235.567 5      -962.77946   -520169.048 5   -405797.59646
  24016487.93446        41.200          21.800  
  24021596.211 5      3356.293 5      2615.28946  -5804493.863 5  -4500315.21646
  24021591.75046        39.900          22.300  
 08  1 16 16 49  0.0000000  0 10G01G02G04G05G09G12G14G17G20G30   -0.000352522
  25127627.883 5       142.575 5       111.09846  -2124277.007 5  -1649713.50746
  25127622.70746        40.300          19.600  
  21510299.742 7      2489.078 7      1939.54148  -6258054.267 7  -4834226.29948
  21510292.55148        48.600          37.700  
  20406244.930 7      -124.554 7       -97.05548  -2388114.300 7  -1850112.59448
  20406240.76248        49.200          41.000  
  22216677.781 6      2780.341 6      2166.49947  -6465031.538 6  -5002747.68247
  22216672.26647        42.800          28.400  
  21609339.602 7     -2729.934 7     -2127.22148   1925994.264 7   1486249.38248
  21609335.28548        47.800          35.100  
  21576255.250 7      1997.969 7      1556.85948  -5330836.695 7  -4134742.66548
  21576249.66448        47.800          36.300  
  24980736.398 4     -1445.895 4     -1126.67345   -113848.634 4    -90932.14145
  24980731.15245        38.200          17.800  
  22476470.922 6     -3120.630 6     -2431.65948   3107979.012 6   2399848.26648
  22476465.43848        44.900          35.100  
  24020049.727 5     -1246.008 5      -970.91446   -501478.929 5   -391233.88046
  24020044.53946        41.700          21.100  
  24012025.148 6      3353.637 6      2613.22346  -5854798.422 6  -4539513.56246
  24012020.23446        43.800          23.200  
 08  1 16 16 49 15.0000000  0 10G01G02G04G05G09G12G14G17G20G30   -0.000349689
  25127248.656 5       132.602 5       103.32646  -2126266.037 5  -1651263.40046
  25127244.53546        39.400          19.300  
  21503215.242 7      2481.749 7      1933.83048  -6295280.499 7  -4863233.75048
  21503208.70348        48.700          37.800  
  20406632.656 7      -135.845 7      -105.85448  -2386076.619 7  -1848524.78448
  20406628.24248        49.100          41.200  
  22208756.031 6      2775.074 6      2162.39547  -6506657.645 6  -5035183.59947
  22208750.84047        43.600          27.900  
  21617159.461 7     -2739.610 7     -2134.75948   1967088.406 7   1518270.77148
  21617155.04348        48.300          35.000  
  21570569.828 6      1991.742 6      1552.00748  -5360712.825 6  -4158022.77248
  21570564.27048        47.500          36.200  
  24984889.453 3     -1455.223 3     -1133.94245    -92020.295 3    -73923.01045
  24984884.88345        36.600          18.300  
  22485389.227 6     -3124.462 6     -2434.64548   3154845.943 6   2436367.93848
  22485384.44548        45.400          35.100  
  24023635.305 5     -1256.410 5      -979.02246   -482632.772 5   -376548.54646
  24023630.73046        40.800          21.500  
  24002458.211 5      3350.981 5      2611.16046  -5905063.138 5  -4578680.96146
  24002453.38746        40.300          21.800  
 08  1 16 16 49 30.0000000  0 10G01G02G04G05G09G12G14G17G20G30   -0.000346848
  25126898.461 5       122.588 5        95.52446  -2128104.858 5  -1652696.26146
  25126894.09046        39.400          19.900  
  21496152.359 7      2474.373 7      1928.08248  -6332396.090 7  -4892154.98148
  21496145.51248        49.100          37.600  
  20407053.180 7      -147.183 7      -114.68848  -2383868.872 7  -1846804.46048
  20407048.64548        49.900          40.400  
  22200850.445 6      2769.747 6      2158.24547  -6548203.849 6  -5067557.27147
  22200845.04347        42.800          29.100  
  21625007.500 7     -2749.307 7     -2142.31648   2008328.006 7   1550405.51148
  21625002.84448        47.900          35.400  
  21564902.789 7      1985.459 7      1547.11148  -5390494.712 7  -4181229.43248
  21564897.57448        48.500          36.200  
  24989070.898 4     -1464.583 4     -1141.23345    -70051.555 4    -56804.51645
  24989064.84045        37.400          17.800  
  22494319.125 6     -3128.314 6     -2437.64648   3201770.649 6   2472932.63548
  22494313.57848        45.000          35.300  
  24027251.945 5     -1266.856 5      -987.16146   -463629.927 5   -361741.13846
  24027247.04746        41.000          22.800  
  23992901.758 5      3348.273 5      2609.04246  -5955287.237 5  -4617816.58746
  23992896.13746        42.100          22.200  
 08  1 16 16 49 45.0000000  0 10G01G02G04G05G09G12G14G17G20G30   -0.000343998
  25126576.641 4       112.714 4        87.83046  -2129795.574 4  -1654013.71746
  25126572.25446        38.200          19.600  
  21489110.453 7      2467.140 7      1922.44648  -6369403.185 7  -4920991.67248
  21489103.85548        49.500          37.800  
  20407504.984 7      -158.361 7      -123.39848  -2381493.457 7  -1844953.48848
  20407500.10948        48.800          40.900  
  22192959.234 6      2764.551 6      2154.19547  -6589672.114 6  -5099870.19147
  22192953.97747        43.000          27.800  
  21632882.438 7     -2758.831 7     -2149.73648   2049710.463 7   1582651.55548
  21632877.87148        48.400          35.500  
  21559252.680 7      1979.303 7      1542.31348  -5420184.255 7  -4204364.13248
  21559247.03148        48.800          36.500  
  24993276.781 4     -1473.775 4     -1148.39345    -47944.936 4    -39578.62245
  24993271.74245        39.100          17.400  
  22503259.031 6     -3132.017 6     -2440.53348   3248750.911 6   2509540.62548
  22503253.41048        44.900          35.800  
  24030897.734 5     -1277.145 5      -995.17646   -444472.745 5   -346813.49146
  24030892.79346        40.500          21.800  
  23983352.117 5      3345.679 5      2607.02146  -6005472.422 5  -4656921.90446
  23983347.94946        40.900          22.800  
 08  1 16 16 50  0.0000000  0 10G01G02G04G05G09G12G14G17G20G30   -0.000341141
  25126284.039 5       102.709 5        80.03346  -2131336.212 5  -1655214.20646
  25126278.86746        39.400          19.000  
  21482089.570 7      2459.756 7      1916.69448  -6406299.528 7  -4949742.07748
  21482082.80948        49.300          38.200  
  20407989.297 7      -169.666 7      -132.20748  -2378948.467 7  -1842970.38248
  20407984.82848        49.200          40.600  
  22185083.398 6      2759.211 6      2150.03547  -6631060.284 6  -5132120.72347
  22185078.03147        42.600          28.300  
  21640784.609 7     -2768.466 7     -2157.24648   2091237.454 7   1615010.23748
  21640779.75848        49.000          35.200  
  21553621.102 7      1973.006 7      1537.40748  -5449779.339 7  -4227425.23448
  21553615.02048        48.200          36.600  
  24997510.898 3     -1483.082 3     -1155.64945    -25698.706 3    -22243.89045
  24997504.98445        36.300          17.800  
  22512209.617 6     -3135.835 6     -2443.50748   3295788.438 6   2546193.23548
  22512204.42248        45.400          35.300  
  24034572.648 5     -1287.557 5     -1003.29246   -425159.382 5   -331764.10646
  24034567.71146        40.800          21.800  
  23973809.008 5      3342.957 5      2604.90346  -6055616.773 5  -4695995.45546
  23973804.80546        40.500          19.300  
 08  1 16 16 50 15.0000000  0 10G01G02G04G05G09G12G14G17G20G30   -0.000338274
  25126018.859 5        92.912 5        72.40146  -2132729.887 5  -1656300.22446
  25126013.28146        41.100          19.600  
  21475088.719 7      2452.558 7      1911.08348  -6443087.895 7  -4978408.32848
  21475081.84448        49.500          38.000  
  20408505.406 7      -180.768 7      -140.85948  -2376236.941 7  -1840857.50148
  20408500.74248        49.300          40.900  
  22177222.672 6      2754.055 6      2146.01747  -6672371.105 6  -5164310.97347
  22177217.23447        43.100          28.100  
  21648713.508 7     -2777.869 7     -2164.57248   2132905.491 7   1647478.81548
  21648709.16048        48.500          34.500  
  21548006.664 7      1966.908 7      1532.65648  -5479282.960 7  -4250415.07248
  21548001.06648        47.800          36.000  
  25001770.203 4     -1492.178 4     -1162.73645     -3316.033 4     -4802.85145
  25001764.62945        38.200          16.900  
  22521171.055 6     -3139.439 6     -2446.31548   3342880.021 6   2582887.96048
  22521165.81648        44.700          34.600  
  24038277.508 5     -1297.756 5     -1011.23546   -405693.036 5   -316595.58346
  24038272.05946        40.500          21.700  
  23964274.875 5      3340.409 5      2602.92046  -6105722.915 5  -4735039.25646
  23964269.95746        41.100          23.400  
 08  1 16 16 50 30.0000000  0 10G01G02G04G05G09G12G14G17G20G30   -0.000335403
  25125781.391 5        83.086 5        64.74146  -2133976.174 5  -1657271.33846
  25125776.53946        39.500          20.400  
  21468108.984 7      2445.319 7      1905.44248  -6479767.679 7  -5006989.96248
  21468101.99648        49.500          38.100  
  20409052.914 7      -191.883 7      -149.51948  -2373358.702 7  -1838614.71248
  20409048.43048        49.000          40.900  
  22169375.648 6      2748.861 6      2141.97047  -6713604.023 6  -5196440.53047
  22169370.98047        43.500          29.100  
  21656669.398 7     -2787.265 7     -2171.89548   2174714.465 7   1680057.23248
  21656665.30148        48.400          35.000  
  21542409.875 7      1960.756 7      1527.86348  -5508694.298 7  -4273333.01348
  21542404.43448        48.900          36.600  
  25006055.148 4     -1501.283 4     -1169.83345     19203.213 4     12744.64745
  25006050.08645        39.000          16.300  
  22530142.266 6     -3143.061 6     -2449.13848   3390025.942 6   2619625.03648
  22530137.46148        44.700          34.900  
  24042010.250 5     -1307.971 5     -1019.20046   -386073.465 5   -301307.58946
  24042005.60546        41.100          21.100  
  23954747.078 5      3337.838 5      2600.90846  -6155790.480 5  -4774052.87146
  23954742.64846        41.400          22.200  
 08  1 16 16 50 45.0000000  0 10G01G02G04G05G09G12G14G17G20G30   -0.000332523
  25125573.172 4        73.175 4        57.02045  -2135073.794 4  -1658126.64145
  25125567.67645        38.400          18.300  
  21461150.055 7      2437.976 7      1899.72148  -6516337.312 7  -5035485.77948
  21461143.19148        49.100          38.000  
  20409633.016 7      -203.090 7      -158.25248  -2370312.354 7  -1836240.93548
  20409628.01248        48.900          40.800  
  22161544.508 6      2743.552 6      2137.83347  -6754757.304 6  -5228508.02447
  22161539.71147        42.600          28.300  
  21664652.727 7     -2796.717 7     -2179.25948   2216665.222 7   1712746.12348
  21664648.13348        49.000          34.900  
  21536830.844 7      1954.504 7      1522.98948  -5538011.854 7  -4296177.85448
  21536825.47348        47.900          36.100  
  25010367.789 4     -1510.443 4     -1176.96845     41859.863 4     30399.17145
  25010361.44545        39.100          16.900  
  22539124.383 6     -3146.748 6     -2452.01148   3437227.155 6   2656405.19848
  22539119.41448        44.700          34.900  
  24045772.000 5     -1318.262 5     -1027.21846   -366299.532 5   -285899.31746
  24045768.19546        39.600          21.700  
  23945227.055 5      3335.153 5      2598.82346  -6205817.775 5  -4813035.21246
  23945222.22746        42.200          20.900  
 08  1 16 16 51  0.0000000  0 10G01G02G04G05G09G12G14G17G20G30   -0.000329636
  25125392.172 4        63.307 4        49.33045  -2136023.392 4  -1658866.58645
  25125387.03545        38.700          18.600  
  21454211.602 7      2430.668 7      1894.02748  -6552797.340 7  -5063896.19148
  21454204.73448        49.000          38.300  
  20410244.203 7      -214.243 7      -166.94349  -2367098.705 7  -1833736.79449
  20410239.64549        49.300          41.300  
  22153728.945 6      2738.280 6      2133.72347  -6795831.498 6  -5260513.87647
  22153723.71147        42.600          29.600  
  21672662.750 7     -2806.111 7     -2186.57848   2258756.884 7   1745544.79248
  21672657.83648        48.200          34.500  
  21531269.695 7      1948.281 7      1518.14148  -5567236.072 7  -4318949.96548
  21531264.05148        48.300          36.300  
  25014705.031 4     -1519.552 4     -1184.06545     64653.151 4     48160.14545
  25014699.03145        38.700          18.300  
  22548117.047 6     -3150.388 6     -2454.84748   3484482.972 6   2693227.90148
  22548112.03548        44.500          35.400  
  24049565.492 5     -1328.498 5     -1035.19046   -346372.060 5   -270371.47246
  24049560.16046        42.100          21.800  
  23935715.039 6      3332.499 6      2596.75246  -6255805.259 6  -4851986.49546
  23935709.90646        42.600          22.300  
 08  1 16 16 51 15.0000000  0 10G01G02G04G05G09G12G14G17G20G30   -0.000326740
  25125239.469 4        53.465 4        41.66146  -2136825.371 4  -1659491.49546
  25125234.27746        38.400          19.300  
  21447294.320 7      2423.372 7      1888.34248  -6589147.919 7  -5092221.31748
  21447287.87548        49.100          38.600  
  20410887.406 7      -225.364 7      -175.60849  -2363718.251 7  -1831102.67049
  20410882.94949        48.200          41.300  
  22145927.289 6      2733.016 6      2129.62447  -6836826.740 6  -5292458.23247
  22145922.51247        43.100          28.500  
  21680699.211 7     -2815.439 7     -2193.84848   2300988.475 7   1778452.51348
  21680694.40248        48.800          34.600  
  21525726.109 7      1942.082 7      1513.31148  -5596367.299 7  -4341649.63448
  21525720.70748        48.800          36.500  
  25019068.227 4     -1528.619 4     -1191.13445     87582.442 4     66027.15345
  25019062.31645        37.900          16.900  
  22557119.914 6     -3153.989 6     -2457.65448   3531792.810 6   2730092.70548
  22557114.75848        44.000          34.600  
  24053386.961 5     -1338.699 5     -1043.14446   -326291.568 5   -254724.31346
  24053380.98846        41.100          22.300  
  23926210.430 5      3329.857 5      2594.69546  -6305753.115 5  -4890906.92546
  23926204.74246        40.300          21.700  
 08  1 16 16 51 30.0000000  0 10G01G02G04G05G09G12G14G17G20G30   -0.000323839
  25125114.625 5        43.557 5        33.94045  -2137478.730 5  -1660000.60345
  25125109.83645        39.500          18.300  
  21440398.055 7      2415.997 7      1882.59448  -6625387.879 7  -5120460.23148
  21440391.50848        48.600          37.700  
  20411562.859 7      -236.541 7      -184.31748  -2360170.138 7  -1828337.90848
  20411558.28548        48.100          41.000  
  22138141.625 6      2727.670 6      2125.45647  -6877741.784 6  -5324340.07847
  22138136.09847        43.000          28.300  
  21688762.039 7     -2824.818 7     -2201.15648   2343360.749 7   1811469.85748
  21688757.08648        48.500          35.000  
  21520200.852 7      1935.809 7      1508.42348  -5625404.438 7  -4364275.97348
  21520194.77048        48.200          35.900  
  25023457.328 4     -1537.729 4     -1198.22945    110648.383 4     84000.59345
  25023451.80145        38.900          17.800  
  22566132.953 6     -3157.641 6     -2460.49948   3579157.429 6   2767000.18348
  22566128.12948        44.100          34.900  
  24057236.813 5     -1348.953 5     -1051.13146   -306057.267 5   -238957.35246
  24057231.53946        41.500          21.700  
  23916713.305 5      3327.140 5      2592.57746  -6355660.215 5  -4929795.58746
  23916707.59846        41.300          21.800  
 08  1 16 16 51 45.0000000  0 10G01G02G04G05G09G12G14G17G20G30   -0.000320930
  25125018.180 4        33.740 4        26.29445  -2137984.836 4  -1660395.01745
  25125013.75445        37.600          18.600  
  21433522.789 7      2408.696 7      1876.90648  -6661518.314 7  -5148613.82048
  21433515.93848        48.300          38.000  
  20412269.453 7      -247.632 7      -192.96148  -2356455.660 7  -1825443.49848
  20412264.94148        48.700          40.500  
  22130370.320 6      2722.398 6      2121.34847  -6918577.752 6  -5356160.30547
  22130365.52747        43.000          27.400  
  21696850.898 7     -2834.081 7     -2208.37448   2385871.960 7   1844595.47348
  21696846.75848        47.900          34.000  
  21514692.539 7      1929.606 7      1503.59048  -5654348.534 7  -4386829.81648
  21514687.01648        48.700          36.500  
  25027871.133 3     -1546.736 3     -1205.25045    133849.426 3    102079.34945
  25027866.70345        37.200          18.300  
  22575156.148 6     -3161.183 6     -2463.26048   3626575.176 6   2803949.07648
  22575151.56648        44.100          34.400  
  24061116.250 5     -1359.104 5     -1059.04146   -285670.699 5   -223071.74046
  24061110.89546        40.800          21.500  
  23907223.148 5      3324.485 5      2590.50846  -6405527.482 5  -4968653.20046
  23907218.39546        40.700          22.800  
 08  1 16 16 52  0.0000000  0 10G01G02G04G05G09G12G14G17G20G30   -0.000318012
  25124951.172 4        23.690 4        18.45945  -2138340.185 4  -1660671.90045
  25124945.71545        39.100          18.300  
  21426669.094 7      2401.139 7      1871.01748  -6697535.406 7  -5176679.07948
  21426662.06348        49.500          37.600  
  20413008.797 7      -258.943 7      -201.77448  -2352571.510 7  -1822416.89448
  20413004.25048        48.900          40.600  
  22122615.344 5      2716.870 5      2117.04247  -6959330.805 5  -5387915.93847
  22122611.04347        42.100          26.900  
  21704968.500 7     -2843.549 7     -2215.75147   2428525.199 7   1877831.73247
  21704963.27347        48.200          33.100  
  21509203.250 7      1923.137 7      1498.54948  -5683195.589 7  -4409308.04648
  21509197.89848        48.500          36.200  
  25032313.891 4     -1555.962 4     -1212.43545    157188.859 4    120265.87845
  25032307.91045        38.700          17.800  
  22584189.992 6     -3164.963 6     -2466.20448   3674049.614 6   2840942.13148
  22584185.12948        44.300          34.000  
  24065025.391 5     -1369.485 5     -1067.13046   -265128.423 5   -207064.78546
  24065019.77046        41.600          20.600  
  23897741.867 5      3321.585 5      2588.24746  -6455351.261 5  -5007476.90346
  23897737.15646        39.800          20.400  
 08  1 16 16 52 15.0000000  0 10G01G02G04G05G09G12G14G17G20G30   -0.000315086
  25124911.383 4        13.936 4        10.86146  -2138549.231 4  -1660834.81346
  25124906.25846        38.600          19.300  
  21419835.781 7      2393.867 7      1865.35148  -6733443.412 7  -5204659.34548
  21419829.18048        49.300          37.900  
  20413779.289 7      -269.966 7      -210.36348  -2348522.024 7  -1819261.44548
  20413774.73048        49.000          40.200  
  22114875.484 6      2711.623 6      2112.95447  -7000005.152 6  -5419610.24447
  22114870.95347        43.100          27.400  
  21713110.914 7     -2852.692 7     -2222.87647   2471315.579 7   1911174.87747
  21713106.03547        47.800          33.400  
  21503731.445 7      1916.958 7      1493.73448  -5711949.956 7  -4431714.04948
  21503726.33648        48.400          36.100  
  25036780.375 4     -1564.862 4     -1219.37345    180661.796 4    138556.47645
  25036775.03545        38.800          17.800  
  22593234.469 6     -3168.430 6     -2468.90648   3721576.067 6   2877975.71748
  22593229.25448        44.400          34.300  
  24068964.172 5     -1379.563 5     -1074.98346   -244434.971 5   -190940.04446
  24068957.33646        39.700          19.600  
  23888269.281 5      3318.975 5      2586.21746  -6505135.879 5  -5046270.15246
  23888263.54346        41.900          22.200  
 08  1 16 16 52 30.0000000  0 10G01G02G04G05G09G12G14G17G20G30   -0.000312157
  25124899.094 4         4.213 4         3.28245  -2138612.432 4  -1660884.03845
  25124894.10545        38.600          18.600  
  21413023.445 7      2386.613 7      1859.69848  -6769242.610 7  -5232554.81748
  21413017.03148        49.800          37.200  
  20414581.297 7      -280.942 7      -218.91648  -2344307.889 7  -1815977.70648
  20414576.41848        49.200          40.100  
  22107150.258 5      2706.399 5      2108.88147  -7040601.132 5  -5451243.45747
  22107145.35547        42.300          27.000  
  21721279.836 7     -2861.773 7     -2229.95247   2514242.174 7   1944624.15947
  21721274.46147        48.200          33.500  
  21498277.391 7      1910.803 7      1488.93748  -5740611.996 7  -4454048.10148
  21498272.14148        48.300          36.500  
  25041271.727 4     -1573.719 4     -1226.27645    204267.580 4    156950.61845
  25041266.68845        37.700          17.800  
  22602287.820 6     -3171.855 6     -2471.57547   3769153.890 6   2915049.34047
  22602283.27347        44.000          33.500  
  24072930.172 5     -1389.587 5     -1082.79446   -223591.165 5   -174698.13546
  24072924.50846        40.000          20.100  
  23878802.148 5      3316.382 5      2584.19446  -6554881.608 5  -5085033.06246
  23878797.92646        41.300          21.800  
 08  1 16 16 52 45.0000000  0 10G01G02G04G05G09G12G14G17G20G30   -0.000309217
  25124915.773 5        -5.790 5        -4.51146  -2138525.585 5  -1660816.37846
  25124909.96946        39.200          19.000  
  21406232.695 7      2379.056 7      1853.80948  -6804928.448 7  -5260361.94848
  21406225.94948        48.900          37.400  
  20415415.133 7      -292.198 7      -227.68748  -2339924.923 7  -1812562.40448
  20415410.38348        49.100          40.600  
  22099440.406 6      2700.858 6      2104.56647  -7081114.000 6  -5482811.94747
  22099435.91047        44.000          27.400  
  21729474.789 7     -2871.119 7     -2237.23547   2557308.966 7   1978182.68847
  21729470.19147        48.000          33.000  
  21492841.148 7      1904.349 7      1483.90948  -5769177.230 7  -4476306.73148
  21492836.27048        48.400          36.200  
  25045789.867 4     -1582.857 4     -1233.39545    228010.438 4    175451.54145
  25045785.15645        38.400          16.900  
  22611351.984 6     -3175.546 6     -2474.45147   3816787.087 6   2952166.11147
  22611347.11347        44.100          33.300  
  24076923.766 5     -1399.898 5     -1090.83146   -202592.701 5   -158335.66846
  24076920.08646        39.200          19.900  
  23869344.445 5      3313.489 5      2581.93846  -6604583.947 5  -5123762.13946
  23869339.50446        42.100          20.900  
 08  1 16 16 53  0.0000000  0 10G01G02G04G05G09G12G14G17G20G30   -0.000306273
  25124960.836 3       -15.653 3       -12.19545  -2138290.794 3  -1660633.44645
  25124954.87145        37.300          17.400  
  21399463.234 7      2371.638 7      1848.02948  -6840503.019 7  -5288082.38448
  21399456.77348        49.700          37.500  
  20416281.008 7      -303.300 7      -236.33848  -2335375.429 7  -1809017.33648
  20416276.28548        49.500          40.000  
  22091746.539 6      2695.459 6      2100.35847  -7121545.889 6  -5514317.31347
  22091742.30147        43.200          27.600  
  21737696.734 7     -2880.290 7     -2244.38147   2600513.318 7   2011848.40247
  21737691.87947        47.600          32.400  
  21487424.047 7      1898.029 7      1478.98348  -5797647.665 7  -4498491.48248
  21487418.83248        48.100          36.300  
  25050333.703 4     -1591.811 4     -1240.37345    251887.604 4    194057.12945
  25050328.28145        38.400          17.400  
  22620426.133 6     -3179.072 6     -2477.19847   3864473.168 6   2989324.08547
  22620421.88347        43.700          33.100  
  24080950.664 5     -1410.049 5     -1098.73546   -181441.970 5   -141854.64746
  24080945.28946        40.500          21.100  
  23859894.539 6      3310.720 6      2579.78546  -6654244.751 6  -5162458.91046
  23859889.07046        43.000          20.900  
 08  1 16 16 53 15.0000000  0 10G01G02G04G05G09G12G14G17G20G30   -0.000303318
  25125033.016 4       -25.575 4       -19.93045  -2137907.166 4  -1660334.50145
  25125028.47745        38.500          17.800  
  21392714.938 7      2364.145 7      1842.19048  -6875965.196 7  -5315715.23748
  21392708.31648        48.800          37.600  
  20417178.563 7      -314.460 7      -245.03448  -2330658.527 7  -1805341.82948
  20417173.84448        49.900          40.000  
  22084068.305 6      2689.976 6      2096.08547  -7161895.530 6  -5545758.59247
  22084063.57447        43.600          27.500  
  21745944.250 7     -2889.502 7     -2251.55947   2643855.843 7   2045621.78447
  21745939.25047        47.900          32.800  
  21482024.547 7      1891.629 7      1473.99648  -5826022.104 7  -4520601.42848
  21482019.26648        48.100          36.200  
  25054902.727 4     -1600.832 4     -1247.40045    275900.078 4    212768.12145
  25054897.44945        37.800          18.300  
  22629510.914 6     -3182.656 6     -2479.99147   3912213.003 6   3026523.94547
  22629506.31347        44.200          33.200  
  24085004.633 5     -1420.245 5     -1106.68346   -160138.302 5   -125254.39646
  24084999.56346        40.100          19.600  
  23850451.914 5      3307.874 5      2577.56546  -6703862.860 5  -5201122.39246
  23850447.67646        39.900          20.400  
 08  1 16 16 53 30.0000000  0 10G01G02G04G05G09G12G14G17G20G30   -0.000300358
  25125134.555 5       -35.330 5       -27.53145  -2137377.214 5  -1659921.53845
  25125129.18845        39.700          17.800  
  21385987.383 7      2356.799 7      1836.46648  -6911317.179 7  -5343262.23048
  21385980.73848        49.500          36.800  
  20418107.453 7      -325.451 7      -253.59848  -2325776.761 7  -1801537.85448
  20418102.35248        49.500          39.900  
  22076406.156 6      2684.647 6      2091.93347  -7202165.234 6  -5577137.58847
  22076400.53547        43.800          27.900  
  21754217.625 6     -2898.513 6     -2258.58147   2687333.537 6   2079500.49747
  21754212.87547        47.300          32.900  
  21476642.781 7      1885.390 7      1469.13548  -5854302.949 7  -4542638.44848
  21476637.27348        48.200          36.400  
  25059497.094 3     -1609.658 3     -1254.27845    300044.944 3    231582.28545
  25059492.10245        36.500          16.300  
  22638605.211 6     -3186.054 6     -2482.63947   3960003.813 6   3063763.52447
  22638600.63347        43.900          31.600  
  24089088.117 5     -1430.269 5     -1114.49146   -138684.268 5   -108537.02846
  24089082.01246        39.200          20.400  
  23841018.648 6      3305.198 6      2575.47546  -6753440.832 6  -5239754.52146
  23841013.68846        42.600          22.200  
 08  1 16 16 53 45.0000000  0 10G01G02G04G05G09G12G14G17G20G30   -0.000297392
  25125263.023 5       -45.103 5       -35.15045  -2136700.663 5  -1659394.29545
  25125258.47745        39.200          17.800  
  21379281.227 7      2349.416 7      1830.71348  -6946558.417 7  -5370722.93048
  21379274.76248        49.100          36.700  
  20419067.703 7      -336.457 7      -262.17548  -2320729.903 7  -1797605.23548
  20419063.30948        49.500          39.500  
  22068758.336 6      2679.268 6      2087.74147  -7242354.259 6  -5608453.69947
  22068752.72347        44.300          27.500  
  21762517.195 6     -2907.525 6     -2265.60347   2730946.419 6   2113484.54447
  21762512.27747        47.500          31.700  
  21471279.078 7      1879.101 7      1464.23548  -5882489.471 7  -4564601.97548
  21471273.55548        48.100          36.800  
  25064117.313 4     -1618.473 4     -1261.14845    324322.037 4    250499.51145
  25064112.54345        37.700          18.300  
  22647709.086 6     -3189.467 6     -2485.29847   4007845.819 6   3101042.99447
  22647704.37147        45.100          31.900  
  24093197.969 4     -1440.301 4     -1122.31546   -117079.756 4    -91702.30146
  24093193.76646        38.800          19.900  
  23831590.641 5      3302.465 5      2573.35346  -6802977.804 5  -5278354.81846
  23831586.31646        42.000          21.500  
 08  1 16 16 54  0.0000000  0 10G01G02G04G05G09G12G14G17G20G30   -0.000294420
  25125419.109 5       -54.806 5       -42.70145  -2135878.580 5  -1658753.78145
  25125414.29745        39.600          18.600  
  21372595.867 7      2342.103 7      1825.01548  -6981689.967 7  -5398098.15648
  21372589.59048        49.100          37.000  
  20420059.352 7      -347.384 7      -270.68848  -2315519.148 7  -1793544.90848
  20420054.61748        49.900          39.500  
  22061125.109 6      2673.963 6      2083.60747  -7282463.698 6  -5639707.80947
  22061120.60947        43.200          27.100  
  21770841.570 6     -2916.423 6     -2272.53747   2774692.765 6   2147572.59447
  21770836.65247        47.500          32.100  
  21465933.070 7      1872.888 7      1459.39348  -5910582.792 7  -4586492.87548
  21465927.96148        48.900          36.300  
  25068761.742 4     -1627.211 4     -1267.95445    348730.198 4    269518.82745
  25068756.91045        37.500          17.400  
  22656822.695 6     -3192.799 6     -2487.89447   4055737.797 6   3138361.40847
  22656817.77047        45.400          31.900  
  24097337.680 5     -1450.260 5     -1130.07146    -95325.862 5    -74751.23246
  24097332.93446        40.400          19.600  
  23822172.156 5      3299.797 5      2571.26946  -6852474.762 5  -5316923.84946
  23822167.75846        42.000          20.400  
 08  1 16 16 54 15.0000000  0 10G01G02G04G05G09G12G14G17G20G30   -0.000291443
  25125603.375 4       -64.477 4       -50.24446  -2134911.421 4  -1658000.12446
  25125598.46946        37.700          19.300  
  21365931.594 7      2334.793 7      1819.31948  -7016711.860 7  -5425387.94148
  21365924.83648        49.400          37.000  
  20421082.156 7      -358.272 7      -279.17448  -2310145.062 7  -1789357.30248
  20421077.03948        50.200          39.700  
  22053508.141 6      2668.654 6      2079.47147  -7322493.500 6  -5670899.87847
  22053502.50847        44.000          26.800  
  21779191.773 7     -2925.277 7     -2279.43747   2818571.924 7   2181764.14147
  21779186.67247        47.800          32.000  
  21460604.695 7      1866.681 7      1454.55648  -5938583.004 7  -4608311.22048
  21460599.71548        49.000          36.100  
  25073431.492 4     -1635.907 4     -1274.73245    373268.808 4    288639.80945
  25073426.46145        37.900          16.900  
  22665946.086 6     -3196.094 6     -2490.46347   4103679.212 6   3175718.35447
  22665940.92647        44.800          31.600  
  24101505.531 5     -1460.161 5     -1137.78946    -73423.442 5    -57684.39646
  24101501.07846        40.500          20.900  
  23812761.359 5      3297.131 5      2569.19446  -6901931.722 5  -5355461.75446
  23812756.70746        41.400          21.500  
 08  1 16 16 54 30.0000000  0 10G01G02G04G05G09G12G14G17G20G30   -0.000288458
  25125815.523 4       -74.247 4       -57.85445  -2133797.709 4  -1657132.31845
  25125810.83245        39.000          18.300  
  21359288.516 7      2327.370 7      1813.53548  -7051622.403 7  -5452590.96248
  21359281.40648        49.500          37.200  
  20422136.305 7      -369.262 7      -287.73648  -2304606.131 7  -1785041.25548
  20422131.14848        49.900          39.300  
  22045906.156 6      2663.236 6      2075.24847  -7362442.034 6  -5702028.59247
  22045901.09447        44.300          26.700  
  21787567.211 6     -2934.204 6     -2286.39247   2862584.985 6   2216060.01847
  21787562.11747        47.300          31.700  
  21455294.602 7      1860.382 7      1449.64948  -5966488.740 7  -4630055.95848
  21455289.24248        49.900          36.500  
  25078125.523 4     -1644.677 4     -1281.56845    397938.960 4    307863.32845
  25078120.85545        37.400          16.300  
  22675078.797 6     -3199.479 6     -2493.10047   4151671.390 6   3213114.85247
  22675073.28547        45.100          32.400  
  24105703.125 5     -1470.168 5     -1145.58346    -51370.916 5    -40500.65746
  24105697.40246        40.800          20.900  
  23803357.320 6      3294.367 6      2567.04246  -6951347.229 6  -5393967.38046
  23803352.38746        43.500          21.700  
 08  1 16 16 54 45.0000000  0 10G01G02G04G05G09G12G14G17G20G30   -0.000285471
  25126054.727 4       -83.697 4       -65.21846  -2132542.261 4  -1656154.04846
  25126049.17246        38.300          19.000  
  21352665.539 7      2320.247 7      1807.98548  -7086426.112 7  -5479710.73048
  21352658.83248        49.800          37.000  
  20423220.664 7      -379.923 7      -296.04448  -2298907.281 7  -1780600.58948
  20423215.62948        49.800          39.300  
  22038318.500 6      2658.114 6      2071.25847  -7402313.742 6  -5733097.45947
  22038313.28147        43.700          27.200  
  21795966.813 6     -2942.787 6     -2293.08047   2906726.787 6   2250456.21147
  21795962.26247        46.900          32.300  
  21450001.609 7      1854.359 7      1444.95548  -5994304.118 7  -4651730.27648
  21449995.94148        48.900          36.000  
  25082845.320 4     -1653.122 4     -1288.14445    422735.785 4    327185.48145
  25082840.23445        37.600          17.400  
  22684220.281 6     -3202.525 6     -2495.47447   4199709.265 6   3250546.96147
  22684214.76247        44.800          32.200  
  24109925.867 4     -1479.844 4     -1153.12546    -29173.262 4    -23203.77846
  24109921.69146        39.000          20.100  
  23793961.188 6      3291.896 6      2565.11446  -7000725.667 6  -5432444.08646
  23793956.53946        42.600          22.500  
 08  1 16 16 55  0.0000000  0 10G01G02G04G05G09G12G14G17G20G30   -0.000282478
  25126320.969 4       -93.373 4       -72.75645  -2131141.662 4  -1655062.70645
  25126316.27045        38.600          18.600  
  21346063.461 7      2312.897 7      1802.25648  -7121119.563 7  -5506744.57248
  21346056.81648        49.800          37.400  
  20424336.000 7      -390.784 7      -304.50748  -2293045.517 7  -1776032.98048
  20424330.85948        50.300          38.900  
  22030746.438 6      2652.757 6      2067.08247  -7442105.093 6  -5764103.69047
  22030741.20747        43.400          27.100  
  21804391.391 6     -2951.548 6     -2299.90747   2951000.012 6   2284954.81347
  21804386.69547        47.500          31.900  
  21444726.008 7      1848.102 7      1440.07948  -6022025.648 7  -4673331.46748
  21444721.21148        48.900          35.500  
  25087587.430 3     -1661.761 3     -1294.88245    447662.198 3    346608.71945
  25087582.78145        37.300          16.300  
  22693371.055 6     -3205.780 6     -2498.01047   4247795.960 6   3288017.11847
  22693365.89847        46.000          32.300  
  24114179.078 5     -1489.709 5     -1160.81246     -6827.623 5     -5791.59446
  24114173.57046        41.400          21.700  
  23784572.859 6      3289.198 6      2563.01346  -7050063.646 6  -5470889.28046
  23784568.20746        42.600          22.300  
 08  1 16 16 55 15.0000000  0 10G01G02G04G05G09G12G14G17G20G30   -0.000279480
  25126615.422 5      -103.120 5       -80.35645  -2129594.857 5  -1653857.36845
  25126611.02045        39.500          18.300  
  21339482.813 7      2305.451 7      1796.45448  -7155701.325 7  -5533691.39048
  21339476.09848        49.600          37.200  
  20425482.555 7      -401.740 7      -313.04448  -2287019.423 7  -1771337.32048
  20425477.62948        51.000          39.400  
  22023189.984 6      2647.303 6      2062.83447  -7481814.637 6  -5795046.20347
  22023184.98447        43.400          28.200  
  21812841.492 6     -2960.374 6     -2306.78547   2995405.623 6   2319556.58247
  21812837.00847        47.100          31.500  
  21439469.359 7      1841.744 7      1435.12648  -6049651.804 7  -4694858.35348
  21439463.82048        49.500          36.200  
  25092355.391 3     -1670.463 3     -1301.66145    472719.146 3    366133.62645
  25092351.23445        37.200          16.900  
  22702531.008 6     -3209.102 6     -2500.59947   4295932.490 6   3325526.09847
  22702525.39847        45.400          32.700  
  24118458.938 5     -1499.648 5     -1168.55746     15667.096 5     11736.75846
  24118454.55146        42.300          21.700  
  23775192.156 5      3286.390 5      2560.82346  -7099359.493 5  -5509301.61746
  23775187.36346        41.600          21.500  
 08  1 16 16 55 30.0000000  0 10G01G02G04G05G09G12G14G17G20G30   -0.000276476
  25126937.531 5      -112.920 5       -87.98746  -2127901.056 5  -1652537.56246
  25126934.29346        39.600          19.600  
  21332922.961 7      2297.941 7      1790.60248  -7190170.437 7  -5560550.42548
  21332916.66448        49.400          38.200  
  20426660.617 7      -412.728 7      -321.60648  -2280828.499 7  -1766513.22648
  20426655.88348        50.300          38.900  
  22015649.211 6      2641.783 6      2058.53147  -7521441.378 6  -5825924.17347
  22015644.24247        43.900          27.200  
  21821317.109 6     -2969.229 6     -2313.68447   3039944.059 6   2354261.84347
  21821312.50847        46.700          32.200  
  21434230.273 7      1835.335 7      1430.13148  -6077181.830 7  -4716310.31448
  21434225.15248        48.800          36.300  
  25097150.102 3     -1679.188 3     -1308.45545    497906.966 3    385760.44745
  25097144.46545        37.000          16.900  
  22711700.406 6     -3212.466 6     -2503.22047   4344119.473 6   3363074.39847
  22711695.12947        45.700          32.600  
  24122768.023 5     -1509.648 5     -1176.34846     38311.813 5     29381.98246
  24122763.21946        40.800          22.200  
  23765819.672 6      3283.524 6      2558.59246  -7148612.357 6  -5547680.49146
  23765814.82046        42.600          21.100  
 08  1 16 16 55 45.0000000  0 10G01G02G04G05G09G12G14G17G20G30   -0.000273466
  25127287.188 4      -122.623 4       -95.54946  -2126061.713 4  -1651104.32946
  25127283.46546        37.400          19.000  
  21326385.430 7      2290.506 7      1784.80948  -7224528.020 7  -5587322.55748
  21326379.21548        49.900          38.000  
  20427869.758 7      -423.620 7      -330.09348  -2274474.199 7  -1761561.82348
  20427864.97348        50.000          39.400  
  22008124.219 6      2636.333 6      2054.28647  -7560986.369 6  -5856738.46847
  22008118.80547        43.400          28.200  
  21829817.773 6     -2977.959 6     -2320.48747   3084613.449 6   2389069.14247
  21829812.92647        46.400          32.000  
  21429009.570 7      1829.009 7      1425.20248  -6104616.967 7  -4737688.33748
  21429004.14548        49.000          36.000  
  25101967.484 3     -1687.820 3     -1315.18245    523224.270 3    405488.18645
  25101962.00445        37.000          16.900  
  22720879.430 6     -3215.724 6     -2505.75947   4392355.339 6   3400660.77947
  22720874.33247        45.600          32.400  
  24127105.875 5     -1519.524 5     -1184.04246     61104.677 5     47142.61746
  24127100.91446        40.200          21.800  
  23756455.117 5      3280.735 5      2556.41746  -7197823.382 5  -5586026.74746
  23756451.07046        42.000          23.400  
 08  1 16 16 56  0.0000000  0 10G01G02G04G05G09G12G14G17G20G30   -0.000270451
  25127664.852 4      -132.123 4      -102.95245  -2124079.867 4  -1649560.04645
  25127660.55145        37.400          18.300  
  21319867.969 7      2283.270 7      1779.17048  -7258777.062 7  -5614010.10248
  21319861.71548        49.500          38.000  
  20429109.484 7      -434.305 7      -338.42048  -2267959.623 7  -1756485.52648
  20429104.38748        49.900          39.400  
  22000613.953 6      2631.080 6      2050.19147  -7600452.562 6  -5887491.33747
  22000609.03147        43.700          28.000  
  21838342.070 6     -2986.452 6     -2327.10547   3129410.236 6   2423975.71447
  21838337.60247        46.800          32.400  
  21423806.180 7      1822.868 7      1420.41748  -6131959.992 7  -4758994.59648
  21423801.07848        48.500          36.700  
  25106809.008 3     -1696.230 3     -1321.74045    548667.719 3    425314.27945
  25106803.72345        36.900          16.900  
  22730067.281 6     -3218.760 6     -2508.12447   4440636.748 6   3438282.63747
  22730061.90247        45.500          33.000  
  24131470.477 5     -1529.190 5     -1191.57846     84042.521 5     65016.28046
  24131465.69946        39.700          21.700  
  23747097.695 6      3278.144 6      2554.39646  -7246995.538 6  -5624342.68846
  23747093.12546        43.200          21.700  
 08  1 16 16 56 15.0000000  0 10G01G02G04G05G09G12G14G17G20G30   -0.000267431
  25128070.563 4      -141.869 4      -110.54845  -2121951.826 4  -1647901.82745
  25128065.64145        38.900          17.800  
  21313372.313 7      2275.763 7      1773.32248  -7292913.512 7  -5640609.92448
  21313365.75848        50.200          37.900  
  20430380.195 7      -445.229 7      -346.93248  -2261281.186 7  -1751281.55048
  20430375.64848        50.100          39.600  
  21993120.133 6      2625.551 6      2045.88447  -7639835.823 6  -5918179.59047
  21993114.62947        43.600          27.300  
  21846891.398 6     -2995.167 6     -2333.89647   3174337.743 6   2458984.15547
  21846886.90647        46.400          32.400  
  21418621.875 7      1816.467 7      1415.42848  -6159206.994 7  -4780226.02148
  21418616.06648        49.000          36.800  
  25111675.883 4     -1704.844 4     -1328.44745    574240.374 4    445240.97745
  25111670.64145        37.600          18.600  
  22739264.375 6     -3222.035 6     -2510.67747   4488967.278 6   3475942.78347
  22739259.16847        45.500          33.400  
  24135863.883 5     -1539.093 5     -1199.29246    107128.909 5     83005.65946
  24135858.85546        41.200          21.100  
  23737748.547 6      3275.273 6      2552.16546  -7296124.627 6  -5662625.15846
  23737743.12946        43.200          21.100  
 08  1 16 16 56 30.0000000  0 10G01G02G04G05G09G12G14G17G20G30   -0.000264406
  25128501.945 2      -151.571 2      -118.10646  -2119678.266 2  -1646130.23846
  25128498.19946        35.400          19.000  
  21306897.523 7      2268.289 7      1767.49748  -7326937.852 7  -5667122.37948
  21306891.21948        50.000          37.800  
  20431681.961 7      -456.097 7      -355.40048  -2254439.730 7  -1745950.54848
  20431677.35548        50.000          39.000  
  21985641.203 6      2620.058 6      2041.60347  -7679136.688 6  -5948803.63447
  21985635.91047        44.600          28.700  
  21855465.789 6     -3003.814 6     -2340.63347   3219394.950 6   2494093.64947
  21855460.67647        46.800          31.400  
  21413455.063 7      1810.095 7      1410.46448  -6186358.420 7  -4801382.97948
  21413449.36748        49.700          36.100  
  25116565.297 4     -1713.409 4     -1335.12645    599941.507 4    465267.86845
  25116560.84445        38.100          17.400  
  22748470.109 6     -3225.262 6     -2513.19048   4537346.205 6   3513640.64048
  22748465.77048        46.100          34.100  
  24140285.359 5     -1548.933 5     -1206.96146    130362.903 5    101110.07346
  24140280.27046        41.400          22.000  
  23728408.195 6      3272.438 6      2549.95146  -7345211.199 6  -5700874.42846
  23728403.31646        42.600          22.500  
 08  1 16 16 56 45.0000000  0 10G01G02G04G05G09G12G14G17G20G30   -0.000261377
  25128960.320 3      -161.061 3      -125.50446  -2117262.345 3  -1644247.67446
  25128958.71946        36.200          19.000  
  21300443.578 7      2261.007 7      1761.82348  -7360852.959 7  -5693549.72848
  21300437.29748        50.300          37.800  
  20433014.852 7      -466.754 7      -363.70548  -2247438.415 7  -1740494.97948
  20433010.25448        50.200          39.700  
  21978177.820 6      2614.752 6      2037.46947  -7718357.964 6  -5979365.67147
  21978171.94547        44.600          28.300  
  21864063.555 6     -3012.223 6     -2347.18647   3264578.301 6   2529301.44447
  21864059.15647        46.800          31.600  
  21408305.773 7      1803.911 7      1405.64548  -6213417.078 7  -4822467.64748
  21408300.34848        49.500          36.300  
  25121479.719 4     -1721.753 4     -1341.62645    625767.800 4    485392.25945
  25121475.55545        37.400          17.400  
  22757685.516 6     -3228.271 6     -2515.53548   4585770.275 6   3551373.67248
  22757680.36348        45.600          33.900  
  24144734.211 5     -1558.563 5     -1214.46446    153741.349 5    119327.02946
  24144729.18846        42.100          22.200  
  23719074.383 6      3269.797 6      2547.88946  -7394258.148 6  -5739092.76646
  23719069.75846        43.900          21.700  
 08  1 16 16 57  0.0000000  0 10G01G02G04G05G09G12G14G17G20G30   -0.000258341
  25129449.547 4      -170.809 4      -133.09645  -2114700.210 4  -1642251.23745
  25129446.57045        38.200          18.600  
  21294011.219 7      2253.451 7      1755.93548  -7394654.720 7  -5719888.74848
  21294004.83248        49.800          37.600  
  20434378.008 7      -477.667 7      -372.20848  -2240273.411 7  -1734911.85748
  20434373.40248        49.100          39.400  
  21970730.109 6      2609.167 6      2033.11647  -7757495.460 6  -6009862.41447
  21970724.74247        43.200          27.700  
  21872686.680 6     -3020.874 6     -2353.92747   3309891.415 6   2564610.34947
  21872681.58247        46.500          31.800  
  21403174.969 7      1797.463 7      1400.62148  -6240379.027 7  -4843476.96348
  21403169.33248        49.000          36.200  
  25126420.078 4     -1730.340 4     -1348.31545    651722.895 4    505616.98745
  25126415.21545        38.700          17.400  
  22766909.242 6     -3231.530 6     -2518.07547   4634243.229 6   3589144.79247
  22766904.61747        45.800          33.600  
  24149210.586 5     -1568.435 5     -1222.15846    177267.875 5    137659.40246
  24149206.11346        41.800          21.800  
  23709749.656 5      3266.865 5      2545.61546  -7443261.125 5  -5777276.99946
  23709743.82446        42.100          21.100  
 08  1 16 16 57 15.0000000  0 10G01G02G04G05G09G12G14G17G20G30   -0.000255301
  25129964.680 5      -180.469 5      -140.62445  -2111993.177 5  -1640141.87445
  25129960.78545        39.200          18.300  
  21287600.180 7      2245.966 7      1750.10248  -7428344.210 7  -5746140.28548
  21287593.48448        49.800          37.700  
  20435772.383 7      -488.482 7      -380.63648  -2232946.177 7  -1729202.32148
  20435767.86348        49.500          39.200  
  21963297.453 6      2603.646 6      2028.81647  -7796550.145 6  -6040294.65747
  21963292.58247        43.000          27.500  
  21881333.641 6     -3029.408 6     -2360.57747   3355332.533 6   2600019.00347
  21881328.85947        46.100          31.500  
  21398062.461 7      1791.078 7      1395.64548  -6267245.201 7  -4864411.64048
  21398056.89848        48.900          36.500  
  25131383.164 4     -1738.818 4     -1354.92345    677805.163 4    525940.82945
  25131378.53545        38.000          16.900  
  22776142.719 6     -3234.692 6     -2520.54047   4682763.614 6   3626952.88447
  22776137.46947        46.400          33.700  
  24153715.586 5     -1578.216 5     -1229.77746    200941.110 5    156106.06046
  24153710.39546        42.200          22.300  
  23700433.023 6      3264.019 6      2543.39046  -7492221.413 6  -5815427.84646
  23700428.45746        42.600          22.600  
 08  1 16 16 57 30.0000000  0 10G01G02G04G05G09G12G14G17G20G30   -0.000252254
  25130507.383 5      -190.135 5      -148.16045  -2109141.153 5  -1637919.46745
  25130503.23845        39.700          18.300  
  21281210.883 7      2238.475 7      1744.26548  -7461921.328 7  -5772304.26248
  21281204.16048        50.200          37.700  
  20437197.625 7      -499.295 7      -389.06148  -2225456.745 7  -1723366.40248
  20437192.75448        49.800          39.200  
  21955881.680 6      2598.111 6      2024.50147  -7835521.813 6  -6070662.17847
  21955876.67647        45.100          28.600  
  21890005.336 6     -3037.918 6     -2367.20847   3400901.312 6   2635527.11747
  21890000.16847        47.000          31.600  
  21392967.961 7      1784.677 7      1390.65748  -6294015.357 7  -4885271.49748
  21392962.85248        48.300          36.000  
  25136371.070 4     -1747.273 4     -1361.50845    704014.262 4    546363.44945
  25136365.69945        38.700          16.900  
  22785384.539 6     -3237.841 6     -2522.99347   4731331.225 6   3664797.77547
  22785379.67647        46.300          33.400  
  24158249.445 6     -1587.990 6     -1237.39146    224760.965 6    174666.93346
  24158242.83646        42.900          21.800  
  23691124.000 6      3261.149 6      2541.15646  -7541138.655 6  -5853545.18146
  23691119.06646        42.800          21.300  
 08  1 16 16 57 45.0000000  0 10G01G02G04G05G09G12G14G17G20G30   -0.000249205
  25131077.500 5      -199.736 5      -155.63946  -2106145.119 5  -1635584.88146
  25131074.17646        39.700          20.100  
  21274842.563 7      2231.021 7      1738.45748  -7495386.645 7  -5798381.12148
  21274835.70348        49.800          38.200  
  20438653.641 7      -510.042 7      -397.43548  -2217806.119 7  -1717404.88048
  20438648.93048        49.400          39.400  
  21948481.750 6      2592.618 6      2020.22247  -7874411.076 6  -6100965.50947
  21948476.42247        45.000          27.800  
  21898700.422 6     -3046.331 6     -2373.76547   3446596.280 6   2671133.59647
  21898696.21947        46.200          31.600  
  21387892.453 7      1778.333 7      1385.71448  -6320690.355 7  -4906057.20548
  21387886.65248        49.300          35.900  
  25141381.734 4     -1755.658 4     -1368.04745    730349.138 4    566884.15645
  25141376.74245        39.000          17.800  
  22794635.422 6     -3240.907 6     -2525.38148   4779944.829 6   3702678.49548
  22794630.25048        45.500          33.800  
  24162809.016 5     -1597.687 5     -1244.95246    248726.263 5    193341.21046
  24162803.35246        41.800          22.000  
  23681823.609 6      3258.316 6      2538.94946  -7590013.389 6  -5891629.42346
  23681817.96946        42.700          21.100  
 08  1 16 16 58  0.0000000  0 10G01G02G04G05G09G12G14G17G20G30   -0.000246149
  25131676.391 5      -209.493 5      -163.24046  -2103002.728 5  -1633136.27446
  25131671.83646        40.500          19.600  
  21268496.617 7      2223.401 7      1732.51948  -7528737.652 7  -5824368.90548
  21268489.21548        50.000          38.900  
  20440140.563 7      -520.933 7      -405.92348  -2209992.117 7  -1711316.04248
  20440136.06348        49.600          39.800  
  21941097.352 6      2586.950 6      2015.80547  -7913215.324 6  -6131202.57747
  21941092.10947        45.100          27.900  
  21907420.352 6     -3054.886 6     -2380.42947   3492419.578 6   2706840.03747
  21907415.86747        45.800          31.600  
  21382834.883 7      1771.816 7      1380.63648  -6347267.596 7  -4926766.74748
  21382829.35548        49.700          35.900  
  25146418.250 4     -1764.198 4     -1374.70045    756812.102 4    587504.66145
  25146412.30945        38.900          16.300  
  22803894.703 6     -3244.125 6     -2527.88847   4828606.698 6   3740596.82347
  22803890.41847        46.000          33.500  
  24167396.578 5     -1607.527 5     -1252.61946    272839.168 5    212130.48946
  24167392.55946        42.200          22.500  
  23672531.664 5      3255.316 5      2536.60946  -7638843.131 5  -5929678.55946
  23672527.14846        41.700          22.200  
 08  1 16 16 58 15.0000000  0 10G01G02G04G05G09G12G14G17G20G30   -0.000243088
  25132301.484 5      -219.133 5      -170.75446  -2099715.731 5  -1630574.97046
  25132297.53146        39.500          19.000  
  21262171.289 7      2215.871 7      1726.65148  -7561975.710 7  -5850268.67748
  21262164.55948        50.400          38.000  
  20441658.148 7      -531.719 7      -414.32648  -2202016.333 7  -1705101.14848
  20441653.74248        49.800          39.800  
  21933729.484 6      2581.371 6      2011.45747  -7951935.885 6  -6161374.43747
  21933724.02047        45.300          29.000  
  21916164.602 6     -3063.294 6     -2386.98147   3538368.983 6   2742644.75147
  21916159.98847        46.400          31.800  
  21377795.547 7      1765.391 7      1375.62948  -6373748.453 7  -4947401.17848
  21377790.21548        49.000          36.300  
  25151477.352 4     -1772.593 4     -1381.24345    783400.990 4    608223.30845
  25151472.03945        38.600          16.900  
  22813164.703 6     -3247.230 6     -2530.30847   4877315.145 6   3778551.44647
  22813159.33247        45.600          33.600  
  24172014.320 5     -1617.252 5     -1260.19446    297097.944 5    231033.39746
  24172008.70746        41.100          21.800  
  23663248.102 6      3252.416 6      2534.34946  -7687629.365 6  -5967693.80146
  23663243.46946        43.000          21.500  
 08  1 16 16 58 30.0000000  0 10G01G02G04G05G09G12G14G17G20G30   -0.000240023
  25132954.656 5      -228.640 5      -178.15945  -2096286.136 5  -1627902.58945
  25132950.10945        39.200          18.600  
  21255867.547 7      2208.465 7      1720.88148  -7595102.687 7  -5876081.89648
  21255860.49648        50.500          38.000  
  20443205.992 7      -542.350 7      -422.61148  -2193881.077 7  -1698761.98648
  20443201.44148        49.500          39.900  
  21926375.961 6      2575.918 6      2007.20947  -7990574.651 6  -6191482.57847
  21926371.16447        45.600          28.900  
  21924931.688 6     -3071.539 6     -2393.40647   3584442.067 6   2778545.84647
  21924927.02047        45.000          31.400  
  21372774.367 7      1759.087 7      1370.71848  -6400134.763 7  -4967961.94548
  21372768.84048        49.000          35.900  
  25156560.633 5     -1780.825 5     -1387.65845    810113.365 5    629038.17845
  25156555.41845        39.300          15.600  
  22822441.563 6     -3250.180 6     -2532.60847   4926067.849 6   3816540.56447
  22822436.84047        46.300          33.700  
  24176656.789 5     -1626.814 5     -1267.64846    321500.150 5    250048.11946
  24176652.66046        40.900          22.200  
  23653972.797 5      3249.636 5      2532.18646  -7736373.910 5  -6005676.59646
  23653967.38746        41.700          21.700  
 08  1 16 16 58 45.0000000  0 10G01G02G04G05G09G12G14G17G20G30   -0.000236954
  25133633.883 5      -238.058 5      -185.50045  -2092715.271 5  -1625120.09245
  25133629.26645        39.400          18.300  
  21249584.961 7      2201.127 7      1715.16348  -7628119.595 7  -5901809.34348
  21249577.31348        50.500          38.100  
  20444784.125 7      -552.900 7      -430.83148  -2185587.571 7  -1692299.52548
  20444779.93848        50.000          40.000  
  21919038.906 6      2570.529 6      2003.00947  -8029132.581 6  -6221527.71847
  21919033.89147        45.700          29.200  
  21933722.156 6     -3079.677 6     -2399.74747   3630637.229 6   2814542.05447
  21933718.03547        45.800          32.100  
  21367771.148 7      1752.849 7      1365.85748  -6426427.500 7  -4988449.79448
  21367765.54748        49.100          36.200  
  25161667.406 5     -1788.966 5     -1393.99745    836947.851 5    649948.12845
  25161662.29745        39.500          16.900  
  22831727.195 6     -3253.042 6     -2534.83847   4974863.480 6   3854563.13447
  22831722.49647        45.900          33.700  
  24181328.359 5     -1636.282 5     -1275.02246    346044.381 5    269173.44946
  24181323.22346        41.700          22.500  
  23644704.789 6      3246.915 6      2530.06246  -7785077.630 6  -6043627.52146
  23644698.93846        42.700          22.500  
 08  1 16 16 59  0.0000000  0 10G01G02G04G05G09G12G14G17G20G30   -0.000233881
  25134340.813 5      -247.676 5      -192.99445  -2089000.124 5  -1622225.17745
  25134336.18445        40.100          17.800  
  21243323.305 7      2193.575 7      1709.27948  -7661023.226 7  -5927448.52248
  21243316.25448        49.700          38.900  
  20446393.586 7      -563.631 7      -439.19348  -2177133.103 7  -1685711.62648
  20446388.90648        50.000          39.600  
  21911717.297 6      2564.915 6      1998.63547  -8067606.312 6  -6251507.24747
  21911712.52347        45.600          28.000  
  21942537.109 6     -3087.995 6     -2406.22847   3676957.153 6   2850635.47247
  21942532.56647        46.400          32.300  
  21362786.438 7      1746.394 7      1360.82748  -6452623.410 7  -5008862.19148
  21362780.58648        49.300          36.200  
  25166796.609 4     -1797.287 4     -1400.48645    863907.154 4    670955.41145
  25166792.59445        38.900          17.400  
  22841021.539 6     -3256.097 6     -2537.21847   5023704.934 6   3892621.39647
  22841016.90647        45.600          33.500  
  24186027.000 6     -1645.950 6     -1282.55546    370733.633 6    288411.77446
  24186021.41846        43.700          22.200  
  23635444.227 5      3243.984 5      2527.78146  -7833737.383 5  -6081544.23746
  23635439.01646        40.600          21.700  
 08  1 16 16 59 15.0000000  0 10G01G02G04G05G09G12G14G17G20G30   -0.000230803
  25135074.969 4      -257.430 4      -200.59645  -2085138.681 4  -1619216.23645
  25135071.19145        38.900          18.600  
  21237083.633 7      2185.870 7      1703.27548  -7693811.274 7  -5952997.64648
  21237076.80148        50.300          38.200  
  20448033.180 7      -574.507 7      -447.66748  -2168515.504 7  -1678996.61948
  20448028.43448        50.200          39.800  
  21904412.719 6      2559.148 6      1994.14247  -8105993.539 6  -6281419.37847
  21904407.79747        46.200          29.400  
  21951375.656 6     -3096.417 6     -2412.79247   3723403.401 6   2886827.35647
  21951371.02347        45.900          31.500  
  21357820.461 7      1739.793 7      1355.68348  -6478720.302 7  -5029197.43748
  21357814.94148        49.000          35.900  
  25171951.047 4     -1805.717 4     -1407.05445    890992.915 4    692061.21745
  25171946.89145        37.900          16.300  
  22850324.750 6     -3259.276 6     -2539.69547   5072594.067 6   3930716.82447
  22850319.98847        46.000          33.200  
  24190752.156 6     -1655.753 6     -1290.19746    395569.929 6    307764.72846
  24190747.54746        43.200          22.200  
  23626193.742 5      3240.899 5      2525.37546  -7882350.864 5  -6119424.85446
  23626188.78546        42.000          21.700  
 08  1 16 16 59 30.0000000  0 10G01G02G04G05G09G12G14G17G20G30   -0.000227718
  25135838.016 5      -266.973 5      -208.02946  -2081134.088 5  -1616095.80446
  25135833.47746        39.800          20.400  
  21230865.820 7      2178.360 7      1697.42248  -7726486.671 7  -5978458.98148
  21230859.07048        50.300          38.400  
  20449703.539 7      -585.157 7      -455.96748  -2159738.143 7  -1672157.11448
  20449699.04348        50.500          39.900  
  21897124.297 6      2553.570 6      1989.79547  -8144297.092 6  -6311266.30447
  21897119.08647        46.300          28.500  
  21960237.164 6     -3104.602 6     -2419.16847   3769972.427 6   2923114.88347
  21960233.02747        45.800          31.500  
  21352872.484 7      1733.374 7      1350.68148  -6504720.917 7  -5049457.64848
  21352867.16048        49.600          35.700  
  25177128.195 4     -1813.934 4     -1413.45845    918201.932 4    713263.09045
  25177124.01245        37.600          15.600  
  22859636.570 6     -3262.234 6     -2542.00047   5121527.572 6   3968846.81647
  22859631.62147        45.200          33.000  
  24195506.656 5     -1665.321 5     -1297.65046    420549.737 5    327229.47946
  24195501.05146        41.600          22.000  
  23616950.898 5      3237.994 5      2523.11446  -7930920.771 5  -6157271.56446
  23616946.27346        41.900          21.500  
 08  1 16 16 59 45.0000000  0 10G01G02G04G05G09G12G14G17G20G30   -0.000224632
  25136626.086 5      -276.421 5      -215.39346  -2076987.767 5  -1612864.90246
  25136622.52346        40.200          21.500  
  21224669.047 7      2170.928 7      1691.63248  -7759050.592 7  -6003833.46448
  21224662.09048        50.200          38.200  
  20451403.641 7      -595.708 7      -464.18848  -2150802.516 7  -1665194.29448
  20451399.17648        50.700          39.800  
  21889850.867 6      2548.067 6      1985.50747  -8182518.099 6  -6341048.90847
  21889845.66447        45.200          28.700  
  21969122.242 6     -3112.670 6     -2425.45647   3816662.478 6   2959496.72547
  21969117.98447        45.800          32.200  
  21347942.664 7      1727.042 7      1345.74748  -6530626.554 7  -5069643.86048
  21347937.36748        49.500          36.100  
  25182329.930 5     -1822.042 5     -1419.77045    945532.561 5    734559.64445
  25182324.80945        40.000          17.800  
  22868956.383 6     -3265.092 6     -2544.22647   5170503.945 6   4007010.20147
  22868951.85547        45.800          32.600  
  24200286.164 5     -1674.781 5     -1305.02646    445671.445 5    346804.87546
  24200281.84046        40.600          22.600  
  23607716.820 6      3235.170 6      2520.91246  -7979448.317 6  -6195085.24246
  23607711.88346        43.100          22.000  
 08  1 16 17  0  0.0000000  0 10G01G02G04G05G09G12G14G17G20G30   -0.000221540
  25137442.883 5      -286.178 5      -222.99646  -2072695.093 5  -1609519.96046
  25137439.00046        41.000          19.600  
  21218494.727 7      2163.167 7      1685.58448  -7791498.097 7  -6029117.22148
  21218487.21548        50.200          38.100  
  20453135.164 7      -606.560 7      -472.64448  -2141704.108 7  -1658104.62848
  20453130.72348        50.000          39.800  
  21882594.250 6      2542.238 6      1980.96547  -8220651.673 6  -6370763.38447
  21882589.18447        46.600          28.900  
  21978030.734 6     -3121.026 6     -2431.96747   3863477.861 6   2995976.22947
  21978026.67247        45.200          32.300  
  21343031.703 7      1720.402 7      1340.57348  -6556432.582 7  -5089752.45348
  21343026.66048        49.100          36.000  
  25187554.789 5     -1830.435 5     -1426.31545    972989.087 5    755954.36745
  25187549.71145        40.900          16.900  
  22878285.352 6     -3268.240 6     -2546.68047   5219527.540 6   4045210.40647
  22878280.80147        45.100          32.700  
  24205094.742 5     -1684.544 5     -1312.63146    470939.607 5    366494.34546
  24205089.87946        39.900          21.500  
  23598491.977 5      3232.020 5      2518.45746  -8027928.619 5  -6232862.08946
  23598486.97746        41.700          22.300  
 08  1 16 17  0 15.0000000  0 10G01G02G04G05G09G12G14G17G20G30   -0.000218443
  25138286.633 5      -295.755 5      -230.45746  -2068258.772 5  -1606063.09846
  25138283.05146        39.700          19.900  
  21212341.602 7      2155.581 7      1679.67348  -7823831.809 7  -6054312.31648
  21212334.76248        49.700          38.000  
  20454897.133 7      -617.239 7      -480.96548  -2132445.529 7  -1650890.14948
  20454892.32448        49.900          39.800  
  21875353.648 6      2536.568 6      1976.54647  -8258700.190 6  -6400411.57947
  21875348.55947        46.500          29.400  
  21986962.703 6     -3129.157 6     -2438.30347   3910415.223 6   3032550.77647
  21986958.31647        45.200          31.500  
  21338139.492 7      1713.896 7      1335.50448  -6582141.029 7  -5109785.01048
  21338133.96148        49.200          35.600  
  25192802.656 4     -1838.636 4     -1432.69845   1000568.631 4    777444.82945
  25192797.77745        38.800          16.300  
  22887622.383 6     -3271.199 6     -2548.98547   5268595.529 6   4083445.18047
  22887618.20347        45.700          31.800  
  24209929.680 5     -1694.118 5     -1320.09046    496351.383 5    386295.69946
  24209925.38746        39.900          20.900  
  23589273.719 5      3229.037 5      2516.13246  -8076364.177 5  -6270604.07346
  23589269.42646        41.600          21.500  
 08  1 16 17  0 30.0000000  0 10G01G02G04G05G09G12G14G17G20G30   -0.000215343
  25139157.750 5      -305.180 5      -237.80046  -2063681.068 5  -1602496.10246
  25139154.20346        39.500          20.400  
  21206210.031 7      2148.127 7      1673.86548  -7856053.710 7  -6079420.28348
  21206203.12548        50.100          37.900  
  20456689.086 7      -627.756 7      -489.16148  -2123029.184 7  -1643552.73748
  20456684.14848        49.600          39.600  
  21868129.414 6      2531.026 6      1972.22847  -8296665.582 6  -6429995.00447
  21868124.49247        46.600          28.200  
  21995917.078 6     -3137.126 6     -2444.51347   3957472.118 6   3069218.47547
  21995913.12547        44.900          31.600  
  21333265.688 7      1707.530 7      1330.54348  -6607753.984 7  -5129743.16048
  21333260.30548        49.800          36.200  
  25198074.430 4     -1846.669 4     -1438.96845   1028268.672 4    799029.34645
  25198069.12945        37.900          16.300  
  22896967.977 6     -3274.005 6     -2551.17247   5317705.599 6   4121712.75447
  22896963.52747        45.200          32.100  
  24214793.133 5     -1703.539 5     -1327.43246    521904.464 5    406207.18346
  24214789.01646        41.400          21.500  
  23580065.422 5      3226.183 5      2513.91146  -8124756.923 5  -6308312.73446
  23580060.73446        41.800          22.300  
 08  1 16 17  0 45.0000000  0 10G01G02G04G05G09G12G14G17G20G30   -0.000212240
  25140056.469 5      -314.698 5      -245.22146  -2058960.604 5  -1598817.78646
  25140052.16046        39.800          20.400  
  21200099.820 7      2140.556 7      1667.96548  -7888162.049 7  -6104439.76148
  21200093.07448        49.800          38.600  
  20458510.828 7      -638.359 7      -497.42348  -2113453.798 7  -1636091.39948
  20458506.71148        50.500          39.800  
  21860920.914 6      2525.375 6      1967.82547  -8334546.201 6  -6459512.38247
  21860915.59447        46.200          29.600  
  22004894.844 6     -3145.165 6     -2450.77747   4004649.588 6   3105980.12747
  22004890.71547        45.400          31.900  
  21328410.281 7      1701.070 7      1325.50948  -6633270.036 7  -5149625.79848
  21328404.69548        49.200          37.000  
  25203368.555 4     -1854.776 4     -1445.28145   1056090.312 4    820708.56745
  25203363.39545        38.600          16.300  
  22906321.742 6     -3276.904 6     -2553.43147   5366859.156 6   4160014.22347
  22906316.89547        45.400          31.900  
  24219683.117 5     -1713.034 5     -1334.83146    547599.972 5    426229.64146
  24219678.85246        39.400          22.200  
  23570864.719 5      3223.211 5      2511.59246  -8173105.089 5  -6345986.60946
  23570860.34446        41.300          22.200  
 08  1 16 17  1  0.0000000  0 10G01G02G04G05G09G12G14G17G20G30   -0.000209131
  25140982.133 5      -324.260 5      -252.67046  -2054096.703 5  -1595027.74346
  25140978.03546        39.900          19.600  
  21194012.125 7      2132.920 7      1662.01548  -7920155.852 7  -6129369.98748
  21194004.94148        49.000          38.400  
  20460363.289 7      -649.008 7      -505.72048  -2103718.680 7  -1628505.59948
  20460359.26248        50.200          39.800  
  21853728.570 6      2519.648 6      1963.36247  -8372340.929 6  -6488962.80947
  21853723.51247        46.500          28.600  
  22013895.281 6     -3153.227 6     -2457.05947   4051947.986 6   3142836.01347
  22013891.43047        45.000          31.400  
  21323573.398 7      1694.524 7      1320.40848  -6658687.896 7  -5169431.91848
  21323567.53148        49.300          36.000  
  25208685.672 4     -1862.912 4     -1451.61745   1084033.990 4    842482.82745
  25208681.30945        38.300          18.300  
  22915683.422 6     -3279.830 6     -2555.71147   5416056.609 6   4198349.89247
  22915678.84047        46.000          32.400  
  24224599.445 5     -1722.564 5     -1342.25946    573438.436 5    446363.51946
  24224595.33246        40.200          20.600  
  23561672.773 5      3220.165 5      2509.22246  -8221407.561 5  -6383624.93446
  23561668.35246        40.900          21.800  
 08  1 16 17  1 15.0000000  0 10G01G02G04G05G09G12G14G17G20G30   -0.000206018
  25141935.938 5      -333.852 5      -260.14446  -2049088.920 5  -1591125.58746
  25141931.00446        40.400          20.100  
  21187945.563 7      2125.255 7      1656.04348  -7952034.675 7  -6154210.62848
  21187938.95748        49.500          38.600  
  20462246.813 7      -659.669 7      -514.02748  -2093823.649 7  -1620795.18848
  20462242.53148        49.700          39.900  
  21846553.867 6      2513.878 6      1958.86747  -8410049.104 6  -6518345.80847
  21846548.01647        46.800          29.600  
  22022919.367 6     -3161.292 6     -2463.34447   4099367.365 6   3179786.16947
  22022915.25047        44.500          32.600  
  21318755.539 7      1687.941 7      1315.27948  -6684007.014 7  -5189161.10448
  21318749.94148        49.800          35.900  
  25214025.641 4     -1871.057 4     -1457.96945   1112099.854 4    864352.36545
  25214022.23045        38.100          17.800  
  22925054.359 6     -3282.782 6     -2558.01047   5465298.336 6   4236720.05047
  22925049.35547        45.300          32.400  
  24229543.438 4     -1732.113 4     -1349.69846    599420.135 4    466608.98846
  24229539.46146        38.500          20.900  
  23552490.156 5      3217.089 5      2506.82046  -8269663.894 5  -6421227.23446
  23552485.66446        41.000          22.500  
 08  1 16 17  1 30.0000000  0 10G01G02G04G05G09G12G14G17G20G30   -0.000202900
  25142916.445 4      -343.611 4      -267.74946  -2043934.748 4  -1587109.35146
  25142912.02046        39.000          19.600  
  21181902.070 7      2117.400 7      1649.92148  -7983795.676 7  -6178959.44748
  21181894.52748        49.700          38.000  
  20464160.344 7      -670.493 7      -522.46248  -2083766.257 7  -1612958.25948
  20464156.13748        50.200          40.600  
  21839394.234 6      2507.927 6      1954.22947  -8447668.008 6  -6547659.24147
  21839389.30547        46.900          29.900  
  22031966.383 6     -3169.489 6     -2469.73047   4146909.691 6   3216832.12247
  22031961.74647        45.800          32.900  
  21313956.422 7      1681.182 7      1310.01248  -6709224.751 7  -5208811.28348
  21313950.82048        49.700          36.700  
  25219391.234 4     -1879.352 4     -1464.42945   1140290.127 4    886318.80045
  25219385.81345        38.000          16.300  
  22934433.172 6     -3285.881 6     -2560.42747   5514586.555 6   4275126.44947
  22934428.69947        45.100          31.600  
  24234516.023 5     -1741.810 5     -1357.25446    625547.288 5    486967.79446
  24234511.53546        39.800          20.600  
  23543316.453 5      3213.817 5      2504.27346  -8317871.143 5  -6458791.33246
  23543312.21146        40.900          22.800  
 08  1 16 17  1 45.0000000  0 10G01G02G04G05G09G12G14G17G20G30   -0.000199780
  25143922.828 4      -352.971 4      -275.04045  -2038640.182 4  -1582983.74945
  25143918.68045        38.400          17.800  
  21175879.031 7      2109.920 7      1644.09348  -8015444.477 7  -6203620.84948
  21175871.98048        49.400          38.100  
  20466103.719 7      -680.919 7      -530.58648  -2073552.476 7  -1604999.47648
  20466099.52748        49.900          40.300  
  21832251.805 6      2502.345 6      1949.88047  -8485203.187 6  -6576907.43547
  21832246.50847        46.800          30.400  
  22041035.711 6     -3177.274 6     -2475.79747   4194568.801 6   3253969.07347
  22041031.27347        45.200          32.200  
  21309176.156 7      1674.796 7      1305.03648  -6734346.689 7  -5228386.82248
  21309170.01648        49.600          36.300  
  25224778.219 4     -1887.237 4     -1470.57245   1168598.675 4    908377.37945
  25224772.89545        38.200          16.300  
  22943819.969 6     -3288.586 6     -2562.53447   5563915.345 6   4313564.46047
  22943815.42647        45.200          31.700  
  24239513.492 5     -1751.109 5     -1364.50046    651813.931 5    507435.29746
  24239509.40646        41.100          21.100  
  23534152.781 5      3210.924 5      2502.01846  -8366034.995 5  -6496321.59746
  23534147.41046        42.000          23.500  
 08  1 16 17  2  0.0000000  0 10G01G02G04G05G09G12G14G17G20G30   -0.000196653
  25144958.102 5      -362.493 5      -282.46545  -2033202.787 5  -1578746.78145
  25144953.46545        39.200          18.300  
  21169878.352 7      2102.268 7      1638.13148  -8046978.503 7  -6228192.81348
  21169871.28948        49.500          38.500  
  20468077.844 7      -691.498 7      -538.82948  -2063179.998 7  -1596917.03548
  20468073.38748        50.000          39.900  
  21825126.008 6      2496.586 6      1945.39147  -8522651.971 6  -6606088.30147
  21825120.43447        46.700          29.100  
  22050126.797 6     -3185.187 6     -2481.96447   4242346.602 6   3291198.53047
  22050123.07047        45.200          32.800  
  21304414.375 7      1668.245 7      1299.93148  -6759370.370 7  -5247885.79348
  21304408.65248        49.300          36.600  
  25230187.859 4     -1895.261 4     -1476.82445   1197027.593 4    930529.74445
  25230183.28545        38.900          17.400  
  22953215.195 6     -3291.444 6     -2564.76047   5613287.000 6   4352035.86447
  22953210.43047        44.700          30.800  
  24244540.008 4     -1760.558 4     -1371.85846    678222.309 4    528013.17346
  24244534.40246        38.300          20.100  
  23524994.766 5      3207.857 5      2499.62946  -8414152.845 5  -6533816.03146
  23524989.50446        39.800          21.700  
 08  1 16 17  2 15.0000000  0 10G01G02G04G05G09G12G14G17G20G30   -0.000193525
  25146020.102 4      -371.951 4      -289.83145  -2027623.527 4  -1574399.31345
  25146015.65245        39.100          17.800  
  21163899.328 7      2094.666 7      1632.20748  -8078398.489 7  -6252675.91648
  21163892.40248        49.700          38.300  
  20470081.656 7      -702.011 7      -547.02248  -2052649.828 7  -1588711.70548
  20470077.43048        50.200          39.500  
  21818015.703 6      2490.865 6      1940.93447  -8560014.952 6  -6635202.31147
  21818010.27047        46.600          30.400  
  22059241.719 6     -3193.011 6     -2488.06047   4290241.775 6   3328519.43047
  22059237.09847        44.500          32.500  
  21299670.688 7      1661.727 7      1294.85248  -6784296.274 7  -5267308.57248
  21299665.16048        49.100          36.300  
  25235619.492 4     -1903.207 4     -1483.02545   1225575.699 4    952775.11845
  25235615.59845        37.900          16.300  
  22962618.313 6     -3294.228 6     -2566.93047   5662700.426 6   4390539.81747
  22962613.66847        45.000          30.600  
  24249591.203 5     -1769.937 5     -1379.17446    704771.358 5    548700.77646
  24249586.23046        39.600          19.900  
  23515848.367 6      3204.828 6      2497.27046  -8462225.268 6  -6571275.08346
  23515842.86346        42.900          22.800  
 08  1 16 17  2 30.0000000  0 10G01G02G04G05G09G12G14G17G20G30   -0.000190393
  25147107.805 4      -381.225 4      -297.05945  -2021905.152 4  -1569943.42145
  25147104.09045        37.500          18.600  
  21157941.617 7      2087.232 7      1626.41448  -8109706.963 7  -6277072.12048
  21157934.27048        49.100          38.400  
  20472114.734 7      -712.333 7      -555.06548  -2041964.829 7  -1580385.73548
  20472110.55948        50.000          40.000  
  21810922.063 6      2485.315 6      1936.60947  -8597294.685 6  -6664251.45347
  21810916.55947        46.500          30.000  
  22068376.906 6     -3200.632 6     -2493.99847   4338251.251 6   3365929.39347
  22068372.85947        45.800          33.100  
  21294946.055 7      1655.377 7      1289.90448  -6809126.932 7  -5286657.13748
  21294940.34048        49.800          36.200  
  25241074.227 3     -1910.964 3     -1489.05945   1254240.153 3    975111.00145
  25241070.45345        37.100          16.900  
  22972028.688 6     -3296.827 6     -2568.95547   5712152.828 6   4429074.14747
  22972024.43047        44.900          31.200  
  24254670.063 5     -1779.119 5     -1386.32446    731458.139 5    569495.63146
  24254664.67646        39.200          19.600  
  23506707.133 5      3201.977 5      2495.04546  -8510254.916 5  -6608700.76046
  23506702.57446        40.200          22.600  
 08  1 16 17  2 45.0000000  0 10G01G02G04G05G09G12G14G17G20G30   -0.000187260
  25148223.563 4      -390.708 4      -304.44846  -2016044.529 4  -1565376.70846
  25148218.75046        38.600          19.000  
  21152005.648 7      2079.569 7      1620.44348  -8140900.497 7  -6301378.76348
  21151998.82848        49.800          38.000  
  20474178.016 7      -722.856 7      -563.26348  -2031121.996 7  -1571936.78548
  20474173.70348        50.500          40.700  
  21803843.836 6      2479.526 6      1932.09847  -8634487.571 6  -6693232.92447
  21803838.63347        46.700          29.700  
  22077535.039 6     -3208.437 6     -2500.08047   4386377.804 6   3403430.59547
  22077531.16047        45.300          32.800  
  21290239.547 7      1648.812 7      1284.78848  -6833859.106 7  -5305928.96048
  21290234.06348        49.000          36.600  
  25246551.430 4     -1918.904 4     -1495.25145   1283023.707 4    997539.77245
  25246547.45745        37.900          16.900  
  22981447.383 6     -3299.619 6     -2571.13147   5761647.110 6   4467641.11847
  22981442.38347        44.200          31.200  
  24259774.125 4     -1788.500 4     -1393.63846    758285.642 4    590400.20746
  24259769.51646        38.300          20.100  
  23497576.773 5      3198.877 5      2492.63246  -8558238.070 5  -6646090.23846
  23497571.86746        40.600          24.300  
 08  1 16 17  3  0.0000000  0 10G01G02G04G05G09G12G14G17G20G30   -0.000184120
  25149365.305 5      -400.326 5      -311.94146  -2010039.644 5  -1560697.58646
  25149361.72346        40.000          19.000  
  21146091.719 7      2071.748 7      1614.34948  -8171976.722 7  -6325594.00148
  21146085.05148        49.900          38.700  
  20476271.828 7      -733.510 7      -571.56648  -2020119.348 7  -1563363.29248
  20476267.27048        50.000          40.400  
  21796783.227 6      2473.580 6      1927.46547  -8671591.268 6  -6722144.89947
  21796778.18047        46.600          30.400  
  22086716.086 6     -3216.350 6     -2506.24647   4434623.059 6   3441024.28947
  22086711.89847        44.100          32.600  
  21285552.391 7      1642.077 7      1279.54148  -6858490.261 7  -5325122.06948
  21285546.40648        49.900          36.200  
  25252052.625 5     -1926.969 5     -1501.53245   1311928.243 5   1020062.75545
  25252048.02745        39.500          17.400  
  22990874.211 6     -3302.544 6     -2573.41047   5811185.277 6   4506242.26447
  22990869.38747        43.700          31.200  
  24264906.469 5     -1798.010 5     -1401.04746    785255.796 5    611415.91846
  24264901.82046        39.200          19.000  
  23488455.227 5      3195.620 5      2490.09446  -8606172.377 5  -6683441.64146
  23488450.59446        41.800          22.500  
 08  1 16 17  3 15.0000000  0 10G01G02G04G05G09G12G14G17G20G30   -0.000180975
  25150535.680 5      -410.062 5      -319.53045  -2003888.707 5  -1555904.63645
  25150531.68445        40.000          18.600  
  21140200.695 7      2063.789 7      1608.14648  -8202933.550 7  -6349716.19648
  21140193.91448        49.100          38.500  
  20478396.484 7      -744.279 7      -579.95748  -2008955.164 7  -1554663.93748
  20478391.80548        49.900          40.300  
  21789740.023 6      2467.493 6      1922.72147  -8708603.661 6  -6750985.71947
  21789734.98847        46.100          30.200  
  22095919.688 6     -3224.362 6     -2512.48947   4482988.491 6   3478711.61547
  22095915.75847        45.300          32.600  
  21280884.781 7      1635.211 7      1274.19148  -6883018.432 7  -5344234.92848
  21280879.18048        49.400          36.200  
  25257576.148 3     -1935.126 3     -1507.88845   1340955.127 3   1042681.07545
  25257571.77345        36.900          15.600  
  23000309.609 6     -3305.580 6     -2575.77647   5860768.976 6   4544878.89847
  23000304.69547        45.000          30.500  
  24270066.961 5     -1807.618 5     -1408.53246    812370.071 5    632543.89646
  24270061.32846        41.100          19.900  
  23479343.461 5      3192.230 5      2487.45146  -8654055.830 5  -6720753.40446
  23479338.21546        40.900          23.000  
 08  1 16 17  3 30.0000000  0 10G01G02G04G05G09G12G14G17G20G30   -0.000177824
  25151733.953 5      -419.550 5      -326.92246  -1997595.451 5  -1551000.80746
  25151729.12546        39.900          19.300  
  21134332.086 7      2056.067 7      1602.13048  -8233774.559 7  -6373748.14348
  21134325.18848        49.400          38.300  
  20480551.336 7      -754.799 7      -588.15548  -1997633.177 7  -1545841.60948
  20480546.40648        50.000          41.000  
  21782713.688 6      2461.636 6      1918.15747  -8745528.204 6  -6779758.08147
  21782707.94147        46.500          29.900  
  22105145.086 6     -3232.099 6     -2518.51947   4531469.981 6   3516489.39647
  22105141.60547        44.600          31.700  
  21276235.703 7      1628.574 7      1269.01848  -6907447.047 7  -5363270.20348
  21276230.52348        48.800          36.300  
  25263121.242 4     -1943.024 4     -1514.04645   1370100.488 4   1065391.77045
  25263117.30945        38.300          14.800  
  23009752.930 6     -3308.360 6     -2577.94147   5910394.370 6   4583548.02047
  23009747.84847        43.400          31.200  
  24275253.305 4     -1816.981 4     -1415.83046    839624.783 4    653781.35146
  24275248.15646        39.000          19.300  
  23470240.344 5      3189.073 5      2484.99346  -8701891.928 5  -6758028.29346
  23470235.48846        41.300          22.500  
 08  1 16 17  3 45.0000000  0 10G01G02G04G05G09G12G14G17G20G30   -0.000174675
  25152957.539 4      -428.646 4      -334.00946  -1991165.758 4  -1545990.67246
  25152952.96146        38.900          19.900  
  21128484.227 7      2048.710 7      1596.39748  -8264505.217 7  -6397694.10148
  21128477.39848        48.900          38.300  
  20482734.664 7      -764.913 7      -596.03648  -1986159.481 7  -1536901.07148
  20482730.10548        49.900          40.800  
  21775702.430 6      2456.149 6      1913.88347  -8782370.442 6  -6808466.33247
  21775697.53947        46.800          30.400  
  22114392.391 6     -3239.425 6     -2524.22647   4580061.354 6   3554352.78847
  22114388.07447        45.000          32.300  
  21271604.984 7      1622.309 7      1264.13748  -6931781.682 7  -5382232.26048
  21271599.98048        48.600          36.000  
  25268689.859 4     -1950.516 4     -1519.87945   1399358.225 4   1088189.94945
  25268685.21145        38.300          16.900  
  23019203.578 6     -3310.736 6     -2579.79347   5960055.406 6   4622244.92347
  23019198.35247        44.200          31.700  
  24280466.203 5     -1825.932 5     -1422.80446    867013.758 5    675123.40646
  24280460.34446        40.500          19.300  
  23461145.758 5      3186.282 5      2482.81746  -8749686.153 5  -6795270.54746
  23461140.26246        41.600          24.100  
 08  1 16 17  4  0.0000000  0 10G01G02G04G05G09G12G14G17G20G30   -0.000171524
  25154207.695 5      -437.807 5      -341.15046  -1984598.646 5  -1540873.42746
  25154202.78946        39.800          20.100  
  21122657.539 7      2041.287 7      1590.61348  -8295124.518 7  -6421553.29048
  21122650.32048        49.300          38.800  
  20484946.828 7      -775.097 7      -603.97148  -1974533.020 7  -1527841.50248
  20484942.60248        50.400          40.500  
  21768707.992 6      2450.572 6      1909.53547  -8819129.023 6  -6837109.35947
  21768702.41847        46.700          29.700  
  22123659.914 6     -3246.791 6     -2529.96547   4628763.225 6   3592302.27047
  22123655.61747        46.000          31.900  
  21266992.398 7      1615.956 7      1259.18748  -6956021.022 7  -5401120.05848
  21266987.12548        49.100          35.700  
  25274278.648 3     -1958.071 3     -1525.77345   1428729.287 3   1111076.54445
  25274274.85545        36.000          16.300  
  23028660.539 6     -3313.179 6     -2581.69747   6009753.091 6   4660970.38247
  23028655.51647        45.400          31.000  
  24285702.492 5     -1834.947 5     -1429.83146    894537.964 5    696570.87146
  24285697.48046        41.200          20.100  
  23452058.141 5      3183.399 5      2480.57246  -8797437.143 5  -6832479.12946
  23452053.52346        42.200          22.900  
 08  1 16 17  4 15.0000000  0 10G01G02G04G05G09G12G14G17G20G30   -0.000168369
  25155484.539 4      -447.416 4      -348.63646  -1977887.409 4  -1535643.88646
  25155480.35946        38.600          20.100  
  21116853.508 7      2033.397 7      1584.46548  -8325625.475 7  -6445320.26448
  21116846.79748        49.400          38.000  
  20487190.000 7      -785.718 7      -612.24748  -1962747.249 7  -1518657.79248
  20487185.13348        50.000          40.000  
  21761730.438 6      2444.523 6      1904.82447  -8855796.874 6  -6865681.72047
  21761724.98447        47.100          30.400  
  22132949.813 6     -3254.574 6     -2536.03247   4677581.832 6   3630342.74547
  22132945.39147        45.100          32.300  
  21262400.047 7      1609.145 7      1253.87948  -6980158.201 7  -5419928.24648
  21262393.99248        48.700          35.900  
  25279891.344 4     -1966.044 4     -1531.97445   1458219.941 4   1134056.16145
  25279887.10545        39.000          15.600  
  23038125.711 6     -3316.067 6     -2583.94847   6059494.102 6   4699729.60247
  23038120.84447        45.100          31.500  
  24290968.375 5     -1844.405 5     -1437.19646    922204.041 5    718128.81446
  24290962.28146        42.100          19.300  
  23442980.789 5      3180.042 5      2477.95546  -8845137.776 5  -6869648.45246
  23442976.10546        42.000          23.300  
 08  1 16 17  4 30.0000000  0 10G01G02G04G05G09G12G14G17G20G30   -0.000165213
  25156787.781 4      -456.739 4      -355.90046  -1971036.322 4  -1530305.39246
  25156783.29346        38.200          19.000  
  21111070.781 7      2025.773 7      1578.52448  -8356012.072 7  -6468998.12848
  21111064.16448        49.800          38.400  
  20489461.992 7      -796.052 7      -620.30048  -1950806.462 7  -1509353.28548
  20489457.74248        50.200          40.700  
  21754768.914 6      2438.738 6      1900.31547  -8892377.938 6  -6894186.44247
  21754763.89147        46.000          29.500  
  22142261.094 6     -3262.057 6     -2541.86247   4726512.683 6   3668470.66747
  22142256.87947        45.400          32.600  
  21257824.898 7      1602.606 7      1248.78448  -7004197.293 7  -5438660.00748
  21257819.39848        48.800          35.700  
  25285524.234 3     -1973.721 3     -1537.96945   1487825.759 3   1157125.69345
  25285520.32845        37.300          16.900  
  23047598.742 6     -3318.660 6     -2585.96847   6109274.005 6   4738519.11947
  23047593.72747        45.400          31.600  
  24296259.727 5     -1853.560 5     -1444.33146    950007.435 5    739793.77646
  24296253.28546        39.800          20.100  
  23433913.008 6      3176.958 6      2475.55246  -8892792.150 6  -6906781.73046
  23433908.33646        42.600          22.900  
 08  1 16 17  4 45.0000000  0 10G01G02G04G05G09G12G14G17G20G30   -0.000162050
  25158118.680 5      -466.186 5      -363.26045  -1964043.533 5  -1524856.49645
  25158114.43845        39.400          18.600  
  21105310.820 7      2018.009 7      1572.47448  -8386282.210 7  -6492585.24448
  21105303.78148        49.800          38.800  
  20491763.977 7      -806.499 7      -628.44148  -1938708.974 7  -1499926.67248
  20491759.50048        50.800          40.500  
  21747824.891 6      2432.813 6      1895.69847  -8928870.134 6  -6922621.91447
  21747819.62147        46.700          29.500  
  22151594.180 6     -3269.630 6     -2547.76347   4775557.139 6   3706687.11147
  22151589.30547        46.000          32.400  
  21253269.500 7      1595.924 7      1243.57748  -7028136.152 7  -5457313.66348
  21253263.85948        48.200          35.700  
  25291181.125 4     -1981.498 4     -1544.02345   1517548.231 4   1180286.03945
  25291176.27045        37.700          16.300  
  23057079.148 6     -3321.365 6     -2588.07547   6159094.475 6   4777340.24447
  23057074.44547        45.000          32.600  
  24301574.828 3     -1862.832 3     -1451.55646    977949.912 3    761567.11446
  24301570.45746        37.200          20.100  
  23424853.867 6      3173.737 6      2473.04146  -8940398.203 6  -6943877.35046
  23424849.11346        42.900          23.500  
 08  1 16 17  5  0.0000000  0 10G01G02G04G05G09G12G14G17G20G30   -0.000158884
  25159477.617 5      -475.792 5      -370.74746  -1956906.650 5  -1519295.29846
  25159472.21546        39.400          19.600  
  21099573.281 7      2010.067 7      1566.28648  -8416433.220 7  -6516079.54148
  21099566.36748        49.500          38.300  
  20494096.273 7      -817.097 7      -636.69948  -1926452.521 7  -1490376.19148
  20494091.89848        50.300          40.100  
  21740898.195 6      2426.708 6      1890.94147  -8965270.753 6  -6950986.02247
  21740893.11347        46.600          30.200  
  22160948.828 6     -3277.346 6     -2553.77547   4824717.323 6   3744993.74147
  22160944.52347        45.500          32.300  
  21248733.469 7      1589.061 7      1238.23048  -7051972.074 7  -5475887.11348
  21248728.21548        48.500          35.400  
  25296858.461 3     -1989.411 3     -1550.18645   1547389.394 3   1203538.82745
  25296855.10545        36.600          16.300  
  23066568.117 6     -3324.219 6     -2590.30047   6208957.763 6   4816194.74347
  23066562.86347        45.900          32.900  
  24306919.438 5     -1872.239 5     -1458.88546   1006033.502 5    783450.38946
  24306914.50046        39.200          20.100  
  23415804.320 6      3170.320 6      2470.37846  -8987952.996 6  -6980933.02646
  23415799.79346        43.400          23.600  
 08  1 16 17  5 15.0000000  0 10G01G02G04G05G09G12G14G17G20G30   -0.000155716
  25160861.852 4      -485.033 4      -377.94746  -1949631.153 4  -1513626.09246
  25160857.14846        38.300          19.000  
  21093857.297 7      2002.468 7      1560.36548  -8446470.235 7  -6539485.01148
  21093850.63348        49.200          38.100  
  20496457.773 7      -827.329 7      -644.67248  -1914042.586 7  -1480706.10748
  20496453.55548        50.000          39.800  
  21733987.820 6      2420.940 6      1886.44747  -9001584.855 6  -6979282.73147
  21733982.56347        46.900          30.400  
  22170324.445 6     -3284.669 6     -2559.48247   4873987.364 6   3783385.96947
  22170320.42247        46.000          31.800  
  21244216.469 7      1582.544 7      1233.15148  -7075710.236 7  -5494384.38248
  21244211.02048        48.700          35.300  
  25302559.859 4     -1996.958 4     -1556.07345   1577343.757 4   1226879.92045
  25302554.81645        38.000          16.300  
  23076063.758 6     -3326.707 6     -2592.23947   6258858.372 6   4855078.32847
  23076059.01247        45.300          31.900  
  24312289.500 4     -1881.277 4     -1465.92646   1034252.656 4    805439.27946
  24312284.80546        37.700          20.600  
  23406763.586 6      3167.254 6      2467.99146  -9035461.800 6  -7017952.88846
  23406758.73446        43.000          22.900  
 08  1 16 17  5 30.0000000  0 10G01G02G04G05G09G12G14G17G20G30   -0.000152544
  25162271.617 3      -494.357 3      -385.21346  -1942215.803 3  -1507847.89446
  25162268.53546        36.700          19.600  
  21088163.648 7      1994.761 7      1554.35948  -8476391.655 7  -6562800.39648
  21088156.79348        49.400          38.800  
  20498848.797 7      -837.645 7      -652.71048  -1901477.910 7  -1470915.45948
  20498843.98048        50.500          40.500  
  21727094.008 6      2415.066 6      1881.87047  -9037810.848 6  -7007510.77847
  21727089.14147        46.400          30.500  
  22179721.133 6     -3292.058 6     -2565.24047   4923368.238 6   3821864.56347
  22179717.15647        44.900          31.600  
  21239718.398 7      1575.913 7      1227.98348  -7099348.927 7  -5512804.13348
  21239712.63348        48.400          35.200  
  25308280.695 4     -2004.564 4     -1561.99845   1607412.216 4   1250309.89745
  25308276.65245        38.300          18.300  
  23085566.258 6     -3329.276 6     -2594.24047   6308797.517 6   4893991.93647
  23085561.59447        45.400          32.000  
  24317686.898 5     -1890.399 5     -1473.03646   1062608.644 5    827534.82446
  24317681.37546        40.300          20.600  
  23397732.422 6      3164.078 6      2465.51546  -9082922.968 6  -7054935.61246
  23397727.68446        43.800          22.800  
 08  1 16 17  5 45.0000000  0 10G01G02G04G05G09G12G14G17G20G30   -0.000149372
  25163710.961 4      -503.648 4      -392.45345  -1934661.085 4  -1501961.09345
  25163706.26245        38.000          17.800  
  21082491.320 7      1987.094 7      1548.38548  -8506198.062 7  -6586026.16848
  21082484.69148        49.100          38.600  
  20501269.047 7      -847.911 7      -660.71048  -1888759.245 7  -1461004.81148
  20501264.28948        49.900          40.400  
  21720216.859 6      2409.213 6      1877.30847  -9073949.042 6  -7035670.40447
  21720211.81647        46.400          31.400  
  22189139.406 6     -3299.369 6     -2570.93647   4972858.778 6   3860428.60347
  22189135.11747        45.700          32.600  
  21235238.469 7      1569.318 7      1222.84748  -7122888.703 7  -5531146.83248
  21235233.27748        48.700          35.400  
  25314024.906 4     -2012.128 4     -1567.88645   1637594.143 4   1273828.18945
  25314020.44545        38.400          17.400  
  23095077.055 6     -3331.805 6     -2596.21147   6358774.587 6   4932935.10547
  23095071.73847        45.200          31.000  
  24323106.828 5     -1899.458 5     -1480.10046   1091100.516 5    849736.32146
  24323102.58246        39.400          20.900  
  23388709.938 6      3160.937 6      2463.06946  -9130337.026 6  -7091881.64846
  23388704.39546        43.600          24.300  
 08  1 16 17  6  0.0000000  0 10G01G02G04G05G09G12G14G17G20G30   -0.000146194
  25165174.758 5      -513.122 5      -399.83546  -1926964.250 5  -1495963.56846
  25165170.72346        39.500          19.000  
  21076841.961 7      1979.212 7      1542.24348  -8535886.248 7  -6609159.81848
  21076835.39848        49.000          38.500  
  20503719.352 7      -858.363 7      -668.85448  -1875883.806 7  -1450972.00348
  20503714.60948        50.100          40.200  
  21713357.844 6      2403.145 6      1872.58147  -9109996.221 6  -7063759.11647
  21713352.43847        46.100          30.600  
  22198578.305 6     -3306.860 6     -2576.77447   5022461.685 6   3899080.21847
  22198573.96147        46.400          32.900  
  21230779.039 7      1562.515 7      1217.54448  -7146326.430 7  -5549409.98848
  21230773.23848        48.800          36.100  
  25319790.781 4     -2019.854 4     -1573.91345   1667891.954 4   1297436.88845
  25319785.87145        38.600          16.300  
  23104595.438 6     -3334.510 6     -2598.31847   6408792.237 6   4971909.88147
  23104590.06647        45.100          31.500  
  24328556.516 5     -1908.708 5     -1487.30246   1119731.141 5    872045.85946
  24328550.98846        40.600          20.400  
  23379696.438 6      3157.564 6      2460.44146  -9177700.494 6  -7128788.26546
  23379691.52046        42.700          25.600  
 08  1 16 17  6 15.0000000  0 10G01G02G04G05G09G12G14G17G20G30   -0.000143015
  25166666.258 4      -522.498 4      -407.13945  -1919126.772 4  -1489856.47945
  25166662.29345        38.700          18.600  
  21071215.117 7      1971.415 7      1536.16748  -8565457.468 7  -6632202.32648
  21071208.05948        48.500          37.800  
  20506198.836 7      -868.719 7      -676.92448  -1862853.015 7  -1440818.13948
  20506194.16848        50.400          39.800  
  21706515.258 6      2397.147 6      1867.90747  -9145953.432 6  -7091777.72647
  21706510.11347        47.200          30.700  
  22208038.148 6     -3314.226 6     -2582.51347   5072175.077 6   3937817.91247
  22208034.29747        45.800          31.800  
  21226337.898 7      1555.780 7      1212.29648  -7169663.124 7  -5567594.42948
  21226332.18448        48.600          35.400  
  25325577.773 4     -2027.473 4     -1579.85245   1698304.054 4   1321134.67045
  25325572.91845        37.900          16.900  
  23114120.750 6     -3337.115 6     -2600.34947   6458848.967 6   5010915.11247
  23114115.80947        44.300          30.600  
  24334030.844 5     -1917.844 5     -1494.42146   1148498.796 5    894462.17246
  24334025.11346        39.600          21.100  
  23370693.383 6      3154.278 6      2457.87746  -9225014.663 6  -7165656.42146
  23370688.77046        44.300          23.800  
 08  1 16 17  6 30.0000000  0 10G01G02G04G05G09G12G14G17G20G30   -0.000139832
  25168184.406 4      -531.882 4      -414.45346  -1911148.536 4  -1483639.67846
  25168180.41846        38.600          19.600  
  21065609.719 7      1963.592 7      1530.07248  -8594911.349 7  -6655153.40048
  21065603.39848        49.200          38.200  
  20508708.180 7      -879.061 7      -684.98248  -1849667.094 7  -1430543.40248
  20508703.33648        50.200          39.800  
  21699690.172 6      2391.131 6      1863.21947  -9181820.402 6  -7119726.00847
  21699685.07847        46.600          30.000  
  22217519.953 6     -3321.572 6     -2588.23747   5121998.661 6   3976641.47347
  22217515.06347        45.700          32.900  
  21221916.547 7      1549.033 7      1207.03948  -7192898.626 7  -5585700.01348
  21221910.82848        48.600          36.100  
  25331386.383 4     -2035.079 4     -1585.76945   1728830.246 4   1344921.21245
  25331381.39145        37.900          16.900  
  23123653.063 6     -3339.715 6     -2602.37447   6508944.690 6   5049950.72847
  23123648.28947        44.900          30.200  
  24339530.578 5     -1926.979 5     -1501.54046   1177403.479 5    916985.27146
  24339525.94146        39.200          20.600  
  23361698.992 6      3150.954 6      2455.29046  -9272278.972 6  -7202485.77446
  23361694.35946        42.600          24.000  
 08  1 16 17  6 45.0000000  0  9G01G02G04G05G09G12G17G20G30   -0.000136646
  25169728.688 4                                  -1903031.297 4  -1477314.50946
  25169725.26646        38.600          19.600  
  21060027.125 7                                  -8624249.283 7  -6678014.13648
  21060020.36748        49.700          38.400  
  20511246.438 7                                  -1836327.737 7  -1420149.09348
  20511241.96148        50.900          39.800  
  21692881.352 6                                  -9217598.369 6  -7147604.93647
  21692876.57447        46.600          30.400  
  22227021.336 6     -3328.788 6     -2593.86047   5171930.479 6   4015549.37147
  22227016.95747        44.900          31.900  
  21217513.773 7                                  -7216034.260 7  -5603727.78148
  21217508.41048        49.100          35.600  
  23133192.516 6                                   6559077.620 6   5089015.33947
  23133188.84047        43.600          30.800  
  24345057.578 5                                   1206443.433 5    939613.78246
  24345051.98046        39.900          21.100  
  23352714.219 6                                  -9319495.020 6  -7239277.49546
  23352709.23846        43.200          24.800  
 08  1 16 17  7  0.0000000  0  9G01G02G04G05G09G12G17G20G30   -0.000133457
  25171301.391 5      -550.652 5      -429.08145  -1894771.515 5  -1470878.29345
  25171297.55945        39.700          18.300  
  21054467.453 7      1947.902 7      1517.84648  -8653467.813 7  -6700781.82148
  21054459.99248        49.600          38.500  
  20513814.516 7      -899.750 7      -701.10348  -1822831.493 7  -1409632.54248
  20513810.38748        49.800          39.500  
  21686090.617 6      2379.018 6      1853.78147  -9253283.636 6  -7175411.64447
  21686085.72347        45.800          30.200  
  22236544.031 6     -3336.198 6     -2599.63547   5221973.446 6   4054543.89347
  22236540.04747        45.900          31.700  
  21213131.070 7      1535.464 7      1196.46548  -7239066.219 7  -5621674.76448
  21213125.28948        48.900          36.100  
  23142740.781 6     -3344.908 6     -2606.42147   6609251.242 6   5128111.65447
  23142736.43447        44.100          30.000  
  24350610.227 5     -1945.232 5     -1515.76646   1235621.913 5    962350.26546
  24350604.21146        40.200          20.600  
  23343739.898 6      3144.260 6      2450.07346  -9366658.916 6  -7276028.58746
  23343734.88746        43.400          25.300  
 08  1 16 17  7 15.0000000  0  9G01G02G04G05G09G12G17G20G30   -0.000130266
  25172899.922 4      -559.854 4      -436.24946  -1886373.706 4  -1464334.55246
  25172895.29746        37.800          19.300  
  21048929.055 7      1940.203 7      1511.84748  -8682570.861 7  -6723459.52648
  21048922.31648        49.300          38.600  
  20516412.016 7      -909.903 7      -709.01548  -1809182.944 7  -1398997.31148
  20516407.23048        50.200          39.300  
  21679317.125 6      2373.101 6      1849.16947  -9288880.156 6  -7203149.18647
  21679311.87147        46.600          30.200  
  22246086.789 6     -3343.301 6     -2605.16947   5272122.965 6   4093621.43647
  22246083.14847        45.400          31.600  
  21208767.297 7      1528.821 7      1191.28948  -7261998.533 7  -5639544.10448
  21208761.76248        49.700          36.400  
  23152295.164 6     -3347.314 6     -2608.29547   6659460.947 6   5167236.08347
  23152290.65247        44.200          30.800  
  24356187.539 4     -1954.158 4     -1522.72046   1264934.286 4    985191.06146
  24356182.48046        38.100          20.100  
  23334772.883 5      3141.040 5      2447.56346  -9413774.521 5  -7312742.02746
  23334768.93846        42.300          24.700  
 08  1 16 17  7 30.0000000  0  9G01G02G04G05G09G12G17G20G30   -0.000127071
  25174522.867 4      -569.073 4      -443.43246  -1877837.618 4  -1457683.07246
  25174519.25446        38.900          19.900  
  21043412.820 7      1932.465 7      1505.81848  -8711557.843 7  -6746046.78848
  21043406.15648        50.000          38.400  
  20519038.258 7      -920.072 7      -716.93948  -1795381.860 7  -1388243.22048
  20519033.50048        50.300          39.600  
  21672560.555 6      2367.155 6      1844.53647  -9324387.479 6  -7230817.22547
  21672554.78547        47.000          30.200  
  22255650.633 6     -3350.388 6     -2610.69147   5322378.789 6   4132781.80247
  22255646.35947        45.800          31.300  
  21204422.164 7      1522.157 7      1186.09648  -7284830.890 7  -5657335.54848
  21204416.74648        49.900          35.900  
  23161856.773 6     -3349.738 6     -2610.18547   6709707.021 6   5206388.86147
  23161852.40247        44.100          29.900  
  24361790.883 5     -1963.096 5     -1529.68646   1294380.727 5   1008136.34546
  24361786.59046        40.500          20.400  
  23325816.523 6      3137.806 6      2445.04346  -9460841.610 6  -7349417.67246
  23325812.13746        43.700          26.200  
 08  1 16 17  7 45.0000000  0  9G01G02G04G05G09G12G17G20G30   -0.000123878
  25176174.516 5      -578.295 5      -450.61846  -1869163.192 5  -1450923.79546
  25176169.53546        39.500          19.000  
  21037918.969 7      1924.712 7      1499.77648  -8740428.529 7  -6768543.42948
  21037912.08248        48.700          38.600  
  20521693.289 7      -930.233 7      -724.85748  -1781428.359 7  -1377370.35948
  20521688.77748        50.000          39.400  
  21665820.703 6      2361.175 6      1839.87747  -9359805.099 6  -7258415.38247
  21665815.08247        46.300          31.300  
  22265234.063 6     -3357.459 6     -2616.20147   5372740.673 6   4172024.82447
  22265229.98847        45.700          32.500  
  21200096.391 7      1515.470 7      1180.88648  -7307562.941 7  -5675048.83548
  21200090.87948        49.500          36.200  
  23171425.000 6     -3352.150 6     -2612.06347   6759989.272 6   5245569.81447
  23171420.73447        43.900          30.200  
  24367418.930 3     -1972.021 3     -1536.63946   1323961.048 3   1031185.93646
  24367414.54346        36.900          19.900  
  23316869.086 5      3134.534 5      2442.49546  -9507859.616 5  -7386055.09846
  23316865.06346        40.800          26.000  
 08  1 16 17  8  0.0000000  0  9G01G02G04G05G09G12G17G20G30   -0.000120680
  25177851.070 5      -587.565 5      -457.84246  -1860349.723 5  -1444056.16946
  25177847.35246        40.200          19.600  
  21032447.188 7      1916.887 7      1493.67848  -8769181.831 7  -6790948.59948
  21032440.81648        49.200          38.900  
  20524377.813 7      -940.437 7      -732.80848  -1767321.810 7  -1366378.23848
  20524373.49248        49.400          39.200  
  21659098.109 6      2355.124 6      1835.16147  -9395131.961 6  -7285942.80547
  21659092.95347        47.100          30.000  
  22274838.250 6     -3364.552 6     -2621.72747   5423208.947 6   4211350.73047
  22274833.88747        46.000          31.800  
  21195789.883 7      1508.712 7      1175.62048  -7330193.619 7  -5692683.14048
  21195784.28548        49.700          36.400  
  23181000.672 6     -3354.605 6     -2613.97647   6810308.345 6   5284779.45547
  23180996.03947        44.400          30.400  
  24373075.258 4     -1980.990 4     -1543.62646   1353675.890 4   1054340.32146
  24373068.93846        38.800          19.000  
  23307931.859 5      3131.188 5      2439.88846  -9554827.440 5  -7422653.41246
  23307927.23846        42.400          25.300  
 08  1 16 17  8 15.0000000  0  9G01G02G04G05G09G12G17G20G30   -0.000117481
  25179554.234 5      -596.834 5      -465.06546  -1851397.206 5  -1437080.20146
  25179550.63746        39.800          19.300  
  21026998.250 7      1909.053 7      1487.57448  -8797817.622 7  -6813262.20848
  21026991.38348        49.300          39.100  
  20527091.313 7      -950.637 7      -740.75648  -1753062.254 7  -1355266.89948
  20527086.62548        50.500          38.700  
  21652393.000 6      2349.055 6      1830.43347  -9430367.785 6  -7313399.29847
  21652387.83647        46.000          30.600  
  22284462.047 6     -3371.623 6     -2627.23847   5473783.292 6   4250759.30547
  22284457.54747        45.700          31.900  
  21191502.953 7      1501.938 7      1170.34148  -7352722.693 7  -5710238.25948
  21191497.24248        49.400          36.300  
  23190583.844 6     -3357.062 6     -2615.89247   6860664.272 6   5324017.83647
  23190578.91847        44.400          31.100  
  24378754.250 4     -1989.931 4     -1550.59646   1383524.854 4   1077599.26846
  24378749.46946        38.700          20.600  
  23299003.594 5      3127.827 5      2437.26646  -9601744.850 5  -7459212.40246
  23298999.43846        42.100          25.300  
 08  1 16 17  8 30.0000000  0  9G01G02G04G05G09G12G17G20G30   -0.000114279
  25181284.813 4      -606.114 4      -472.29846  -1842305.498 4  -1429995.72746
  25181281.22346        37.800          19.600  
  21021571.195 7      1901.185 7      1481.44348  -8826335.396 7  -6835483.85448
  21021564.58648        49.400          39.000  
  20529834.063 7      -960.848 7      -748.71348  -1738649.537 7  -1344036.21148
  20529829.21548        49.400          39.500  
  21645704.969 6      2342.949 6      1825.67447  -9465512.020 6  -7340784.40647
  21645700.02347        46.400          30.500  
  22294106.164 6     -3378.685 6     -2632.74147   5524463.564 6   4290250.42747
  22294101.51647        45.700          32.500  
  21187235.313 7      1495.125 7      1165.03348  -7375149.574 7  -5727713.75348
  21187229.62548        49.100          36.100  
  23200173.148 6     -3359.527 6     -2617.81247   6911057.181 6   5363285.01247
  23200168.10547        45.200          31.600  
  24384459.438 5     -1998.895 5     -1557.57846   1413508.277 5   1100962.94346
  24384454.94946        39.200          21.500  
  23290085.750 6      3124.421 6      2434.61446  -9648611.166 6  -7495731.61746
  23290081.21146        42.800          26.000  
 08  1 16 17  8 45.0000000  0  9G01G02G04G05G09G12G17G20G30   -0.000111073
  25183042.000 5      -615.632 5      -479.71346  -1833071.025 5  -1422800.03046
  25183038.48046        39.500          19.900  
  21016167.727 7      1893.072 7      1475.12148  -8854731.471 7  -6857610.67048
  21016161.21948        49.300          39.500  
  20532606.305 7      -971.279 7      -756.84148  -1724080.351 7  -1332683.59348
  20532601.85948        50.200          39.000  
  21639035.570 6      2336.582 6      1820.71347  -9500560.745 6  -7368095.10647
  21639030.60547        46.800          30.500  
  22303771.070 6     -3385.953 6     -2638.40447   5575252.855 6   4329826.49047
  22303766.61347        45.500          31.600  
  21182987.688 7      1488.061 7      1159.52848  -7397470.487 7  -5745106.67348
  21182982.25848        49.000          35.700  
  23209769.953 6     -3362.219 6     -2619.91047   6961490.458 6   5402583.65747
  23209765.33247        45.000          31.000  
  24390191.852 5     -2008.076 5     -1564.73446   1443629.412 5   1124433.94646
  24390187.33246        39.400          21.700  
  23281177.781 6      3120.770 6      2431.77046  -9695422.720 6  -7532208.16546
  23281172.95746        42.700          26.000  
 08  1 16 17  9  0.0000000  0  9G01G02G04G05G09G12G17G20G30   -0.000107864
  25184825.133 4      -624.731 4      -486.80246  -1823700.064 4  -1415498.00646
  25184821.42246        38.700          20.400  
  21010786.391 7      1885.344 7      1469.09948  -8883011.639 7  -6879647.16248
  21010779.69148        49.600          39.700  
  20535407.727 7      -981.298 7      -764.64748  -1709360.886 7  -1321213.88248
  20535403.06348        50.000          39.100  
  21632383.258 6      2330.613 6      1816.06247  -9535519.944 6  -7395336.03847
  21632377.50447        46.300          31.100  
  22313455.578 6     -3392.779 6     -2643.72247   5626144.534 6   4369482.32447
  22313451.28547        45.900          31.500  
  21178758.977 7      1481.399 7      1154.33748  -7419691.473 7  -5762421.73448
  21178753.57448        49.600          35.700  
  23219374.102 6     -3364.479 6     -2621.67247   7011957.646 6   5441908.73547
  23219369.04347        44.800          31.700  
  24395949.375 5     -2016.840 5     -1571.56146   1473882.006 5   1148007.36446
  24395943.81646        39.900          21.300  
  23272278.828 5      3117.504 5      2429.22446  -9742185.275 5  -7568646.51946
  23272274.37946        42.300          25.300  
 08  1 16 17  9 15.0000000  0  9G01G02G04G05G09G12G17G20G30   -0.000104652
  25186634.711 4      -634.119 4      -494.11846  -1814188.273 4  -1408086.24046
  25186631.48846        38.400          19.000  
  21005427.398 7      1877.313 7      1462.84248  -8911171.337 7  -6901589.79148
  21005420.96948        49.100          39.000  
  20538237.836 7      -991.602 7      -772.67748  -1694486.859 7  -1309623.73248
  20538233.41448        49.200          39.100  
  21625748.641 6      2324.323 6      1811.16147  -9570384.780 6  -7422503.44847
  21625743.74647        46.500          30.900  
  22323159.867 6     -3399.892 6     -2649.26647   5677142.909 6   4409221.31347
  22323155.94147        45.400          31.800  
  21174550.586 7      1474.421 7      1148.90048  -7441807.792 7  -5779655.22748
  21174545.20748        49.200          35.800  
  23228984.422 6     -3367.046 6     -2623.67147   7062463.332 6   5481263.80147
  23228979.71147        44.700          30.500  
  24401731.484 5     -2025.870 5     -1578.59946   1504270.057 5   1171686.34446
  24401726.60546        39.900          21.700  
  23263390.664 6      3113.917 6      2426.42846  -9788894.038 6  -7605042.94346
  23263386.05146        44.200          24.500  
 08  1 16 17  9 30.0000000  0  9G01G02G04G05G09G12G17G20G30   -0.000101439
  25188472.414 4      -643.464 4      -501.39845  -1804536.310 4  -1400565.27645
  25188468.59845        39.000          18.600  
  21000091.805 7      1869.325 7      1456.61648  -8939211.215 7  -6923439.03548
  21000085.12148        49.100          39.300  
  20541097.664 7     -1001.845 7      -780.65948  -1679459.179 7  -1297913.85348
  20541092.83248        49.900          39.800  
  21619131.586 6      2318.058 6      1806.27947  -9605155.650 6  -7449597.63347
  21619126.93447        46.200          30.600  
  22332884.492 6     -3406.919 6     -2654.74247   5728246.698 6   4449042.44847
  22332880.26247        45.000          31.200  
  21170361.688 7      1467.467 7      1143.48048  -7463819.795 7  -5796807.43448
  21170356.20348        49.600          35.900  
  23238602.508 6     -3369.551 6     -2625.62447   7113006.591 6   5520648.15447
  23238598.05147        45.000          30.400  
  24407539.422 5     -2034.851 5     -1585.59946   1534792.829 5   1195470.32746
  24407535.01646        40.600          20.900  
  23254511.680 6      3110.361 6      2423.65946  -9835549.450 6  -7641397.83646
  23254507.05946        42.600          24.300  
 08  1 16 17  9 45.0000000  0  9G01G02G04G05G09G12G17G20G30   -0.000098223
  25190334.266 5      -652.638 5      -508.54845  -1794746.740 5  -1392937.05245
  25190330.96545        39.400          18.300  
  20994778.641 7      1861.482 7      1450.50548  -8967133.440 7  -6945196.61448
  20994771.69148        49.100          38.900  
  20543986.008 7     -1011.924 7      -788.51348  -1664280.319 7  -1286086.16448
  20543981.14148        49.100          39.500  
  21612533.016 6      2311.938 6      1801.50947  -9639834.715 6  -7476620.26347
  21612527.68847        46.600          30.700  
  22342629.250 6     -3413.752 6     -2660.06747   5779452.984 6   4488943.44647
  22342625.00847        45.800          30.500  
  21166192.594 7      1460.660 7      1138.17648  -7485729.688 7  -5813880.07548
  21166186.96148        49.800          36.100  
  23248227.625 6     -3371.882 6     -2627.43947   7163584.819 6   5560059.74647
  23248222.73047        45.100          30.000  
  24413373.773 5     -2043.656 5     -1592.45846   1565447.665 5   1219357.20046
  24413368.19946        41.300          22.600  
  23245643.984 6      3106.944 6      2420.99446  -9882153.609 6  -7677712.74746
  23245639.62946        42.800          25.400  
 08  1 16 17 10  0.0000000  0  9G01G02G04G05G09G12G17G20G30   -0.000095005
  25192224.227 4      -661.690 4      -515.60545  -1784821.397 4  -1385202.98045
  25192220.04745        38.400          18.600  
  20989487.297 7      1853.730 7      1444.46448  -8994939.385 7  -6966863.57248
  20989480.53148        49.500          39.500  
  20546902.945 7     -1021.875 7      -796.26748  -1648952.188 7  -1274142.16448
  20546898.29748        49.400          38.600  
  21605950.422 6      2305.912 6      1796.81547  -9674423.395 6  -7503572.49247
  21605945.96147        46.600          30.100  
  22352392.305 6     -3420.452 6     -2665.28847   5830759.765 6   4528922.76247
  22352388.07047        45.200          31.000  
  21162042.555 7      1453.954 7      1132.95248  -7507539.006 7  -5830874.35848
  21162036.80148        49.300          36.100  
  23257858.727 6     -3374.103 6     -2629.17047   7214196.363 6   5599497.29347
  23257854.07847        44.900          30.100  
  24419231.641 5     -2052.335 5     -1599.22246   1596232.694 5   1243345.53246
  24419226.57446        40.400          21.500  
  23236784.656 6      3103.637 6      2418.41946  -9928708.168 6  -7713989.02946
  23236780.26646        43.900          24.100  
 08  1 16 17 10 15.0000000  0  9G01G02G04G05G09G12G17G20G30   -0.000091785
  25194138.383 5      -670.987 5      -522.84846  -1774756.592 5  -1377360.25846
  25194134.78146        40.100          19.600  
  20984218.586 7      1845.721 7      1438.22448  -9022625.196 7  -6988436.92948
  20984211.84448        49.200          39.500  
  20549848.859 7     -1032.065 7      -804.20648  -1633471.215 7  -1262079.06748
  20549844.17648        49.900          39.100  
  21599386.875 6      2299.617 6      1791.90847  -9708917.648 6  -7530451.11847
  21599381.85247        46.900          30.500  
  22362175.492 6     -3427.369 6     -2670.67647   5882170.307 6   4568982.90247
  22362171.11347        45.600          30.500  
  21157912.266 7      1446.995 7      1127.52848  -7529243.927 7  -5847787.27548
  21157906.87148        49.400          36.100  
  23267496.266 6     -3376.550 6     -2631.07747   7264844.608 6   5638963.44547
  23267492.01647        44.900          29.800  
  24425115.414 5     -2061.248 5     -1606.16846   1627151.411 5   1267438.05446
  24425110.28546        41.100          21.100  
  23227936.039 6      3100.051 6      2415.62646  -9975208.938 6  -7750223.41846
  23227930.94146        43.700          25.600  
 08  1 16 17 10 30.0000000  0  9G01G02G04G05G09G12G17G20G30   -0.000088562
  25196081.094 5      -680.263 5      -530.07446  -1764552.648 5  -1369409.15246
  25196076.34046        39.500          19.000  
  20978973.211 7      1837.722 7      1431.99148  -9050191.022 7  -7009916.78748
  20978966.45748        50.300          39.000  
  20552823.430 7     -1042.221 7      -812.12048  -1617837.899 7  -1249897.26048
  20552819.04348        49.800          39.300  
  21592840.258 6      2293.331 6      1787.01247  -9743317.605 6  -7557256.29547
  21592835.42247        46.900          30.700  
  22371978.422 6     -3434.245 6     -2676.03547   5933683.980 6   4609123.42647
  22371974.02047        44.700          30.200  
  21153802.023 7      1440.041 7      1122.11148  -7550844.546 7  -5864618.93548
  21153796.13748        49.600          36.100  
  23277141.539 6     -3378.967 6     -2632.96147   7315529.117 6   5678457.85847
  23277136.52747        45.600          31.200  
  24431023.703 5     -2070.120 5     -1613.08046   1658203.211 5   1291634.25246
  24431018.72346        40.000          21.300  
  23219097.617 6      3096.470 6      2412.83246 -10021655.990 6  -7786415.89746
  23219093.21546        45.300          25.500  
 08  1 16 17 10 45.0000000  0  9G01G02G04G05G09G12G17G20G30   -0.000085339
  25198048.914 5      -689.296 5      -537.11145  -1754213.203 5  -1361352.48845
  25198043.71145        40.800          18.600  
  20973749.945 7      1829.938 7      1425.92648  -9077640.099 7  -7031305.67448
  20973742.64848        50.300          39.000  
  20555826.914 7     -1052.135 7      -819.84548  -1602055.879 7  -1237599.58248
  20555822.39548        50.100          39.600  
  21586311.742 6      2287.249 6      1782.27247  -9777626.346 6  -7583990.37147
  21586307.15647        46.900          31.200  
  22381799.766 6     -3440.853 6     -2681.18447   5985296.771 6   4649341.18647
  22381795.12547        45.300          30.900  
  21149710.547 7      1433.291 7      1116.84948  -7572343.903 7  -5881371.67748
  21149704.61348        50.300          36.300  
  23286793.047 6     -3381.142 6     -2634.65647   7366246.243 6   5717977.69147
  23286787.77347        46.000          30.900  
  24436957.586 5     -2078.743 5     -1619.80146   1689384.363 5   1315931.26546
  24436952.35246        39.900          20.600  
  23210268.539 6      3093.099 6      2410.20846 -10068052.480 6  -7822569.02146
  23210263.82446        43.300          25.700  
 08  1 16 17 11  0.0000000  0  9G01G02G04G05G09G12G17G20G30   -0.000082113
  25200041.789 5      -698.451 5      -544.24746  -1743736.438 5  -1353188.77746
  25200037.22746        39.500          19.600  
  20968549.047 7      1822.016 7      1419.75148  -9104970.338 7  -7052601.94348
  20968542.22348        50.300          39.200  
  20558858.570 7     -1062.167 7      -827.66348  -1586123.371 7  -1225184.63948
  20558854.03148        49.400          39.000  
  21579800.531 6      2281.023 6      1777.42147  -9811841.692 6  -7610651.68647
  21579795.93847        46.900          31.500  
  22391640.828 6     -3447.567 6     -2686.41547   6037010.276 6   4689637.41047
  22391636.07447        44.000          31.300  
  21145639.141 7      1426.404 7      1111.48448  -7593739.968 7  -5898043.93948
  21145633.37548        50.100          35.900  
  23296450.961 6     -3383.443 6     -2636.44947   7416997.895 6   5757524.42347
  23296446.08247        44.800          31.800  
  24442917.328 5     -2087.485 5     -1626.61046   1720696.635 5   1340330.41946
  24442911.10246        40.300          21.500  
  23201449.406 6      3089.580 6      2407.46646 -10114396.186 6  -7858681.01246
  23201444.82046        43.900          26.200  
 08  1 16 17 11 15.0000000  0  9G01G02G04G05G09G12G17G20G30   -0.000078884
  25202062.172 4      -707.828 4      -551.55346  -1733119.023 4  -1344915.47746
  25202058.13746        38.500          19.900  
  20963371.211 7      1813.862 7      1413.39948  -9132178.269 7  -7073802.92648
  20963364.69548        49.500          39.200  
  20561919.609 7     -1072.419 7      -835.65148  -1570037.091 7  -1212649.87548
  20561915.43848        49.500          39.600  
  21573308.117 6      2274.559 6      1772.38247  -9845960.070 6  -7637237.42147
  21573303.52747        47.000          31.200  
  22401501.938 6     -3454.471 6     -2691.79547   6088827.336 6   4730014.33247
  22401496.79747        44.200          31.200  
  21141587.984 7      1419.276 7      1105.92948  -7615029.101 7  -5914632.87448
  21141582.03948        49.800          36.400  
  23306114.992 6     -3385.952 6     -2638.40447   7467787.182 6   5797100.48247
  23306110.68047        44.100          32.000  
  24448900.680 5     -2096.427 5     -1633.57646   1752143.045 5   1364834.05346
  24448895.75046        40.500          21.700  
  23192641.414 6      3085.823 6      2404.53646 -10160683.538 6  -7894749.05546
  23192636.56346        43.900          25.300  
 08  1 16 17 11 30.0000000  0  9G01G02G04G05G09G12G17G20G30   -0.000075653
  25204109.086 5      -716.970 5      -558.68046  -1722364.472 5  -1336535.28046
  25204104.86346        40.500          19.900  
  20958216.852 7      1805.919 7      1407.20848  -9159267.049 7  -7094911.05248
  20958209.63348        49.900          39.400  
  20565009.258 7     -1082.422 7      -843.44648  -1553800.757 7  -1199998.19048
  20565004.89848        49.000          38.900  
  21566833.320 6      2268.296 6      1767.50547  -9879984.518 6  -7663749.99047
  21566828.70747        46.800          31.500  
  22411380.508 6     -3461.120 6     -2696.97747   6140744.133 6   4770468.98247
  22411376.32447        45.100          31.000  
  21137555.906 7      1412.375 7      1100.55248  -7636214.729 7  -5931141.15648
  21137550.50848        50.500          36.600  
  23315786.695 6     -3388.230 6     -2640.18047   7518610.638 6   5836703.17847
  23315782.18447        45.400          30.600  
  24454909.156 5     -2105.138 5     -1640.36846   1783720.120 5   1389439.56646
  24454904.21146        40.300          20.100  
  23183843.055 6      3082.281 6      2401.77846 -10206917.761 6  -7930775.71846
  23183838.23846        43.500          25.800  
 08  1 16 17 11 45.0000000  0  9G01G02G04G05G09G12G17G20G30   -0.000072420
  25206180.281 4      -726.163 4      -565.84045  -1711472.022 4  -1328047.68445
  25206177.54745        38.700          17.800  
  20953084.391 7      1797.912 7      1400.97048  -9186235.727 7  -7115925.59948
  20953077.57448        49.300          39.400  
  20568127.961 7     -1092.471 7      -851.27648  -1537413.689 7  -1187229.04748
  20568123.79348        49.100          39.100  
  21560377.289 6      2261.970 6      1762.57447  -9913914.074 6  -7690188.59947
  21560372.38747        47.300          31.400  
  22421278.891 6     -3467.792 6     -2702.17447   6192761.011 6   4811001.59447
  22421274.43847        44.700          30.900  
  21133544.531 7      1405.407 7      1095.12248  -7657295.834 7  -5947567.98748
  21133538.86748        50.000          36.300  
  23325464.586 6     -3390.558 6     -2641.99247   7569469.007 6   5876333.05747
  23325460.12947        44.500          30.600  
  24460942.977 5     -2113.879 5     -1647.17846   1815428.308 5   1414147.23046
  24460937.86746        40.400          20.400  
  23175055.414 6      3078.666 6      2398.96246 -10253097.755 6  -7966760.14246
  23175050.70746        43.900          25.600  
 08  1 16 17 12  0.0000000  0  9G01G02G04G05G09G12G17G20G30   -0.000069187
  25208280.555 4      -735.171 4      -572.86345  -1700444.464 4  -1319454.74145
  25208275.66845        38.100          17.400  
  20947975.016 7      1790.056 7      1394.84948  -9213086.572 7  -7136848.33248
  20947967.99648        50.000          39.600  
  20571274.508 7     -1102.333 7      -858.96148  -1520878.691 7  -1174344.63648
  20571269.86348        49.500          39.000  
  21553938.047 6      2255.800 6      1757.76647  -9947751.072 6  -7716555.09347
  21553933.47747        47.300          31.600  
  22431196.234 6     -3474.257 6     -2707.21347   6244874.860 6   4851609.78547
  22431191.24647        45.100          31.100  
  21129552.414 7      1398.577 7      1089.80048  -7678274.492 7  -5963914.98648
  21129546.74248        50.600          36.300  
  23335148.797 6     -3392.710 6     -2643.67047   7620359.652 6   5915988.10647
  23335144.48047        44.100          30.900  
  24467002.203 5     -2122.433 5     -1653.83946   1847264.807 5   1438954.81146
  24466996.06346        39.700          19.900  
  23166277.375 6      3075.193 6      2396.25446 -10299225.650 6  -8002703.95446
  23166273.23846        44.100          25.300  
 08  1 16 17 12 15.0000000  0  9G01G02G04G05G09G12G17G20G30   -0.000065952
  25210403.922 5      -744.243 5      -579.93245  -1689280.815 5  -1310755.75945
  25210399.94145        39.200          17.400  
  20942888.164 7      1782.122 7      1388.66648  -9239818.402 7  -7157678.32148
  20942881.35548        50.000          38.700  
  20574449.086 7     -1112.270 7      -866.70448  -1504194.637 7  -1161344.07048
  20574444.23848        49.900          38.900  
  21547517.109 6      2249.526 6      1752.87847  -9981493.963 6  -7742848.25847
  21547512.33247        47.500          31.600  
  22441131.258 6     -3480.786 6     -2712.30147   6297086.645 6   4892294.29947
  22441127.11747        45.500          30.300  
  21125580.164 7      1391.669 7      1084.41848  -7699149.530 7  -5980181.25948
  21125574.46948        50.300          36.600  
  23344838.813 6     -3394.892 6     -2645.37047   7671283.031 6   5955668.65347
  23344834.43447        44.800          31.200  
  24473082.594 4     -2131.038 4     -1660.54746   1879230.376 4   1463863.02346
  24473079.66046        37.900          20.400  
  23157509.664 6      3071.636 6      2393.48246 -10345300.191 6  -8038606.19146
  23157505.73446        43.800          25.600  
 08  1 16 17 12 30.0000000  0  9G01G02G04G05G09G12G17G20G30   -0.000062716
  25212554.148 4      -753.516 4      -587.15345  -1677978.074 4  -1301948.46745
  25212551.34045        38.800          16.900  
  20937824.484 7      1773.990 7      1382.32848  -9266428.244 7  -7178413.24748
  20937817.09448        49.500          38.900  
  20577652.992 7     -1122.373 7      -874.57748  -1487359.037 7  -1148225.42048
  20577648.33648        50.100          39.300  
  21541114.367 7      2243.048 7      1747.83047 -10015139.689 7  -7769065.70247
  21541109.57447        47.800          31.900  
  22451086.242 6     -3487.468 6     -2717.50747   6349398.670 6   4933056.90847
  22451081.49247        45.200          29.700  
  21121628.336 7      1384.547 7      1078.86848  -7719917.740 7  -5996364.27848
  21121622.60948        50.200          36.800  
  23354535.867 6     -3397.272 6     -2647.22547   7722242.113 6   5995377.02347
  23354531.50047        44.900          29.700  
  24479191.953 4     -2139.839 4     -1667.40146   1911327.959 4   1488874.03046
  24479187.40246        38.600          19.600  
  23148753.422 6      3067.865 6      2390.54346 -10391318.159 6  -8074464.33346
  23148748.93846        44.100          25.900  
 08  1 16 17 12 45.0000000  0  9G01G02G04G05G09G12G17G20G30   -0.000059473
  25214732.078 4      -762.697 4      -594.30745  -1666537.623 4  -1293033.85745
  25214728.22345        38.900          17.800  
  20932783.688 7      1765.914 7      1376.03648  -9292916.947 7  -7199053.78248
  20932776.83248        48.900          39.200  
  20580885.531 7     -1132.403 7      -882.39148  -1470372.996 7  -1134989.55048
  20580880.66048        49.300          39.400  
  21534730.461 7      2236.621 7      1742.82147 -10048689.006 7  -7795208.02347
  21534725.52347        47.600          32.000  
  22461059.602 6     -3494.053 6     -2722.63847   6401809.469 6   4973896.47847
  22461055.18047        44.500          30.300  
  21117696.438 7      1377.485 7      1073.36548  -7740580.018 7  -6012464.75348
  21117690.80948        50.100          36.800  
  23364239.445 6     -3399.581 6     -2649.02347   7773235.829 6   6035112.37647
  23364235.64147        44.400          30.100  
  24485325.453 5     -2148.542 5     -1674.18746   1943556.086 5   1513986.83446
  24485319.97746        39.300          20.400  
  23140006.273 6      3064.147 6      2387.64746 -10437280.368 6  -8110279.04246
  23140002.49246        43.800          25.400  
 08  1 16 17 13  0.0000000  0  9G01G02G04G05G09G12G17G20G30   -0.000056234
  25216935.289 4      -771.778 4      -601.38645  -1654960.954 4  -1284013.06945
  25216931.21545        39.000          17.800  
  20927766.016 7      1757.911 7      1369.80048  -9319285.606 7  -7219600.78248
  20927759.34048        49.500          39.000  
  20584146.109 7     -1142.325 7      -890.12348  -1453238.121 7  -1121637.69748
  20584141.07048        49.500          39.500  
  21528363.906 6      2230.262 6      1737.86747 -10082142.941 6  -7821276.02447
  21528359.41447        47.500          31.800  
  22471051.969 6     -3500.521 6     -2727.67847   6454317.279 6   5014811.64547
  22471047.35947        43.300          29.200  
  21113784.563 7      1370.500 7      1067.92248  -7761137.518 7  -6028483.58348
  21113778.40248        50.000          36.800  
  23373949.875 6     -3401.787 6     -2650.74247   7824262.639 6   6074873.50947
  23373945.77347        42.500          29.500  
  24491482.305 4     -2157.132 4     -1680.88146   1975913.062 4   1539200.05246
  24491477.59446        39.000          19.300  
  23131270.813 6      3060.493 6      2384.80046 -10483187.770 6  -8146051.04746
  23131265.95346        43.800          25.200  
 08  1 16 17 13 15.0000000  0  9G01G02G04G05G09G12G17G20G30   -0.000052992
  25219165.172 5      -780.896 5      -608.49045  -1643247.517 5  -1274885.71545
  25219160.36345        40.200          18.600  
  20922771.313 7      1749.869 7      1363.53448  -9345533.640 7  -7240053.78648
  20922764.57848        48.500          38.700  
  20587435.453 7     -1152.273 7      -897.87548  -1435954.027 7  -1108169.57048
  20587430.44948        48.800          39.000  
  21522016.789 6      2223.854 6      1732.87347 -10115500.748 6  -7847269.11947
  21522011.50447        46.800          31.900  
  22481061.828 6     -3506.978 6     -2732.71047   6506921.947 6   5055802.30047
  22481057.53547        44.400          29.300  
  21109892.398 7      1363.469 7      1062.44348  -7781589.547 7  -6044420.23348
  21109886.67248        49.500          36.800  
  23383666.875 6     -3404.013 6     -2652.47647   7875322.831 6   6114660.65347
  23383662.09447        44.600          30.400  
  24497664.875 4     -2165.758 4     -1687.60346   2008399.427 4   1564514.09146
  24497659.63346        38.400          19.300  
  23122545.273 6      3056.794 6      2381.91847 -10529039.681 6  -8181779.81647
  23122540.88747        44.200          26.800  
 08  1 16 17 13 30.0000000  0  9G01G02G04G05G09G12G17G20G30   -0.000049746
  25221418.766 5      -789.969 5      -615.55945  -1631397.979 5  -1265652.33445
  25221415.23845        39.700          18.600  
  20917799.320 7      1741.845 7      1357.28148  -9371661.310 7  -7260413.00248
  20917792.26248        48.800          38.500  
  20590752.344 7     -1162.175 7      -905.59148  -1418521.398 7  -1094585.69948
  20590747.91448        49.500          39.000  
  21515687.203 7      2217.463 7      1727.89347 -10148762.694 7  -7873187.52047
  21515682.34447        48.100          32.100  
  22491090.273 6     -3513.377 6     -2737.69647   6559622.607 6   5096867.74447
  22491085.85547        45.100          29.900  
  21106020.656 7      1356.454 7      1056.97748  -7801936.359 7  -6060274.88348
  21106015.00448        49.800          37.000  
  23393388.898 6     -3406.195 6     -2654.17747   7926415.759 6   6154473.30647
  23393384.82847        44.800          29.400  
  24503871.406 5     -2174.316 5     -1694.27246   2041014.165 5   1589928.17746
  24503865.77046        39.400          19.000  
  23113830.938 6      3053.105 6      2379.04146 -10574836.251 6  -8217465.43346
  23113826.20346        45.500          25.200  
 08  1 16 17 13 45.0000000  0  9G01G02G04G05G09G12G17G20G30   -0.000046499
  25223698.820 4      -798.966 4      -622.57145  -1619413.494 4  -1256313.76245
  25223695.64845        37.700          17.800  
  20912850.188 7      1733.875 7      1351.07148  -9397669.434 7  -7280679.06348
  20912843.14548        48.700          39.100  
  20594097.969 7     -1171.992 7      -913.24048  -1400941.524 7  -1080887.10448
  20594092.93848        48.500          38.900  
  21509375.773 7      2211.123 7      1722.95447 -10181929.542 7  -7899031.82347
  21509370.73447        48.200          31.500  
  22501137.570 6     -3519.681 6     -2742.60747   6612417.818 6   5138006.84947
  22501132.53147        43.800          30.200  
  21102168.609 7      1349.500 7      1051.55948  -7822178.864 7  -6076048.27048
  21102163.09448        50.200          36.600  
  23403118.047 6     -3408.304 6     -2655.82147   7977540.322 6   6194310.61547
  23403113.52347        43.000          30.700  
  24510102.563 5     -2182.791 5     -1700.87746   2073756.033 5   1615441.33146
  24510096.31346        39.500          19.000  
  23105126.164 6      3049.467 6      2376.20946 -10620578.261 6  -8253108.56446
  23105121.85546        44.700          25.800  
 08  1 16 17 14  0.0000000  0  9G01G02G04G05G09G12G17G20G30   -0.000043251
  25226006.070 4      -808.105 4      -629.69245  -1607291.914 4  -1246868.38745
  25226002.24645        38.100          17.800  
  20907924.203 7      1725.746 7      1344.73648  -9423555.630 7  -7300850.10648
  20907917.07048        49.100          39.000  
  20597471.305 7     -1181.946 7      -920.99748  -1383212.340 7  -1067072.14648
  20597466.73048        49.500          39.100  
  21503082.719 7      2204.616 7      1717.88347 -10214998.787 7  -7924800.06447
  21503077.73447        48.400          32.100  
  22511202.375 6     -3526.115 6     -2747.62147   6665309.535 6   5179221.16947
  22511197.59447        45.300          29.900  
  21098337.086 7      1342.382 7      1046.01248  -7842314.594 7  -6091738.44748
  21098331.36348        50.000          36.700  
  23412853.039 6     -3410.552 6     -2657.57247   8028698.599 6   6234174.19947
  23412848.49247        44.200          29.800  
  24516357.773 5     -2191.407 5     -1707.59146   2106627.140 5   1641055.20346
  24516351.36746        41.000          20.100  
  23096432.602 6      3045.672 6      2373.25046 -10666263.341 6  -8288707.31846
  23096428.10946        44.700          26.200  
 08  1 16 17 14 15.0000000  0  9G01G02G04G05G09G12G17G20G30   -0.000040001
  25228338.945 3      -817.184 3      -636.76845  -1595034.148 3  -1237316.87045
  25228334.80945        36.800          17.800  
  20903021.227 7      1717.661 7      1338.43648  -9449320.538 7  -7320926.64648
  20903014.21148        49.500          39.100  
  20600873.266 7     -1191.850 7      -928.71548  -1365334.584 7  -1053141.42848
  20600868.56648        48.800          39.200  
  21496808.383 7      2198.131 7      1712.82947 -10247970.752 7  -7950492.50647
  21496803.16447        48.100          31.500  
  22521284.984 6     -3532.469 6     -2752.57347   6718296.568 6   5220509.76147
  22521280.83647        44.000          29.600  
  21094525.391 7      1335.294 7      1040.48948  -7862344.011 7  -6107345.78148
  21094519.50048        50.000          36.700  
  23422595.047 6     -3412.748 6     -2659.28247   8079889.812 6   6274063.43647
  23422589.52047        44.300          29.600  
  24522635.383 4     -2199.949 4     -1714.24846   2139626.371 4   1666768.91746
  24522631.08246        37.600          20.100  
  23087750.289 6      3041.903 6      2370.31446 -10711891.886 6  -8324262.03446
  23087744.98846        44.700          23.000  
 08  1 16 17 14 30.0000000  0  9G01G02G04G05G09G12G17G20G30   -0.000036747
  25230697.750 5      -826.274 5      -643.84946  -1582640.039 5  -1227659.14046
  25230693.44146        39.400          19.300  
  20898141.680 7      1709.549 7      1332.11648  -9474963.778 7  -7340908.38648
  20898134.33648        49.000          38.700  
  20604303.945 7     -1201.740 7      -936.42148  -1347308.487 7  -1039095.11448
  20604299.05148        49.800          38.700  
  21490552.430 7      2191.626 7      1707.76147 -10280845.150 7  -7976108.92647
  21490547.68447        47.900          31.400  
  22531385.992 6     -3538.807 6     -2757.51047   6771378.670 6   5261872.41947
  22531381.75047        44.500          29.200  
  21090734.273 7      1328.179 7      1034.94548  -7882266.699 7  -6122869.95348
  21090728.56348        50.000          37.000  
  23432342.516 6     -3414.944 6     -2660.99547   8131113.977 6   6313978.36247
  23432337.53547        44.500          31.200  
  24528939.094 5     -2208.486 5     -1720.90146   2172753.658 5   1692582.42846
  24528935.12946        39.300          20.400  
  23079078.234 6      3038.101 6      2367.35347 -10757463.406 6  -8359772.32547
  23079073.09847        44.700          26.600  
 08  1 16 17 14 45.0000000  0  9G01G02G04G05G09G12G17G20G30   -0.000033493
  25233081.859 5      -835.458 5      -651.00745  -1570108.165 5  -1217894.02845
  25233078.25845        39.400          17.400  
  20893285.320 7      1701.315 7      1325.69848  -9500483.502 7  -7360793.86348
  20893278.09048        49.400          39.100  
  20607762.422 7     -1211.727 7      -944.20248  -1329132.589 7  -1024932.08048
  20607757.22748        49.200          39.200  
  21484316.242 7      2184.995 7      1702.59347 -10313620.074 7  -8001647.82447
  21484310.78147        48.300          32.100  
  22541505.688 6     -3545.229 6     -2762.51547   6824557.101 6   5303310.14247
  22541501.46147        44.300          28.900  
  21086963.711 7      1320.946 7      1029.30948  -7902080.892 7  -6138309.59048
  21086957.75048        50.200          37.000  
  23442096.023 6     -3417.230 6     -2662.77647   8182372.426 6   6353920.00247
  23442092.02347        44.100          30.900  
  24535267.953 5     -2217.119 5     -1727.62446   2206010.438 5   1718496.78746
  24535263.93446        39.600          20.400  
  23070417.367 6      3034.175 6      2364.29147 -10802976.030 6  -8395236.68847
  23070412.79347        45.000          27.400  
 08  1 16 17 15  0.0000000  0  9G01G02G04G05G09G12G17G20G30   -0.000030237
  25235492.891 4      -844.398 4      -657.96945  -1557442.188 4  -1208024.49145
  25235488.56645        39.000          18.600  
  20888451.805 7      1693.316 7      1319.46748  -9525883.241 7  -7380585.86548
  20888444.71148        48.500          39.000  
  20611248.789 7     -1221.475 7      -951.79948  -1310810.466 7  -1010655.09848
  20611244.33648        49.000          39.000  
  21478097.063 6      2178.579 6      1697.59447 -10346298.766 6  -8027111.73747
  21478092.00847        47.400          32.100  
  22551642.984 6     -3551.372 6     -2767.30247   6877827.673 6   5344819.66547
  22551638.36747        43.300          29.300  
  21083212.938 7      1313.941 7      1023.85048  -7921790.000 7  -6153667.33748
  21083207.35248        49.900          36.700  
  23451856.289 6     -3419.270 6     -2664.36547   8233661.472 6   6393885.46947
  23451851.91047        43.200          31.100  
  24541620.422 4     -2225.496 4     -1734.15145   2239392.872 4   1744509.06045
  24541616.30545        37.600          18.600  
  23061766.672 6      3030.461 6      2361.39847 -10848432.948 6  -8430657.65547
  23061762.64847        44.200          26.300  
 08  1 16 17 15 15.0000000  0  9G01G02G04G05G09G12G17G20G30   -0.000026981
  25237928.742 5      -853.278 5      -664.89245  -1544643.016 5  -1198051.11345
  25237923.69945        39.600          17.800  
  20883641.086 7      1685.348 7      1313.25748  -9551163.466 7  -7400284.72848
  20883634.29748        49.100          38.400  
  20614763.023 7     -1231.145 7      -959.33348  -1292343.295 7   -996265.09748
  20614758.16848        49.300          39.300  
  21471896.820 7      2172.198 7      1692.62247 -10378881.734 7  -8052501.06547
  21471891.93847        47.800          32.300  
  22561797.297 6     -3557.431 6     -2772.02447   6931189.132 6   5386400.02447
  22561792.52047        44.500          28.900  
  21079482.563 7      1306.980 7      1018.42648  -7941394.697 7  -6168943.72648
  21079476.91848        50.200          37.300  
  23461622.328 6     -3421.250 6     -2665.90747   8284980.219 6   6433874.08147
  23461617.51647        44.300          31.200  
  24547996.484 4     -2233.803 4     -1740.62945   2272899.924 4   1770618.49845
  24547992.60245        39.000          18.600  
  23053127.531 6      3026.776 6      2358.52747 -10893834.592 6  -8466035.56247
  23053122.98447        44.300          26.300  
 08  1 16 17 15 30.0000000  0  9G01G02G04G05G09G12G17G20G30   -0.000023724
  25240389.031 4      -862.254 4      -671.88745  -1531709.206 4  -1187972.81245
  25240385.48045        38.700          18.600  
  20878853.234 7      1677.263 7      1306.95848  -9576322.417 7  -7419889.09448
  20878846.32448        48.800          39.300  
  20618305.336 7     -1240.912 7      -966.94448  -1273729.616 7   -981760.93048
  20618300.64148        49.300          38.900  
  21465715.141 7      2165.693 7      1687.55247 -10411367.122 7  -8077814.35347
  21465710.14147        48.400          31.500  
  22571968.477 6     -3563.578 6     -2776.81447   6984642.806 6   5428052.23147
  22571964.77047        44.900          29.100  
  21075772.422 7      1299.897 7      1012.90648  -7960893.148 7  -6184137.32148
  21075766.21948        50.400          37.000  
  23471393.508 6     -3423.328 6     -2667.52847   8336330.146 6   6473887.00547
  23471388.94147        43.500          30.900  
  24554396.914 4     -2242.209 4     -1747.17346   2306533.061 4   1796826.09446
  24554392.23446        38.600          19.300  
  23044498.070 6      3022.975 6      2355.56546 -10939179.213 6  -8501369.03246
  23044494.09846        43.700          25.500  
 08  1 16 17 15 45.0000000  0  9G01G02G04G05G09G12G17G20G30   -0.000020466
  25242875.445 4      -871.161 4      -678.83046  -1518641.784 4  -1177790.36346
  25242871.60946        38.500          19.000  
  20874088.766 7      1669.237 7      1300.70348  -9601360.968 7  -7439399.64348
  20874082.35948        48.400          38.900  
  20621874.867 7     -1250.607 7      -974.49948  -1254970.517 7   -967143.44048
  20621870.39848        49.200          39.100  
  21459551.680 7      2159.235 7      1682.52147 -10443755.652 7  -8103052.16447
  21459546.89147        47.600          30.800  
  22582158.523 6     -3569.627 6     -2781.52747   7038187.213 6   5469775.12947
  22582154.42247        44.100          29.200  
  21072081.414 7      1292.844 7      1007.41148  -7980285.802 7  -6199248.48448
  21072075.82048        50.200          36.600  
  23481170.906 6     -3425.328 6     -2669.08647   8387710.065 6   6513923.30047
  23481166.35547        44.200          30.400  
  24560820.406 4     -2250.523 4     -1753.65346   2340290.900 4   1823130.89346
  24560816.25446        38.300          19.600  
  23035879.727 6      3019.224 6      2352.64347 -10984467.575 6  -8536658.67947
  23035876.39547        44.700          27.000  
 08  1 16 17 16  0.0000000  0  9G01G02G04G05G09G12G17G20G30   -0.000017208
  25245387.414 5      -880.066 5      -685.76345  -1505440.792 5  -1167503.91845
  25245384.23845        39.400          18.600  
  20869347.102 7      1661.203 7      1294.44348  -9626279.020 7  -7458816.29248
  20869340.54748        48.600          39.100  
  20625472.297 7     -1260.286 7      -982.04248  -1236066.221 7   -952412.81448
  20625467.82048        49.500          38.900  
  21453406.984 7      2152.757 7      1677.47247 -10476047.002 7  -8128214.24747
  21453401.69947        48.300          31.600  
  22592364.914 6     -3575.652 6     -2786.22147   7091821.985 6   5511568.44447
  22592361.08247        44.300          29.100  
  21068411.742 7      1285.778 7      1001.90548  -7999572.478 7  -6214277.06548
  21068405.77048        50.500          36.500  
  23490954.086 6     -3427.326 6     -2670.64247   8439119.951 6   6553982.93547
  23490949.18847        44.100          30.500  
  24567268.414 3     -2258.831 3     -1760.12446   2374173.365 3   1849532.75846
  24567264.16446        36.300          19.000  
  23027273.242 6      3015.455 6      2349.70447 -11029699.401 6  -8571904.23247
  23027269.60247        44.300          27.600  
 08  1 16 17 16 15.0000000  0  9G01G02G04G05G09G12G17G20G30   -0.000013947
  25247926.156 5      -889.164 5      -692.85946  -1492103.329 5  -1157111.03346
  25247922.03146        40.500          19.300  
  20864628.836 6      1652.946 6      1288.00948  -9651073.204 6  -7478136.42648
  20864622.02048        47.400          39.300  
  20629097.727 7     -1270.168 7      -989.74248  -1217013.695 7   -937566.68848
  20629093.28548        49.000          39.400  
  21447281.203 7      2146.045 7      1672.24447 -10508237.682 7  -8153297.89947
  21447276.31347        47.600          31.500  
  22602588.445 6     -3581.858 6     -2791.05847   7145549.851 6   5553434.31347
  22602584.50447        43.300          28.700  
  21064762.492 7      1278.497 7       996.23148  -8018749.936 7  -6229220.53048
  21064757.05148        50.300          36.400  
  23500743.016 6     -3429.519 6     -2672.35147   8490562.731 6   6594068.19947
  23500738.21547        43.900          30.200  
  24573739.711 4     -2267.320 4     -1766.74446   2408183.166 4   1876033.91446
  24573735.94146        37.900          19.300  
  23018677.281 6      3011.443 6      2346.58147 -11074871.051 6  -8607102.94847
  23018672.77747        43.900          26.700  
 08  1 16 17 16 30.0000000  0  9G01G02G04G05G09G12G17G20G30   -0.000010685
  25250490.406 5      -898.183 5      -699.88445  -1478630.577 5  -1146612.76745
  25250485.76245        40.100          18.600  
  20859934.063 7      1644.760 7      1281.63148  -9675744.604 7  -7497360.88848
  20859927.49648        48.600          38.700  
  20632751.469 7     -1279.944 7      -997.36048  -1197814.528 7   -922606.29448
  20632746.49248        50.100          40.000  
  21441174.578 7      2139.401 7      1667.06647 -10540328.703 7  -8178303.88647
  21441169.55947        48.000          31.500  
  22612829.820 6     -3587.948 6     -2795.80347   7199369.063 6   5595371.35847
  22612825.91847        44.100          27.600  
  21061133.266 7      1271.290 7       990.61648  -8037819.285 7  -6244079.77348
  21061128.09848        50.000          36.600  
  23510538.859 6     -3431.626 6     -2673.99447   8542037.128 6   6634178.11447
  23510533.80547        44.000          30.900  
  24580236.789 4     -2275.717 4     -1773.28346   2442318.916 4   1902633.15546
  24580232.15646        37.700          19.000  
  23010092.539 6      3007.503 6      2343.50746 -11119983.603 6  -8642255.55146
  23010088.04346        44.800          26.200  
 08  1 16 17 16 45.0000000  0  9G01G02G04G05G09G12G17G20G30   -0.000007421
  25253079.305 5      -907.047 5      -706.78845  -1465024.874 5  -1136010.94245
  25253074.30145        40.200          18.300  
  20855262.414 7      1636.697 7      1275.34748  -9700295.060 7  -7516491.09948
  20855255.56348        47.600          38.600  
  20636432.383 7     -1289.579 7     -1004.86748  -1178470.842 7   -907533.28448
  20636427.88348        48.600          39.400  
  21435086.180 7      2132.880 7      1661.98447 -10572321.896 7  -8203233.64647
  21435081.14147        48.000          31.700  
  22623088.414 6     -3593.868 6     -2800.41647   7253277.082 6   5637377.59447
  22623084.65247        44.000          28.600  
  21057524.922 7      1264.204 7       985.09448  -8056782.353 7  -6258856.18248
  21057519.33248        49.800          36.300  
  23520339.523 6     -3433.585 6     -2675.52047   8593540.906 6   6674310.91447
  23520334.51247        43.900          29.800  
  24586754.945 4     -2283.971 4     -1779.71846   2476578.479 4   1929328.92546
  24586751.38346        38.700          19.300  
  23001518.992 6      3003.683 6      2340.53347 -11165038.842 6  -8677363.54747
  23001514.71147        43.900          27.100  
 08  1 16 17 17  0.0000000  0  9G01G02G04G05G09G12G17G20G30   -0.000004158
  25255693.211 5      -916.047 5      -713.80546  -1451284.166 5  -1125303.87546
  25255689.20346        39.400          19.300  
  20850613.383 7      1628.488 7      1268.95148  -9724722.378 7  -7535525.36848
  20850607.19948        48.000          39.100  
  20640141.094 7     -1299.339 7     -1012.47148  -1158980.760 7   -892346.21348
  20640136.59048        49.200          39.000  
  21429017.148 7      2126.198 7      1656.77747 -10604214.872 7  -8228085.30947
  21429012.37547        48.200          32.100  
  22633363.445 6     -3599.901 6     -2805.11847   7307275.601 6   5679454.36347
  22633360.03147        43.600          27.900  
  21053936.898 7      1256.964 7       979.45248  -8075636.813 7  -6273547.96748
  21053931.30148        50.300          36.800  
  23530146.320 6     -3435.662 6     -2677.13947   8645075.838 6   6714467.99447
  23530141.35947        42.600          28.900  
  24593300.227 4     -2292.335 4     -1786.23146   2510963.513 4   1956122.39046
  24593294.87946        38.300          19.600  
  22992956.734 6      2999.709 6      2337.43546 -11210034.485 6  -8712425.07646
  22992952.18846        44.200          25.600  
 08  1 16 17 17 15.0000000  0  9G01G02G04G05G09G12G17G20G30   -0.000000891
  25258334.422 4      -925.038 4      -720.80646  -1437408.601 4  -1114491.78646
  25258330.23446        39.000          19.000  
  20845988.781 7      1620.258 7      1262.53848  -9749026.248 7  -7554463.44448
  20845982.31348        48.800          39.100  
  20643877.922 7     -1309.086 7     -1020.06748  -1139344.474 7   -877045.20848
  20643872.88748        49.900          39.100  
  21422967.539 6      2119.491 6      1651.55247 -10636007.237 6  -8252858.58547
  21422962.40247        47.200          31.600  
  22643656.797 6     -3605.923 6     -2809.80847   7361364.448 6   5721601.48647
  22643652.62547        44.200          27.300  
  21050369.820 7      1249.700 7       973.79248  -8094382.309 7  -6288154.85248
  21050364.68448        49.400          36.700  
  23539959.063 6     -3437.753 6     -2678.76747   8696642.131 6   6754649.49747
  23539954.00847        42.900          29.100  
  24599866.336 5     -2300.672 5     -1792.73146   2545473.587 5   1983013.35746
  24599861.46946        39.800          21.100  
  22984405.453 6      2995.706 6      2334.31747 -11254970.074 6  -8747439.83147
  22984401.29347        43.600          26.400  
 08  1 16 17 17 30.0000000  0  9G01G02G04G05G09G12G17G20G30    0.000002380
  25261000.664 4      -934.315 4      -728.03945  -1423393.872 4  -1103571.20545
  25260997.03945        38.300          18.600  
  20841388.055 7      1611.726 7      1255.89048  -9773202.139 7  -7573301.79448
  20841381.36748        49.200          38.900  
  20647643.070 7     -1319.120 7     -1027.88648  -1119557.672 7   -861626.91648
  20647638.48848        49.100          39.400  
  21416937.414 7      2112.478 7      1646.08747 -10667694.406 7  -8277549.89047
  21416932.84047        47.800          32.100  
  22653967.750 6     -3612.198 6     -2814.70047   7415547.423 6   5763821.98747
  22653963.21547        44.400          27.200  
  21046824.078 7      1242.137 7       967.89848  -8113014.368 7  -6302673.32948
  21046818.59048        50.200          36.500  
  23549777.828 6     -3440.121 6     -2680.61347   8748243.950 6   6794858.69047
  23549773.77347        43.200          29.100  
  24606458.547 5     -2309.295 5     -1799.44846   2580113.008 5   2010005.08446
  24606453.54346        39.400          20.100  
  22975866.750 6      2991.387 6      2330.95147 -11299840.886 6  -8782404.09247
  22975862.57847        43.900          26.600  
 08  1 16 17 17 45.0000000  0  9G01G02G04G05G09G12G17G20G30    0.000005650
  25263693.383 5      -943.038 5      -734.83245  -1409248.305 5  -1092548.71845
  25263688.55945        39.600          18.600  
  20836810.945 7      1603.728 7      1249.65748  -9797258.054 7  -7592046.65348
  20836803.83248        48.000          38.300  
  20651435.547 7     -1328.590 7     -1035.26548  -1099628.818 7   -846097.94548
  20651431.47348        48.900          39.600  
  21410925.742 7      2105.990 7      1641.03147 -10699284.248 7  -8302165.35347
  21410920.98047        47.600          32.100  
  22664294.563 6     -3617.904 6     -2819.14647   7469815.985 6   5806109.17147
  22664290.76647        44.300          28.900  
  21043298.445 7      1235.099 7       962.41648  -8131540.861 7  -6317109.56548
  21043293.13348        49.900          36.400  
  23559602.875 5     -3441.936 5     -2682.02747   8799872.983 5   6835089.09647
  23559598.60947        42.200          29.100  
  24613073.297 4     -2317.363 4     -1805.73346   2614873.445 4   2037091.08046
  24613068.05946        39.100          20.600  
  22967339.086 6      2987.592 6      2327.99346 -11344654.771 6  -8817323.99046
  22967334.92246        43.700          25.300  
 08  1 16 17 18  0.0000000  0  9G01G02G04G05G09G12G17G20G30    0.000008923
  25266410.195 5      -952.032 5      -741.84245  -1394967.823 5  -1081421.08745
  25266406.71145        39.400          17.400  
  20832256.602 7      1595.436 7      1243.19648  -9821189.595 7  -7610694.59648
  20832249.15648        48.100          38.600  
  20655255.648 7     -1338.319 7     -1042.84648  -1079554.029 7   -830455.24948
  20655251.28548        49.200          39.500  
  21404934.078 6      2099.209 6      1635.74747 -10730772.381 6  -8326701.55147
  21404929.47747        47.000          31.700  
  22674638.055 6     -3623.857 6     -2823.78247   7524173.838 6   5848465.90847
  22674634.39547        43.100          27.800  
  21039794.109 7      1227.778 7       956.71048  -8149957.525 7  -6331460.21048
  21039788.85548        50.000          36.500  
  23569433.563 5     -3444.014 5     -2683.64747   8851533.200 5   6875343.80547
  23569428.89147        41.600          28.700  
  24619711.641 5     -2325.677 5     -1812.21746   2649758.608 5   2064274.33946
  24619706.18846        40.200          21.100  
  22958823.094 6      2983.509 6      2324.81247 -11389407.404 6  -8852196.17547
  22958818.36747        44.300          26.900  
 08  1 16 17 18 15.0000000  0  9G01G02G04G05G09G12G17G20G30    0.000012194
  25269152.938 4      -960.747 4      -748.63145  -1380556.619 4  -1070191.61545
  25269148.71145        38.800          18.600  
  20827725.625 7      1587.404 7      1236.93848  -9845000.661 7  -7629248.66748
  20827718.69148        47.600          38.500  
  20659102.750 7     -1347.776 7     -1050.21548  -1059337.389 7   -814702.02448
  20659098.16048        48.000          38.900  
  21398960.570 7      2092.670 7      1630.65347 -10762162.435 7  -8351161.34147
  21398956.08247        47.800          31.200  
  22684998.359 6     -3629.516 6     -2828.19347   7578616.574 6   5890888.79947
  22684994.57847        44.100          28.400  
  21036309.844 7      1220.700 7       951.19548  -8168268.032 7  -6345728.13848
  21036304.27348        50.400          36.700  
  23579269.523 6     -3445.822 6     -2685.05547   8903220.534 6   6915619.63747
  23579265.33647        42.500          28.100  
  24626372.180 5     -2333.720 5     -1818.48446   2684764.416 5   2091551.59446
  24626367.83246        40.200          20.100  
  22950317.648 6      2979.664 6      2321.81646 -11434102.359 6  -8887023.41546
  22950313.66846        43.600          24.900  
 08  1 16 17 18 30.0000000  0  9G01G02G04G05G09G12G17G20G30    0.000015465
  25271919.625 5      -969.387 5      -755.37045  -1366015.821 5  -1058861.06845
  25271916.33645        39.400          18.300  
  20823217.258 7      1579.448 7      1230.73848  -9868692.375 7  -7647709.73348
  20823210.28548        48.200          38.700  
  20662976.672 7     -1357.143 7     -1057.51448  -1038980.238 7   -798839.31348
  20662971.89848        48.900          38.800  
  21393006.016 6      2086.192 6      1625.60447 -10793455.318 6  -8375545.39847
  21393000.79747        47.300          31.900  
  22695374.453 6     -3635.062 6     -2832.51547   7633142.499 6   5933376.52247
  22695370.77747        43.300          28.700  
  21032845.555 7      1213.691 7       945.73348  -8186473.397 7  -6359914.13948
  21032839.98448        50.000          37.000  
  23589111.000 5     -3447.543 5     -2686.39647   8954933.685 5   6955915.57347
  23589105.51647        42.300          28.100  
  24633057.375 5     -2341.690 5     -1824.69346   2719889.771 5   2118921.98846
  24633051.86346        40.900          21.700  
  22941822.586 6      2975.881 6      2318.86746 -11478740.574 6  -8921806.42446
  22941818.93846        43.900          24.500  
 08  1 16 17 18 45.0000000  0  9G01G02G04G05G09G12G17G20G30    0.000018736
  25274712.234 4      -978.222 4      -762.24945  -1351342.497 4  -1047427.33745
  25274708.32045        38.300          17.400  
  20818732.063 7      1571.261 7      1224.35948  -9892261.297 7  -7666075.12048
  20818725.48048        48.800          38.600  
  20666877.586 7     -1366.708 7     -1064.96848  -1018479.619 7   -782864.79848
  20666872.76248        49.000          38.700  
  21387069.953 6      2079.488 6      1620.38047 -10824647.633 6  -8399851.09747
  21387065.43847        47.400          31.700  
  22705766.727 6     -3640.781 6     -2836.97147   7687754.220 6   5975931.08447
  22705762.49247        43.100          27.900  
  21029401.836 7      1206.455 7       940.09548  -8204570.222 7  -6374015.56248
  21029396.34048        50.200          36.900  
  23598956.313 5     -3449.467 5     -2687.89547   9006675.683 5   6996233.99547
  23598951.66047        42.400          27.400  
  24639764.422 5     -2349.821 5     -1831.03046   2755137.078 5   2146387.43446
  24639759.21946        40.500          21.100  
  22933339.648 6      2971.872 6      2315.74446 -11523318.657 6  -8956542.59046
  22933335.81346        43.300          26.000  
 08  1 16 17 19  0.0000000  0  9G01G02G04G05G09G12G17G20G30    0.000022009
  25277529.789 4      -987.057 4      -769.13945  -1336536.638 4  -1035890.24545
  25277525.10545        38.300          18.300  
  20814270.445 7      1563.057 7      1217.96648  -9915707.149 7  -7684344.60948
  20814263.30948        48.300          39.000  
  20670806.289 7     -1376.274 7     -1072.42148   -997835.503 7   -766778.48048
  20670801.59848        48.500          39.000  
  21381154.031 6      2072.746 6      1615.12647 -10855738.815 6  -8424077.99147
  21381149.37947        47.300          32.000  
  22716174.430 6     -3646.495 6     -2841.42347   7742451.642 6   6018552.43447
  22716171.07447        43.500          29.300  
  21025978.852 7      1199.194 7       934.43648  -8222558.127 7  -6388032.10648
  21025973.20748        49.800          36.800  
  23608807.469 6     -3451.402 6     -2689.40447   9058446.716 6   7036575.05747
  23608803.59047        43.100          27.100  
  24646494.609 5     -2357.957 5     -1837.37346   2790506.434 5   2173948.02146
  24646489.91046        40.300          20.600  
  22924869.141 6      2967.822 6      2312.59047 -11567835.985 6  -8991231.43847
  22924864.49647        44.400          26.700  
 08  1 16 17 19 15.0000000  0  9G01G02G04G05G09G12G17G20G30    0.000025282
  25280372.055 4      -995.858 4      -775.99346  -1321598.768 4  -1024250.35646
  25280368.12146        37.900          19.000  
  20809832.055 7      1554.872 7      1211.58848  -9939030.224 7  -7702518.42648
  20809825.43448        48.100          39.000  
  20674761.547 7     -1385.788 7     -1079.83548   -977048.685 7   -750580.96248
  20674757.17648        48.100          38.500  
  21375256.703 6      2066.025 6      1609.89047 -10886729.197 6  -8448226.34147
  21375251.67247        47.400          31.900  
  22726600.055 6     -3652.152 6     -2845.83147   7797233.915 6   6061239.89447
  22726595.83647        43.900          29.400  
  21022576.297 7      1191.949 7       928.79148  -8240437.357 7  -6401963.97648
  21022571.09448        50.000          36.600  
  23618665.531 6     -3453.286 6     -2690.87247   9110246.013 6   7076938.13847
  23618660.60947        42.600          27.400  
  24653248.945 5     -2366.034 5     -1843.66246   2825996.943 5   2201602.95346
  24653243.74246        41.300          22.000  
  22916409.711 6      2963.798 6      2309.45147 -11612292.960 6  -9025873.20547
  22916404.39147        43.500          26.400  
 08  1 16 17 19 30.0000000  0  9G01G02G04G05G09G12G17G20G30    0.000028557
  25283240.859 4     -1004.815 4      -782.97245  -1306526.550 4  -1012505.78145
  25283236.06645        38.700          17.400  
  20805417.477 7      1546.506 7      1205.06848  -9962227.808 7  -7720594.44648
  20805410.91848        48.800          39.000  
  20678744.711 7     -1395.470 7     -1087.37948   -956116.633 7   -734270.27148
  20678740.34848        49.100          38.400  
  21369378.898 6      2059.105 6      1604.49847 -10917615.778 6  -8472293.80847
  21369374.24647        46.400          31.200  
  22737041.445 6     -3657.952 6     -2850.35247   7852103.191 6   6103995.16647
  22737037.16447        44.200          29.800  
  21019195.500 7      1184.521 7       923.00448  -8258205.180 7  -6415809.03148
  21019189.91848        49.900          36.800  
  23628528.398 6     -3455.329 6     -2692.46347   9162075.946 6   7117325.08347
  23628523.92247        42.500          28.300  
  24660025.367 5     -2374.281 5     -1850.09246   2861611.151 5   2229354.33346
  24660021.02746        39.700          21.300  
  22907961.375 6      2959.576 6      2306.16447 -11656686.597 6  -9060465.66847
  22907956.87947        44.000          26.700  
 08  1 16 17 19 45.0000000  0  9G01G02G04G05G09G12G17G20G30    0.000031832
  25286134.094 5     -1013.637 5      -789.84445  -1291321.988 5  -1000658.11445
  25286129.85945        39.200          16.300  
  20801027.117 7      1538.250 7      1198.63748  -9985301.563 7  -7738573.99648
  20801020.25448        49.500          39.600  
  20682755.445 7     -1404.998 7     -1094.80448   -935041.656 7   -717848.20748
  20682750.72348        48.800          38.700  
  21363521.039 6      2052.303 6      1599.19747 -10948400.330 6  -8496281.76847
  21363516.25047        47.400          32.500  
  22747498.773 6     -3663.595 6     -2854.74847   7907057.116 6   6146816.39247
  22747494.70347        44.500          29.700  
  21015835.180 7      1177.204 7       917.30248  -8275863.247 7  -6429568.56248
  21015829.64848        50.400          36.800  
  23638395.867 5     -3457.239 5     -2693.95147   9213934.524 5   7157734.34747
  23638392.04347        42.100          28.100  
  24666826.086 5     -2382.363 5     -1856.38546   2897346.601 5   2257200.10446
  24666821.13346        39.700          19.600  
  22899525.281 6      2955.461 6      2302.95846 -11701018.520 6  -9095010.03346
  22899520.48846        44.500          26.200  
 08  1 16 17 20  0.0000000  0  9G01G02G04G05G09G12G17G20G30    0.000035107
  25289050.266 3     -1022.305 3      -796.60445  -1275987.420 3   -988709.05645
  25289047.94145        37.000          17.400  
  20796659.258 7      1530.143 7      1192.31948 -10008253.710 7  -7756458.77448
  20796652.80548        48.800          39.200  
  20686792.570 7     -1414.377 7     -1102.11148   -913826.006 7   -701316.53848
  20686787.60548        49.400          38.800  
  21357681.922 6      2045.627 6      1593.99547 -10979084.739 6  -8520191.69847
  21357677.11347        45.800          31.900  
  22757971.547 6     -3669.057 6     -2859.00547   7962092.972 6   6189701.46047
  22757967.73047        44.200          29.300  
  21012495.734 7      1170.021 7       911.70448  -8293413.556 7  -6443244.12348
  21012489.50048        49.100          37.100  
  23648269.211 6     -3458.994 6     -2695.31947   9265819.429 6   7198164.12547
  23648265.60547        43.000          27.300  
  24673648.023 4     -2390.298 4     -1862.57246   2933201.065 4   2285138.67646
  24673643.65246        38.800          19.300  
  22891100.414 6      2951.474 6      2299.85047 -11745290.637 6  -9129507.77647
  22891095.58247        43.600          27.000  
 08  1 16 17 20 15.0000000  0  9G01G02G04G05G09G12G17G20G30    0.000038385
  25291995.805 4     -1031.427 4      -803.70845  -1260516.021 4   -976653.44045
  25291992.06645        38.900          18.300  
  20792316.023 7      1521.546 7      1185.62048 -10031076.902 7  -7774243.08148
  20792309.59848        49.200          39.400  
  20690857.641 7     -1424.200 7     -1109.76648   -892463.006 7   -684670.04948
  20690852.88348        48.900          38.700  
  21351863.469 6      2038.460 6      1588.41147 -11009661.638 6  -8544017.85547
  21351858.40647        47.200          31.900  
  22768461.477 6     -3674.964 6     -2863.60747   8017217.428 6   6232655.56647
  22768457.55547        44.600          29.300  
  21009177.305 7      1162.355 7       905.73148  -8310848.882 7  -6456830.09248
  21009171.88348        49.800          36.700  
  23658148.750 6     -3461.210 6     -2697.04647   9317737.580 6   7238619.81047
  23658145.16447        43.200          27.400  
  24680494.563 4     -2398.682 4     -1869.09945   2969181.296 4   2313175.16345
  24680490.13345        38.900          17.800  
  22882688.461 6      2947.002 6      2296.36547 -11789495.669 6  -9163953.24547
  22882683.93047        44.200          26.300  
 08  1 16 17 20 30.0000000  0  9G01G02G04G05G09G12G17G20G30    0.000041664
  25294965.305 4     -1040.089 4      -810.45746  -1244914.685 4   -964496.57846
  25294960.50446        38.900          19.000  
  20787996.445 7      1513.402 7      1179.27448 -10053777.935 7  -7791932.18648
  20787989.90248        49.200          39.600  
  20694950.055 7     -1433.556 7     -1117.05748   -870959.659 7   -667914.20048
  20694945.03948        49.400          38.600  
  21346063.859 6      2031.741 6      1583.17447 -11040137.749 6  -8567765.46747
  21346059.06347        47.300          31.700  
  22778967.375 6     -3680.397 6     -2867.84147   8072423.383 6   6275673.18147
  22778963.09447        45.100          29.300  
  21005880.547 7      1155.138 7       900.10848  -8328175.956 7  -6470331.71248
  21005875.04748        50.300          37.000  
  23668033.516 6     -3462.958 6     -2698.40747   9369681.955 6   7279095.92347
  23668029.85547        43.500          27.600  
  24687363.914 4     -2406.591 4     -1875.26646   3005280.154 4   2341304.15946
  24687360.07446        38.800          19.900  
  22874288.453 6      2942.960 6      2293.21547 -11833640.065 6  -9198351.46647
  22874283.08247        44.600          27.100  
 08  1 16 17 20 45.0000000  0  9G01G02G04G05G09G12G17G20G30    0.000044941
  25297958.727 4     -1048.623 4      -817.11045  -1229185.334 4   -952239.92545
  25297953.85245        38.700          17.800  
  20783699.477 7      1505.359 7      1173.00648 -10076358.313 7  -7809527.27748
  20783692.98448        48.600          39.800  
  20699067.906 7     -1442.790 7     -1124.25248   -849317.806 7   -651050.41548
  20699063.43448        48.900          38.400  
  21340283.438 6      2025.107 6      1578.00547 -11070514.353 6  -8591435.54947
  21340278.51647        47.500          32.000  
  22789487.813 6     -3685.670 6     -2871.94947   8127708.436 6   6318752.42447
  22789482.99647        44.500          29.500  
  21002603.500 7      1148.002 7       894.54748  -8345395.989 7  -6483749.91648
  21002598.23448        50.000          36.800  
  23677923.195 6     -3464.590 6     -2699.68047   9421650.808 6   7319591.11747
  23677919.18447        42.600          27.300  
  24694255.531 4     -2414.378 4     -1881.33346   3041495.824 4   2369524.15746
  24694251.05146        37.700          19.300  
  22865899.336 6      2939.010 6      2290.13947 -11877725.208 6  -9232703.54747
  22865894.48847        44.600          26.500  
 08  1 16 17 21  0.0000000  0  9G01G02G04G05G09G12G17G20G30    0.000048218
  25300975.711 4     -1057.178 4      -823.77445  -1213327.658 4   -939883.31245
  25300971.83245        38.400          18.300  
  20779425.539 7      1497.274 7      1166.70648 -10098817.424 7  -7827027.87448
  20779418.91448        48.400          39.500  
  20703213.438 7     -1452.037 7     -1131.45748   -827537.253 7   -634078.55948
  20703208.61348        48.400          38.600  
  21334522.180 6      2018.428 6      1572.80047 -11100790.767 6  -8615027.55647
  21334517.08647        47.300          32.000  
  22800023.133 6     -3690.942 6     -2876.05847   8183072.565 6   6361893.30147
  22800018.77747        45.300          29.600  
  20999347.055 7      1140.844 7       888.96948  -8362508.643 7  -6497084.44948
  20999341.97748        50.800          37.000  
  23687817.313 6     -3466.238 6     -2700.96447   9473644.382 6   7360105.58347
  23687812.36347        43.600          27.400  
  24701169.617 4     -2422.157 4     -1887.39446   3077828.176 4   2397835.07246
  24701165.65646        37.800          19.600  
  22857521.336 6      2935.021 6      2287.02847 -11921750.516 6  -9267008.95947
  22857516.50847        44.400          27.000  
 08  1 16 17 21 15.0000000  0  9G01G02G04G05G09G12G17G20G30    0.000051495
  25304018.375 4     -1065.918 4      -830.58645  -1197338.888 4   -927424.52545
  25304014.52045        37.500          18.300  
  20775175.461 7      1488.992 7      1160.25348 -10121152.305 7  -7844431.67248
  20775168.80948        48.900          40.000  
  20707384.352 7     -1461.460 7     -1138.80048   -805615.348 7   -616996.56148
  20707379.97348        49.200          38.800  
  21328780.633 6      2011.543 6      1567.43647 -11130963.909 6  -8638539.09747
  21328775.10547        46.800          32.300  
  22810574.266 6     -3696.379 6     -2880.29447   8238518.253 6   6405097.71947
  22810569.57447        45.400          29.400  
  20996111.820 7      1133.477 7       883.22848  -8379510.791 7  -6510332.87648
  20996105.98048        50.700          37.200  
  23697717.227 6     -3468.064 6     -2702.38647   9525665.341 6   7400641.37947
  23697712.52747        43.700          28.200  
  24708105.953 4     -2430.098 4     -1893.58046   3114279.645 4   2426238.77546
  24708101.78146        38.600          19.900  
  22849155.672 6      2930.810 6      2283.74847 -11965712.662 6  -9301265.18147
  22849150.87547        43.200          27.900  
 08  1 16 17 21 30.0000000  0  9G01G02G04G05G09G12G17G20G30    0.000054770
  25307084.719 4     -1074.546 4      -837.30745  -1181220.691 4   -914864.91945
  25307081.77345        37.800          17.400  
  20770949.031 7      1480.800 7      1153.87048 -10143364.311 7  -7861739.72348
  20770942.16048        49.000          40.000  
  20711582.727 7     -1470.771 7     -1146.05548   -783553.781 7   -599805.74048
  20711577.88748        49.400          39.200  
  21323057.945 6      2004.739 6      1562.13447 -11161034.992 6  -8661971.10247
  21323053.09847        47.300          33.100  
  22821140.422 6     -3701.688 6     -2884.43147   8294043.581 6   6448364.18347
  22821136.14847        46.300          29.200  
  20992896.984 7      1126.197 7       877.55648  -8396403.750 7  -6523496.21848
  20992891.41048        50.000          37.000  
  23707621.086 6     -3469.782 6     -2703.72647   9577712.079 6   7441197.26647
  23707616.66047        43.200          27.800  
  24715065.641 4     -2437.943 4     -1899.69445   3150848.788 4   2454734.18745
  24715060.44945        38.000          18.300  
  22840801.586 6      2926.698 6      2280.54347 -12009613.131 6  -9335473.32147
  22840796.79347        45.200          27.400  
 08  1 16 17 21 45.0000000  0  9G01G02G04G05G09G12G17G20G30    0.000058048
  25310177.031 4     -1083.278 4      -844.11245  -1164971.516 4   -902203.23145
  25310173.69145        38.500          16.300  
  20766745.422 7      1472.487 7      1147.39148 -10165451.608 7  -7878950.59648
  20766738.85948        47.800          39.300  
  20715808.008 7     -1480.175 7     -1153.38348   -761351.153 7   -582504.99348
  20715803.53548        49.000          38.500  
  21317355.734 6      1997.799 6      1556.72647 -11191001.977 6  -8685321.99247
  21317350.71147        46.000          32.000  
  22831721.555 6     -3707.091 6     -2888.64347   8349649.949 6   6491693.82147
  22831717.12147        45.600          29.900  
  20989703.438 7      1118.783 7       871.77948  -8413185.494 7  -6536572.90148
  20989697.84048        50.300          37.000  
  23717530.461 6     -3471.619 6     -2705.15847   9629786.368 6   7481774.63347
  23717526.13347        43.400          29.300  
  24722047.672 3     -2445.877 3     -1905.87345   3187536.951 3   2483322.27945
  24722042.12145        37.100          17.400  
  22832459.398 6      2922.441 6      2277.22747 -12053449.751 6  -9369631.72547
  22832455.24247        43.500          27.900  
 08  1 16 17 22  0.0000000  0  9G01G02G04G05G09G12G17G20G30    0.000061323
  25313293.750 4     -1091.812 4      -850.76345  -1148594.330 4   -889441.79245
  25313289.34045        38.600          16.900  
  20762565.734 7      1464.346 7      1141.04848 -10187416.798 7  -7896066.31648
  20762558.97748        48.600          39.600  
  20720059.039 7     -1489.378 7     -1160.55448   -739010.481 7   -565096.68348
  20720054.50048        48.900          38.600  
  21311672.023 6      1991.033 6      1551.45447 -11220867.470 6  -8708593.81047
  21311667.39847        46.900          31.600  
  22842318.242 6     -3712.267 6     -2892.67547   8405333.957 6   6535083.93947
  22842313.44947        45.600          29.700  
  20986530.906 7      1111.545 7       866.13948  -8429858.669 7  -6549564.99148
  20986524.80948        49.800          36.700  
  23727444.266 6     -3473.246 6     -2706.42547   9681885.063 6   7522371.01047
  23727440.14147        43.900          29.800  
  24729049.766 3     -2453.615 3     -1911.91245   3224341.175 3   2512000.96245
  24729044.78945        37.200          17.400  
  22824129.789 6      2918.359 6      2274.04547 -12097225.132 6  -9403742.39447
  22824124.82047        44.600          27.500  
 08  1 16 17 22 15.0000000  0  9G01G02G04G05G09G12G17G20G30    0.000064600
  25316435.031 5     -1100.554 5      -857.57145  -1132086.025 5   -876578.22145
  25316430.78145        39.700          16.300  
  20758409.891 7      1455.990 7      1134.53748 -10209256.646 7  -7913084.37648
  20758403.07448        48.300          40.200  
  20724337.188 7     -1498.783 7     -1167.88248   -716528.732 7   -547578.44648
  20724332.28548        49.100          38.300  
  21306009.039 6      1984.038 6      1546.00447 -11250628.041 6  -8731783.86447
  21306004.11347        46.000          31.700  
  22852929.766 6     -3717.621 6     -2896.84647   8461098.265 6   6578536.63047
  22852925.30547        45.500          30.000  
  20983379.438 7      1104.087 7       860.32748  -8446419.980 7  -6562469.90248
  20983373.68048        49.500          36.800  
  23737364.203 6     -3475.086 6     -2707.85847   9734011.347 6   7562988.87447
  23737359.52047        44.200          29.400  
  24736075.797 4     -2461.537 4     -1918.08045   3261264.235 4   2540772.15545
  24736071.71945        37.600          18.600  
  22815811.500 6      2914.043 6      2270.68447 -12140935.775 6  -9437802.65547
  22815806.80547        45.300          28.100  
 08  1 16 17 22 30.0000000  0  9G01G02G04G05G09G12G17G20G30    0.000067877
  25319600.367 4     -1109.112 4      -864.24545  -1115449.342 4   -863614.55145
  25319596.74645        38.700          17.800  
  20754277.344 7      1447.777 7      1128.13848 -10230973.308 7  -7930006.44148
  20754270.33648        49.100          40.100  
  20728641.930 7     -1508.010 7     -1175.07348   -693908.582 7   -529952.35548
  20728636.94948        49.900          38.300  
  21300365.438 6      1977.186 6      1540.66447 -11280285.836 6  -8754893.82647
  21300360.23847        46.300          32.600  
  22863556.430 6     -3722.791 6     -2900.87547   8516940.128 6   6622049.76247
  22863551.49247        45.300          29.300  
  20980248.789 7      1096.781 7       854.63648  -8462871.701 7  -6575289.43648
  20980242.82848        50.300          36.600  
  23747288.000 6     -3476.737 6     -2709.14647   9786162.399 6   7603626.06247
  23747283.23047        43.500          29.500  
  24743125.125 4     -2469.280 4     -1924.11146   3298303.430 4   2569633.82346
  24743120.52746        38.400          19.000  
  22807505.852 6      2909.869 6      2267.43047 -12184583.815 6  -9471814.10947
  22807501.14847        44.200          27.000  
 08  1 16 17 22 45.0000000  0  9G01G02G04G05G09G12G17G20G30    0.000071154
  25322792.508 5     -1117.830 5      -871.03645  -1098681.888 5   -850549.00445
  25322788.18045        39.400          18.300  
  20750168.836 7      1439.390 7      1121.60248 -10252564.150 7  -7946830.46548
  20750161.78948        48.900          40.400  
  20732972.664 7     -1517.381 7     -1182.37548   -671147.861 7   -512216.73448
  20732968.04748        49.600          38.600  
  21294741.938 6      1970.150 6      1535.18247 -11309838.083 6  -8777921.54947
  21294737.04747        47.000          32.400  
  22874197.453 6     -3728.098 6     -2905.01147   8572861.593 6   6665624.92647
  22874193.27747        45.500          29.900  
  20977139.531 7      1089.289 7       848.79648  -8479211.037 7  -6588021.38248
  20977133.78548        49.800          36.800  
  23757217.055 6     -3478.551 6     -2710.55947   9838340.670 6   7644284.44647
  23757212.84047        43.700          28.700  
  24750196.219 4     -2477.170 4     -1930.26146   3335460.979 4   2598587.74646
  24750190.72346        38.900          20.400  
  22799212.797 6      2905.507 6      2264.03147 -12228166.423 6  -9505774.57247
  22799206.93447        44.000          28.100  
 08  1 16 17 23  0.0000000  0  9G01G02G04G05G09G12G17G20G30    0.000074432
  25326007.820 5     -1126.602 5      -877.87245  -1081782.851 5   -837380.91645
  25326004.23845        39.600          17.800  
  20746084.242 7      1430.937 7      1115.01648 -10274028.206 7  -7963555.70148
  20746077.64148        49.100          40.600  
  20737330.766 7     -1526.812 7     -1189.72348   -648245.684 7   -494370.88948
  20737326.37148        48.800          38.900  
  21289138.008 6      1963.036 6      1529.63847 -11339283.615 6  -8800866.12147
  21289133.46947        47.300          32.700  
  22884854.367 6     -3733.440 6     -2909.17347   8628863.193 6   6709262.51847
  22884849.66447        45.900          31.200  
  20974051.641 7      1081.723 7       842.90148  -8495436.886 7  -6600664.90348
  20974046.14548        49.800          36.700  
  23767151.789 6     -3480.422 6     -2712.01647   9890547.002 6   7684964.69047
  23767147.29747        42.600          29.900  
  24757289.227 3     -2485.104 3     -1936.44746   3372737.546 3   2627634.44946
  24757284.90646        36.600          21.100  
  22790931.344 6      2901.054 6      2260.56247 -12271682.228 6  -9539682.99847
  22790926.37147        44.200          27.600  
 08  1 16 17 23 15.0000000  0  9G01G02G04G05G09G12G17G20G30    0.000077711
  25329248.258 4     -1135.148 4      -884.53645  -1064755.638 4   -824112.88245
  25329244.19145        38.300          17.800  
  20742023.813 7      1422.692 7      1108.59148 -10295368.590 7  -7980184.57148
  20742016.66048        49.700          40.600  
  20741715.336 7     -1536.005 7     -1196.88748   -625205.604 7   -476417.58348
  20741710.78148        49.100          38.500  
  21283554.336 6      1956.111 6      1524.24247 -11368625.287 6  -8823729.75147
  21283549.78947        46.700          32.100  
  22895525.703 6     -3738.539 6     -2913.14647   8684941.274 6   6752959.71347
  22895521.10547        45.300          30.500  
  20970985.125 7      1074.353 7       837.15948  -8511552.184 7  -6613222.28148
  20970979.31648        50.000          36.500  
  23777090.742 5     -3482.077 5     -2713.30647   9942778.152 5   7725664.27947
  23777086.06647        42.300          29.000  
  24764405.234 4     -2492.808 4     -1942.44646   3410129.669 4   2656771.14346
  24764400.32446        38.800          20.400  
  22782663.164 6      2896.808 6      2257.25247 -12315134.343 6  -9573541.78047
  22782658.28947        45.600          27.900  
 08  1 16 17 23 30.0000000  0  9G01G02G04G05G09G12G17G20G30    0.000080988
  25332513.047 5     -1143.673 5      -891.17045  -1047600.549 5   -810745.33145
  25332508.55545        39.200          17.400  
  20737986.164 7      1414.450 7      1102.16848 -10316585.339 7  -7996717.09848
  20737978.76248        50.000          40.400  
  20746125.961 7     -1545.181 7     -1204.03748   -602027.890 7   -458357.03448
  20746120.60548        49.400          38.100  
  21277991.109 6      1949.187 6      1518.84747 -11397863.089 6  -8846512.45247
  21277986.27047        46.400          32.500  
  22906210.930 6     -3743.587 6     -2917.08047   8741095.080 6   6796715.91447
  22906206.73047        45.200          30.100  
  20967939.203 7      1066.994 7       831.42448  -8527557.092 7  -6625693.63548
  20967933.80948        49.700          36.600  
  23787034.594 6     -3483.703 6     -2714.57347   9995033.692 6   7766382.87947
  23787030.28147        42.500          28.800  
  24771543.211 5     -2500.480 5     -1948.42746   3447636.874 5   2685997.54446
  24771538.11346        39.900          22.300  
  22774406.617 6      2892.554 6      2253.93947 -12358522.660 6  -9607350.85947
  22774401.44147        45.000          26.900  
 08  1 16 17 23 45.0000000  0  9G01G02G04G05G09G12G17G20G30    0.000084265
  25335801.656 5     -1152.175 5      -897.79945  -1030317.917 5   -797278.35345
  25335796.98445        40.200          16.900  
  20733972.328 7      1406.208 7      1095.74648 -10337678.467 7  -8013153.28848
  20733965.20348        50.100          40.600  
  20750562.586 7     -1554.323 7     -1211.16048   -578713.047 7   -440189.63048
  20750557.73448        49.400          38.100  
  21272446.984 6      1942.254 6      1513.44547 -11426996.904 6  -8869214.12947
  21272442.16847        47.300          31.900  
  22916911.297 6     -3748.602 6     -2920.98847   8797324.109 6   6840530.73747
  22916906.72747        45.100          30.100  
  20964914.961 7      1059.629 7       825.68548  -8543451.524 7  -6638078.91248
  20964909.33248        50.800          36.700  
  23796983.484 5     -3485.313 5     -2715.82647  10047313.379 5   7807120.27647
  23796978.82047        42.000          29.300  
  24778702.688 5     -2508.116 5     -1954.37546   3485258.610 5   2715313.16546
  24778696.86346        40.400          24.900  
  22766162.086 6      2888.282 6      2250.61047 -12401846.889 6  -9641110.00847
  22766157.02047        45.400          27.500  
 08  1 16 17 24  0.0000000  0  9G01G02G04G05G09G12G17G20G30    0.000087540
  25339113.617 5     -1160.589 5      -904.35645  -1012909.087 5   -783713.01545
  25339109.61745        40.400          16.900  
  20729981.609 7      1398.038 7      1089.38048 -10358649.033 7  -8029493.99248
  20729974.46148        50.000          40.600  
  20755025.211 7     -1563.375 7     -1218.21448   -555262.419 7   -421916.41948
  20755020.11748        49.600          38.200  
  21266922.828 6      1935.382 6      1508.09047 -11456027.632 6  -8891835.47347
  21266917.55547        46.800          32.100  
  22927625.258 6     -3753.506 6     -2924.80947   8853626.698 6   6884402.87447
  22927621.01647        45.300          29.300  
  20961911.227 7      1052.318 7       819.98848  -8559236.299 7  -6650378.73748
  20961905.50848        50.100          37.000  
  23806935.891 5     -3486.839 5     -2717.01747  10099615.970 5   7847875.52947
  23806931.95747        42.200          29.300  
  24785882.477 4     -2515.659 4     -1960.25446   3522993.494 4   2744716.96946
  24785877.73046        39.100          23.800  
  22757930.289 6      2884.077 6      2247.33347 -12445108.050 6  -9674819.99647
  22757924.91047        44.200          27.300  
 08  1 16 17 24 15.0000000  0 10G01G02G04G05G09G12G17G20G29G30    0.000090818
  25342451.711 5                                   -995369.656 5   -770045.93645
  25342447.59845        39.900          18.300  
  20726015.250 7                                 -10379492.128 7  -8045735.36448
  20726008.49248        49.800          41.200  
  20759514.469 7                                   -531671.667 7   -403534.02148
  20759509.55148        49.100          38.600  
  21261419.211 6                                 -11484950.366 6  -8914372.66447
  21261413.92247        47.100          32.600  
  22938354.055 6     -3758.690 6     -2928.84847   8910007.043 6   6928335.59247
  22938349.05947        45.200          28.700  
  20958929.352 7                                  -8574906.721 7  -6662589.45448
  20958923.35248        49.700          36.800  
  23816893.945 5                                  10151946.000 5   7888652.14747
  23816890.00447        41.900          28.300  
  24793086.141 4                                   3560845.874 4   2774212.29246
  24793080.99646        38.500          24.600  
  25358214.563 5                                  -1678741.81115  -1288690.94156
  25358209.80146        41.300          23.000  
  22749710.516 6                                 -12488301.011 6  -9708476.83047
  22749705.93847        44.500          27.400  
 08  1 16 17 24 30.0000000  0 10G01G02G04G05G09G12G17G20G29G30    0.000094099
  25345814.273 5     -1178.154 5      -918.04445   -977697.343 5   -756275.27345
  25345810.33645        40.400          17.800  
  20722073.922 7      1380.880 7      1076.00948 -10400205.321 7  -8061875.50648
  20722066.78548        49.700          40.600  
  20764030.180 7     -1582.202 7     -1232.88448   -507938.639 7   -385040.76648
  20764025.53548        49.100          38.600  
  21255936.070 7      1920.809 7      1496.73447 -11513762.502 7  -8936823.67447
  21255931.08247        47.700          32.800  
  22949098.266 6     -3764.003 6     -2932.98847   8966467.092 6   6972330.41547
  22949094.02047        45.400          28.400  
  20955969.461 7      1036.905 7       807.97848  -8590460.289 7  -6674709.11848
  20955963.58648        50.100          36.400  
  23826857.328 5     -3490.637 5     -2719.97747  10204305.561 5   7929451.79747
  23826853.27747        41.600          28.200  
  24800310.930 5     -2531.464 5     -1972.57046   3598817.840 5   2803800.83546
  24800306.93846        39.300          23.000  
  25349945.406 3      2896.12713      2256.71956  -1722183.718 3  -1322541.72946
  25349943.83646        37.300          20.600  
  22741504.477 6      2874.827 6      2240.12547 -12531423.419 6  -9742078.70947
  22741499.42647        44.200          27.500  
 08  1 16 17 24 45.0000000  0 10G01G02G04G05G09G12G17G20G29G30    0.000097378
  25349201.852 5     -1186.710 5      -924.71145   -959896.686 5   -742404.60745
  25349197.87145        40.100          17.800  
  20718156.383 7      1372.503 7      1069.48348 -10420792.860 7  -8077917.74648
  20718149.67648        50.200          40.800  
  20768573.047 7     -1591.385 7     -1240.04048   -484067.864 7   -366440.16148
  20768567.91848        49.900          37.700  
  21250473.508 6      1913.706 6      1491.20047 -11542468.093 6  -8959191.67447
  21250468.08647        46.500          31.800  
  22959856.195 6     -3769.002 6     -2936.88447   9023002.128 6   7016383.67147
  22959852.05147        45.100          28.700  
  20953031.406 7      1029.378 7       802.11348  -8605900.965 7  -6686740.81348
  20953025.60548        49.600          36.600  
  23836825.648 5     -3492.307 5     -2721.27747  10256690.167 5   7970270.95747
  23836822.02347        40.800          26.900  
  24807558.125 5     -2539.135 5     -1978.54646   3636904.873 5   2833479.02146
  24807555.13346        39.500          21.800  
  25341682.875 5      2895.492 5      2256.23046  -1765616.105 5  -1356385.18646
  25341678.30146        40.200          19.900  
  22733311.164 6      2870.394 6      2236.67147 -12574479.321 6  -9775628.77847
  22733306.53947        43.700          28.700  
 08  1 16 17 25  0.0000000  0 10G01G02G04G05G09G12G17G20G29G30    0.000100657
  25352612.461 4     -1195.113 4      -931.25645   -941969.994 4   -728435.77245
  25352609.30545        38.600          16.900  
  20714262.070 7      1364.260 7      1063.05948 -10441256.757 7  -8093863.62948
  20714255.16448        50.200          40.700  
  20773141.203 7     -1600.401 7     -1247.06548   -460061.855 7   -347734.18548
  20773136.25448        49.600          37.600  
  21245031.047 7      1906.727 7      1485.76147 -11571068.999 7  -8981478.09347
  21245025.89547        47.800          31.500  
  22970629.008 6     -3773.828 6     -2940.64547   9079609.550 6   7060493.34547
  22970623.79747        44.800          27.900  
  20950113.867 7      1021.985 7       796.35248  -8621230.739 7  -6698686.08848
  20950108.02348        50.300          36.900  
  23846798.867 5     -3493.833 5     -2722.46647  10309097.661 5   8011107.93947
  23846795.02747        42.400          26.500  
  24814828.766 4     -2546.635 4     -1984.39046   3675104.392 4   2863244.87146
  24814823.28546        39.000          22.200  
  25333419.422 5      2895.010 5      2255.85546  -1809041.257 5  -1390223.01646
  25333415.32446        40.800          22.000  
  22725130.195 6      2866.079 6      2233.30747 -12617470.505 6  -9809128.38047
  22725126.10247        44.700          28.700  
 08  1 16 17 25 15.0000000  0 10G01G02G04G05G09G12G17G20G29G30    0.000103935
  25356049.031 5     -1203.758 5      -937.99845   -923913.630 5   -714365.80945
  25356045.31645        39.300          18.600  
  20710392.227 7      1355.756 7      1056.43348 -10461593.092 7  -8109710.12848
  20710385.18048        50.000          40.900  
  20777736.047 7     -1609.668 7     -1254.28548   -435916.841 7   -328919.90648
  20777730.99648        49.300          38.000  
  21239609.266 6      1899.479 6      1480.11347 -11599561.184 6  -9003679.79047
  21239603.82447        47.500          32.800  
  22981415.039 6     -3778.878 6     -2944.57947   9136292.721 6   7104662.02647
  22981410.79347        45.400          29.500  
  20947218.641 7      1014.323 7       790.38248  -8636445.589 7  -6710541.81448
  20947212.98448        49.500          36.600  
  23856777.328 6     -3495.593 6     -2723.83747  10361531.560 6   8051965.50047
  23856772.15247        42.600          26.900  
  24822118.953 3     -2554.362 3     -1990.40846   3713419.821 3   2893100.99346
  24822114.46546        36.000          20.900  
  25325156.867 5      2894.260 5      2255.26146  -1852455.160 5  -1424051.93646
  25325154.25846        40.500          21.700  
  22716962.383 6      2861.489 6      2229.73147 -12660392.836 6  -9842574.35247
  22716957.94547        45.200          29.300  
 08  1 16 17 25 30.0000000  0 10G01G02G04G05G09G12G17G20G29G30    0.000107216
  25359509.281 4     -1212.297 4      -944.64445   -905729.169 4   -700196.14845
  25359505.52045        38.200          17.400  
  20706545.859 7      1347.335 7      1049.87048 -10481803.110 7  -8125458.18248
  20706539.19148        50.200          40.600  
  20782356.359 7     -1618.810 7     -1261.41048   -411634.690 7   -309998.75748
  20782351.48848        50.400          38.200  
  21234207.602 7      1892.314 7      1474.53147 -11627945.900 7  -9025797.75047
  21234202.38747        47.800          32.600  
  22992215.242 6     -3783.795 6     -2948.41147   9193049.649 6   7148888.19447
  22992211.37147        44.400          30.100  
  20944345.094 7      1006.757 7       784.48648  -8651546.943 7  -6722309.11048
  20944339.49248        50.200          36.500  
  23866759.398 5     -3497.245 5     -2725.12547  10413990.231 5   8092842.37947
  23866754.93447        42.400          26.500  
  24829431.305 2     -2561.979 2     -1996.34246   3751849.509 2   2923046.12146
  24829428.00046        34.600          19.600  
  25316897.047 5      2893.601 5      2254.75646  -1895859.172 5  -1457873.28246
  25316895.40646        39.400          22.800  
  22708807.063 6      2856.973 6      2226.21347 -12703247.430 6  -9875967.55447
  22708802.84047        44.900          28.100  
 08  1 16 17 25 45.0000000  0 10G01G02G04G05G09G12G17G20G29G30    0.000110495
  25362994.539 4     -1220.663 4      -951.16745   -887419.221 4   -685928.64345
  25362990.14145        38.900          18.600  
  20702723.852 7      1339.067 7      1043.42948 -10501889.120 7  -8141109.62448
  20702716.96948        50.100          40.300  
  20787003.023 7     -1627.793 7     -1268.41048   -387217.789 7   -290972.60648
  20786998.00848        49.900          38.000  
  21228826.484 6      1885.281 6      1469.05147 -11656225.119 6  -9047833.50847
  21228821.23447        47.400          32.800  
  23003029.711 6     -3788.527 6     -2952.09847   9249877.554 6   7193169.66647
  23003024.98447        45.000          29.400  
  20941492.734 7       999.338 7       778.70548  -8666537.016 7  -6733989.68848
  20941487.07448        50.200          36.700  
  23876746.250 6     -3498.737 6     -2726.28747  10466471.292 6   8133736.67847
  23876741.79347        43.000          26.400  
  24836765.117 1     -2569.438 1     -2002.15645   3790391.073 1   2953078.46845
  24836762.69145        30.700          16.900  
  25308639.719 5      2893.090 5      2254.35446  -1939255.521 5  -1491688.59146
  25308636.13746        40.200          22.300  
  22700664.758 6      2852.584 6      2222.79247 -12746036.196 6  -9909309.44147
  22700660.64847        44.400          29.500  
 08  1 16 17 26  0.0000000  0 10G01G02G04G05G09G12G17G20G29G30    0.000113773
  25366502.172 5     -1229.228 5      -957.84145   -868980.804 5   -671561.03345
  25366498.21545        40.400          17.800  
  20698926.125 7      1330.577 7      1036.81248 -10521847.771 7  -8156661.81148
  20698919.12948        50.000          40.200  
  20791675.164 7     -1636.957 7     -1275.55048   -362663.440 7   -271839.35448
  20791670.59848        50.700          38.300  
  21223465.773 6      1878.028 6      1463.39947 -11684395.536 6  -9069784.48547
  21223460.62147        47.000          32.200  
  23013857.273 6     -3793.445 6     -2955.93047   9306779.229 6   7237508.61047
  23013853.23047        44.600          28.500  
  20938661.758 7       991.692 7       772.74748  -8681412.395 7  -6745580.89048
  20938656.39548        49.600          36.700  
  23886737.867 6     -3500.435 6     -2727.61147  10518977.819 6   8174650.84847
  23886733.33647        42.600          26.400  
  24844121.359 1     -2577.071 1     -2008.10145   3829047.135 1   2983199.98445
  24844118.62145        33.600          14.800  
  25300384.109 4      2892.376 4      2253.80146  -1982641.160 4  -1525495.61146
  25300380.30146        38.500          22.900  
  22692535.227 6      2847.974 6      2219.20147 -12788755.811 6  -9942597.45847
  22692531.00447        44.700          28.500  
 08  1 16 17 26 15.0000000  0 10G01G02G04G05G09G12G17G20G29G30    0.000117054
  25370035.648 5     -1237.787 5      -964.51045   -850414.000 5   -657093.37945
  25370030.94545        39.200          16.900  
  20695151.883 7      1322.071 7      1030.18548 -10541678.837 7  -8172114.59048
  20695145.31648        49.900          40.800  
  20796374.234 7     -1646.124 7     -1282.69448   -337971.575 7   -252598.93948
  20796369.41048        50.000          37.900  
  21218125.570 7      1870.745 7      1457.72347 -11712456.706 7  -9091650.32647
  21218120.72747        47.600          32.300  
  23024699.414 6     -3798.339 6     -2959.74547   9363754.317 6   7281904.78047
  23024695.42247        44.500          30.000  
  20935852.883 7       984.023 7       766.77148  -8696172.735 7  -6757082.45348
  20935847.12548        49.500          36.400  
  23896734.570 6     -3502.132 6     -2728.93347  10571509.794 6   8215584.83947
  23896729.83247        43.200          27.200  
  24851500.727 2     -2584.690 2     -2014.03945   3867817.492 2   3013410.57345
  24851497.32045        34.900          14.800  
  25292131.219 5      2891.638 5      2253.22046  -2026015.738 5  -1559293.91746
  25292127.82846        39.900          25.000  
  22684419.703 6      2843.345 6      2215.59347 -12831405.988 6  -9975831.35247
  22684414.89147        44.900          28.300  
 08  1 16 17 26 30.0000000  0 10G01G02G04G05G09G12G17G20G29G30    0.000120335
  25373593.539 5     -1246.351 5      -971.18445   -831718.731 5   -642525.61645
  25373588.69545        39.800          18.600  
  20691402.734 7      1313.549 7      1023.54448 -10561382.073 7  -8187467.75648
  20691395.72348        49.900          40.600  
  20801098.969 7     -1655.286 7     -1289.83248   -313142.285 7   -233251.45348
  20801094.18848        50.000          37.800  
  21212807.039 6      1863.432 6      1452.02447 -11740408.179 6  -9113430.69247
  21212802.09847        46.400          33.000  
  23035555.367 6     -3803.221 6     -2963.54847   9420802.632 6   7326357.99547
  23035551.37147        44.700          29.100  
  20933066.234 6       976.327 6       760.77548  -8710817.637 6  -6768494.07248
  20933060.42648        47.500          36.900  
  23906735.781 6     -3503.832 6     -2730.25747  10624067.268 6   8256538.69047
  23906731.35547        43.500          26.400  
  24858899.750 3     -2592.305 3                   3906702.063 3
                        35.800  
  25283879.008 5      2890.895 5      2252.65046  -2069379.160 5  -1593083.66746
  25283875.23846        40.800          19.900  
  22676316.820 6      2838.676 6      2211.95647 -12873986.128 6 -10009010.68747
  22676312.13747        46.100          29.600  
 08  1 16 17 26 45.0000000  0 10G01G02G04G05G09G12G17G20G29G30    0.000123615
  25377174.727 5     -1254.734 5      -977.70945   -812897.725 5   -627859.98045
  25377169.58245        40.400          17.400  
  20687677.547 7      1305.189 7      1017.03048 -10580959.901 7  -8202723.20748
  20687670.26648        49.900          40.600  
  20805849.586 7     -1664.253 7     -1296.82048   -288178.489 7   -213799.15248
  20805844.75048        50.500          38.000  
  21207508.336 6      1856.271 6      1446.44547 -11768252.238 6  -9135127.36847
  21207503.37147        46.900          32.600  
  23046424.547 6     -3807.892 6     -2967.18747   9477921.012 6   7370865.79847
  23046420.58247        43.600          29.200  
  20930300.547 7       968.781 7       754.89548  -8725349.357 7  -6779817.49248
  20930294.82848        49.500          36.700  
  23916741.414 6     -3505.344 6     -2731.43747  10676647.433 6   8297510.24447
  23916737.02747        43.500          27.100  
  24866320.383 3     -2599.736 3                   3945698.100 3
                        36.900  
  25275628.633 5      2890.300 5      2252.17646  -2112733.659 5  -1626866.30446
  25275624.55946        40.300          22.300  
  22668227.195 6      2834.167 6      2208.44147 -12916498.626 6 -10042137.30447
  22668222.08247        44.800          28.600  
 08  1 16 17 27  0.0000000  0 10G01G02G04G05G09G12G17G20G29G30    0.000126898
  25380781.750 5     -1263.262 5      -984.36245   -793948.791 5   -613094.54345
  25380775.74645        40.200          16.900  
  20683975.898 7      1296.656 7      1010.38248 -10600409.743 7  -8217878.93348
  20683969.03148        49.800          40.600  
  20810626.500 7     -1673.378 7     -1303.93048   -263077.819 7   -194240.19748
  20810621.12548        49.400          37.800  
  21202230.750 6      1848.930 6      1440.72447 -11795986.192 6  -9156738.23347
  21202225.25847        46.600          33.000  
  23057307.594 6     -3812.704 6     -2970.93747   9535111.574 6   7415429.85247
  23057303.23047        43.300          28.900  
  20927557.523 7       961.067 7       748.88448  -8739765.362 7  -6791050.74548
  20927552.02348        48.300          36.700  
  23926751.664 6     -3507.007 6     -2732.73347  10729252.538 6   8338501.23347
  23926747.22747        43.800          27.400  
  24873763.977 4     -2607.293 4                   3984807.499 4
                        38.800  
  25267380.117 4      2889.544 4      2251.59246  -2156076.827 4  -1660640.18146
  25267376.41046        38.600          22.900  
  22660150.344 6      2829.473 6      2204.78447 -12958940.724 6 -10075209.06547
  22660146.08247        45.100          28.900  
 08  1 16 17 27 15.0000000  0 10G01G02G04G05G09G12G17G20G29G30    0.000130177
  25384411.070 5     -1271.574 5      -990.83545   -774875.176 5   -598232.02245
  25384405.35545        39.500          17.800  
  20680298.789 7      1288.326 7      1003.89048 -10619734.631 7  -8232937.28648
  20680291.39548        49.800          40.200  
  20815428.016 7     -1682.276 7     -1310.86448   -237843.688 7   -174577.23848
  20815422.40648        50.000          38.100  
  21196973.609 6      1841.785 6      1435.15747 -11823612.961 6  -9178265.58547
  21196968.43047        47.300          32.800  
  23068204.047 6     -3817.278 6     -2974.50247   9592370.746 6   7460047.38147
  23068199.53147        43.900          28.700  
  20924835.500 7       953.556 7       743.03048  -8754068.699 7  -6802196.20048
  20924830.29748        49.300          36.600  
  23936766.461 6     -3508.464 6     -2733.86747  10781879.503 6   8379509.24247
  23936762.35547        43.600          26.500  
  24881226.539 4     -2614.631 4                   4024026.964 4
                        38.800  
  25259133.125 4      2889.001 4      2251.16946  -2199411.838 4  -1694407.71246
  25259129.17646        39.000          20.100  
  22652086.953 6      2824.966 6      2201.27347 -13001315.220 6 -10108228.16047
  22652081.90247        45.500          29.800  
 08  1 16 17 27 30.0000000  0 10G01G02G04G05G09G12G17G20G29G30    0.000133457
  25388063.828 5     -1279.979 5      -997.38646   -755675.497 5   -583271.23746
  25388059.42646        39.400          19.600  
  20676645.508 7      1279.877 7       997.30748 -10638932.792 7  -8247896.89048
  20676638.49248        49.800          40.400  
  20820255.859 7     -1691.264 7     -1317.86848   -212474.729 7   -154809.22048
  20820250.65648        50.000          37.200  
  21191736.852 7      1834.512 7      1429.49047 -11851130.647 7  -9199707.94047
  21191731.66047        48.500          32.100  
  23079112.711 6     -3821.936 6     -2978.13047   9649699.789 6   7504719.33847
  23079108.34847        43.600          28.600  
  20922135.438 7       945.917 7       737.07848  -8768257.461 7  -6813252.37548
  20922129.99248        49.400          36.700  
  23946785.406 6     -3510.025 6     -2735.08347  10834529.871 6   8420535.49547
  23946781.40247        44.800          28.300  
  24888711.648 5     -2622.057 5                   4063357.821 5
                        41.800  
  25250889.500 4      2888.332 4      2250.65346  -2242736.816 4  -1728167.51346
  25250884.75046        38.300          21.300  
  22644036.977 6      2820.334 6      2197.66347 -13043620.231 6 -10141193.10447
  22644031.69547        45.200          29.300  
 08  1 16 17 27 45.0000000  0 10G01G02G04G05G09G12G17G20G29G30    0.000136740
  25391742.055 4     -1288.551 4     -1004.06745   -736347.239 4   -568210.23345
  25391737.80545        38.800          16.300  
  20673016.578 7      1271.245 7       990.58148 -10658001.470 7  -8262755.60448
  20673009.85548        48.600          40.200  
  20825109.422 7     -1700.404 7     -1324.98948   -186968.674 7   -134934.38248
  20825104.07848        50.700          37.800  
  21186522.195 7      1827.042 7      1423.66947 -11878536.270 7  -9221062.96947
  21186516.88747        48.100          31.900  
  23090035.852 6     -3826.732 6     -2981.86847   9707100.770 6   7549447.36447
  23090031.87547        43.800          28.700  
  20919457.813 7       938.087 7       730.97748  -8782328.772 7  -6824217.03448
  20919452.25848        49.800          37.000  
  23956810.016 6     -3511.766 6     -2736.43947  10887206.356 6   8461582.08347
  23956805.27347        44.600          28.900  
  24896217.383 5     -2629.646 5                   4102802.507 5   3028126.86756
  24896211.59046        42.300          21.100  
  25242647.391 3      2887.493 3      2249.98746  -2286049.216 3  -1761917.32046
  25242644.49646        37.100          22.500  
  22635999.906 6      2815.503 6      2193.89847 -13085852.771 6 -10174101.57647
  22635994.71547        44.400          28.900  
 08  1 16 17 28  0.0000000  0 10G01G02G04G05G09G12G17G20G29G30    0.000140020
  25395444.258 4     -1296.916 4     -1010.58445   -716893.501 4   -553051.47745
  25395439.51645        38.100          16.300  
  20669412.695 7      1262.793 7       983.99448 -10676943.360 7  -8277515.51848
  20669405.48048        49.000          39.900  
  20829988.039 7     -1709.356 7     -1331.96548   -161328.336 7   -114954.90048
  20829983.16448        50.500          38.400  
  21181327.789 7      1819.748 7      1417.98647 -11905832.493 7  -9242332.75347
  21181322.65247        48.200          31.600  
  23100972.156 6     -3831.315 6     -2985.43947   9764570.495 6   7594228.95547
  23100968.32047        43.300          28.300  
  20916801.984 7       930.434 7       725.01348  -8796285.277 7  -6835092.23348
  20916796.69548        50.100          37.000  
  23966838.484 6     -3513.264 6     -2737.60847  10939905.320 6   8502646.20747
  23966833.41047        44.600          29.400  
  24903745.078 6     -2637.037 6     -2054.84156   4142358.062 6   3058949.48746
  24903738.80946        43.000          22.600  
  25234407.375 5      2886.833 5      2249.48446  -2329351.712 5  -1795659.58446
  25234403.19146        41.300          21.300  
  22627976.797 6      2810.835 6      2190.26147 -13128015.294 6 -10206955.49747
  22627971.81347        45.700          28.100  
 08  1 16 17 28 15.0000000  0  9G02G04G05G09G12G17G20G29G30    0.000143301
  20665831.961 7                                 -10695757.630 7  -8292175.98748
  20665825.18048        49.500          40.300  
  20834893.219 7                                   -135553.494 7    -94870.60448
  20834887.91848        49.300          38.400  
  21176154.445 7                                 -11933018.330 7  -9263516.51647
  21176149.19147        48.100          32.500  
  23111921.164 6     -3835.905 6     -2989.01547   9822109.075 6   7639064.18347
  23111917.38347        42.500          28.900  
  20914168.609 7                                  -8810126.276 7  -6845877.42348
  20914162.85548        50.100          36.900  
  23976871.250 6                                  10992627.738 6   8543728.59947
  23976866.52347        45.100          28.800  
  24911292.281 5     -2644.426 5     -2060.59446   4182024.448 5   3089858.40546
  24911287.46146        41.800          24.600  
  25226168.320 5      2886.130 5      2248.92946  -2372643.663 5  -1829393.52446
  25226164.89846        39.400          21.300  
  22619966.477 6      2806.113 6      2186.58047 -13170106.980 6 -10239754.20147
  22619962.42647        45.400          28.700  
 08  1 16 17 28 30.0000000  0  9G02G04G05G09G12G17G20G29G30    0.000146584
  20662276.531 7      1245.696 7       970.67248 -10714443.072 7  -8306736.06748
  20662269.83248        50.000          40.000  
  20839823.875 7     -1727.360 7     -1345.99448   -109643.096 7    -74680.69748
  20839819.17248        50.900          37.900  
  21171001.969 7      1804.932 7      1406.44147 -11960092.318 7  -9284613.13547
  21170997.22747        48.100          32.300  
  23122884.281 6     -3840.539 6     -2992.62547   9879717.156 6   7683953.56447
  23122879.71147        43.000          27.900  
  20911556.539 7       914.956 7       712.95348  -8823850.621 7  -6856571.72348
  20911550.66448        49.600          36.700  
  23986908.125 6     -3516.458 6     -2740.09647  11045374.606 6   8584830.03547
  23986903.37147        45.000          28.200  
  24918861.313 5     -2651.893 5     -2066.41346   4221802.845 5   3120854.59546
  24918857.45746        42.000          25.500  
  25217932.453 3      2885.342 3      2248.31246  -2415923.787 3  -1863118.20746
  25217930.46546        36.600          22.600  
  22611971.016 6      2801.287 6      2182.82247 -13212126.284 6 -10272496.52447
  22611965.89147        45.300          28.600  
 08  1 16 17 28 45.0000000  0  9G02G04G05G09G12G17G20G29G30    0.000149868
  20658744.703 7      1237.008 7       963.90248 -10732998.188 7  -8321194.59748
  20658738.48848        49.600          40.200  
  20844780.266 7     -1736.464 7     -1353.08848    -83596.136 7    -54384.37348
  20844775.84048        49.900          38.400  
  21165871.547 6      1797.373 6      1400.55147 -11987052.917 6  -9305621.39747
  21165867.07047        46.600          32.400  
  23133860.484 6     -3845.248 6     -2996.29747   9937395.882 6   7728898.01547
  23133855.80947        42.500          28.500  
  20908967.680 7       907.042 7       706.78548  -8837456.256 7  -6867173.50248
  20908962.29348        49.700          37.200  
  23996950.203 6     -3518.169 6     -2741.43147  11098147.147 6   8625951.49447
  23996945.88747        44.900          29.600  
  24926452.945 5     -2659.427 5     -2072.28546   4261694.256 5   3151938.86446
  24926448.39846        40.000          25.600  
  25209699.992 5      2884.442 5      2247.62046  -2459190.412 5  -1896832.51446
  25209695.72346        41.700          21.300  
  22603989.125 6      2796.350 6      2178.97447 -13254071.536 6 -10305181.13347
  22603983.90647        45.800          28.700  
 08  1 16 17 29  0.0000000  0  9G02G04G05G09G12G17G20G29G30    0.000153152
  20655238.266 7      1228.454 7       957.23748 -10751424.997 7  -8335553.15348
  20655231.63348        49.800          39.800  
  20849762.391 7     -1745.419 7     -1360.06648    -57414.856 7    -33983.38448
  20849757.88748        50.200          38.300  
  21160762.492 7      1789.931 7      1394.75147 -12013901.883 7  -9326542.66747
  21160757.37547        48.200          32.100  
  23144848.984 5     -3849.791 5     -2999.83547   9995142.743 5   7773895.54247
  23144844.80947        42.100          27.800  
  20906400.664 7       899.264 7       700.72548  -8850945.215 7  -6877684.38348
  20906394.94948        48.800          37.300  
  24006997.344 6     -3519.739 6     -2742.65247  11150943.229 6   8667091.27147
  24006992.50447        44.600          28.300  
  24934063.922 5     -2666.797 5     -2078.02746   4301696.207 5   3183109.27246
  24934060.47346        39.400          23.500  
  25201468.313 4      2883.700 4      2247.03646  -2502445.915 4  -1930538.05346
  25201464.96146        38.400          22.200  
  22596021.336 6      2791.530 6      2175.21847 -13295944.480 6 -10337809.39947
  22596016.26247        45.100          29.000  
 08  1 16 17 29 15.0000000  0  9G02G04G05G09G12G17G20G29G30    0.000156435
  20651756.094 7      1220.126 7       950.74848 -10769726.890 7  -8349814.36948
  20651749.34848        50.500          40.100  
  20854769.445 7     -1754.120 7     -1366.84748    -31103.059 7    -13480.68648
  20854764.92248        50.200          37.800  
  21155674.289 7      1782.711 7      1389.12547 -12040642.546 7  -9347379.55047
  21155669.39147        48.200          32.800  
  23155849.578 5     -3854.065 5     -3003.16847  10052953.724 5   7818943.05947
  23155846.10947        42.400          28.100  
  20903855.594 7       891.711 7       694.84048  -8864320.872 7  -6888106.98148
  20903849.88348        50.000          37.300  
  24017047.594 6     -3521.060 6     -2743.68247  11203759.135 6   8708246.50447
  24017043.64147        44.100          28.000  
  24941697.188 4     -2673.909 4     -2083.56546   4341804.845 4   3214362.74746
  24941692.91046        37.700          23.200  
  25193238.672 5      2883.182 5      2246.63546  -2545693.647 5  -1964237.58046
  25193234.16446        39.900          20.100  
  22588065.984 6      2786.931 6      2171.63447 -13337748.439 6 -10370383.90347
  22588061.07447        44.600          29.100  
 08  1 16 17 29 30.0000000  0  9G02G04G05G09G12G17G20G29G30    0.000159714
  20648296.883 7      1211.886 7       944.32648 -10787905.178 7  -8363979.26348
  20648289.92248        49.600          40.100  
  20859801.125 7     -1762.708 7     -1373.53848     -4662.440 7      7122.37948
  20859796.32448        50.900          38.200  
  21150605.836 7      1775.566 7      1383.55847 -12067276.033 7  -9368132.91947
  21150600.99647        48.300          32.000  
  23166862.828 5     -3858.208 5     -3006.39447  10110826.848 5   7864038.97347
  23166858.72747        42.200          28.600  
  20901331.375 7       884.241 7       689.01948  -8877584.487 7  -6898442.26848
  20901325.86348        49.900          37.600  
  24027101.703 6     -3522.274 6     -2744.62947  11256593.248 6   8749415.94547
  24027097.50847        44.300          28.800  
  24949348.352 2     -2680.908 2     -2089.01346   4382018.460 2   3245697.93946
  24949345.55946        34.600          20.900  
  25185010.609 5      2882.743 5      2246.29446  -2588934.793 5  -1997931.98646
  25185006.53546        40.400          21.800  
  22580123.969 6      2782.400 6      2168.10547 -13379484.441 6 -10402905.47347
  22580119.22747        45.100          30.000  
 08  1 16 17 29 45.0000000  0  9G02G04G05G09G12G17G20G29G30    0.000162992
  20644862.023 7      1203.311 7       937.64548 -10805954.839 7  -8378043.93248
  20644854.87948        50.100          39.600  
  20864857.992 7     -1771.607 7     -1380.47448     21911.670 7     27829.48248
  20864852.82448        50.500          38.000  
  21145559.219 7      1768.082 7      1377.72647 -12093797.263 7  -9388798.81347
  21145553.96947        47.800          32.600  
  23177888.828 6     -3862.643 6     -3009.85047  10168766.489 6   7909186.71847
  23177884.14547        43.100          27.900  
  20898830.023 7       876.448 7       682.94648  -8890731.203 7  -6908686.46348
  20898824.07848        49.100          37.700  
  24037160.563 6     -3523.802 6     -2745.81847  11309450.287 6   8790603.21847
  24037156.05147        44.500          28.500  
  24957021.719 1     -2688.196 1     -2094.69046   4422341.400 1   3277118.28846
  24957019.21946        33.700          19.000  
  25176782.508 5      2881.993 5      2245.70946  -2632164.692 5  -2031617.62146
  25176779.57446        40.900          19.600  
  22572195.195 6      2777.534 6      2164.31247 -13421147.445 6 -10435370.14747
  22572190.35947        44.500          29.700  
 08  1 16 17 30  0.0000000  0  9G02G04G05G09G12G17G20G29G30    0.000166273
  20641451.422 7      1194.805 7       931.01748 -10823876.915 7  -8392009.18848
  20641444.48448        49.900          39.800  
  20869940.141 7     -1780.405 7     -1387.32848     48617.744 7     48639.39748
  20869935.22348        50.300          38.400  
  21140533.859 7      1760.659 7      1371.94347 -12120207.150 7  -9409377.95947
  21140528.93047        48.800          32.600  
  23188925.719 5     -3866.989 5     -3013.23846  10226771.321 5   7954385.28746
  23188922.19946        42.000          26.000  
  20896350.375 7       868.708 7       676.91548  -8903761.824 7  -6918840.19248
  20896344.42248        49.900          37.600  
  24047222.781 6     -3525.252 6     -2746.94947  11362329.070 6   8831807.45447
  24047218.70347        44.600          29.400  
  24964714.672 1     -2695.421 1     -2100.31645   4462772.709 1   3308623.02945
  24964712.71145        30.700          17.400  
  25168558.578 5      2881.296 5      2245.16946  -2675384.138 5  -2065295.15546
  25168554.88746        39.600          21.800  
  22564281.344 6      2772.729 6      2160.56747 -13462738.379 6 -10467778.65647
  22564276.22747        43.500          29.600  
 08  1 16 17 30 15.0000000  0  9G02G04G05G09G12G17G20G29G30    0.000169552
  20638065.328 7      1186.298 7       924.38848 -10841671.379 7  -8405875.00848
  20638058.43448        49.600          39.700  
  20875047.227 7     -1789.193 7     -1394.17648     75455.635 7     69552.04048
  20875042.23048        50.200          38.500  
  21135529.375 7      1753.215 7      1366.14147 -12146505.376 7  -9429870.07447
  21135523.90647        48.600          32.800  
  23199976.461 5     -3871.302 5     -3016.59847  10284840.856 5   7999634.25647
  23199972.54347        40.700          26.700  
  20893892.906 7       860.957 7       670.87648  -8916676.187 7  -6928903.33148
  20893887.09448        49.500          37.600  
  24057289.031 6     -3526.690 6     -2748.06947  11415229.416 6   8873028.49347
  24057284.98447        44.100          28.700  
  24972430.734 2     -2702.605 2     -2105.91945   4503311.778 2   3340211.81045
  24972427.34445        34.400          16.900  
  25160335.539 4      2880.604 4      2244.62046  -2718593.192 4  -2098964.45446
  25160333.45746        38.800          22.800  
  22556380.422 6      2767.896 6      2156.80347 -13504256.814 6 -10500130.69747
  22556375.59047        45.300          28.700  
 08  1 16 17 30 30.0000000  0  9G02G04G05G09G12G17G20G29G30    0.000172832
  20634703.938 7      1177.589 7       917.60248 -10859335.211 7  -8419639.03048
  20634696.81648        49.800          39.600  
  20880179.688 7     -1798.152 7     -1401.15748    102427.919 7     90569.40048
  20880175.12548        50.500          38.500  
  21130546.586 7      1745.572 7      1360.18647 -12172688.953 7  -9450272.86547
  21130541.57047        48.300          32.900  
  23211039.039 5     -3875.765 5     -3020.07546  10342977.328 5   8044935.37846
  23211035.66046        40.200          26.200  
  20891457.625 7       853.011 7       664.68348  -8929471.347 7  -6938873.58348
  20891452.44948        49.900          37.800  
  24067361.164 6     -3528.307 6     -2749.32847  11468154.020 6   8914268.41347
  24067356.50447        43.600          28.600  
  24980166.891 3     -2709.960 3     -2111.65645   4543961.181 3   3371886.64745
  24980162.52745        35.900          17.800  
  25152117.406 5      2879.728 5      2243.94346  -2761789.111 5  -2132623.60546
  25152112.33646        40.400          20.100  
  22548494.109 6      2762.864 6      2152.87947 -13545699.771 6 -10532423.88647
  22548489.06347        43.300          29.500  
 08  1 16 17 30 45.0000000  0  9G02G04G05G09G12G17G20G29G30    0.000176111
  20631367.148 7      1169.039 7       910.94048 -10876870.796 7  -8433303.12648
  20631360.21548        50.500          39.800  
  20885337.414 7     -1806.932 7     -1407.99948    129531.892 7    111689.37848
  20885332.45348        50.600          38.600  
  21125585.273 7      1738.069 7      1354.34047 -12198759.994 7  -9470587.96147
  21125580.09847        47.700          33.100  
  23222114.758 5     -3880.042 5     -3023.40746  10401177.958 5   8090286.49046
  23222110.85546        40.500          25.000  
  20889045.055 7       845.212 7       658.60748  -8942149.524 7  -6948752.68548
  20889039.91448        48.600          37.700  
  24077435.945 6     -3529.747 6     -2750.45247  11521100.227 6   8955525.19247
  24077431.73047        42.900          27.700  
  24987920.930 3     -2717.125 3     -2117.23946   4584718.048 3   3403645.22946
  24987918.27746        37.100          19.300  
  25143899.281 5      2878.998 5      2243.37746  -2804974.083 5  -2166274.26646
  25143895.50846        39.200          23.300  
  22540621.922 6      2757.975 6      2149.07247 -13587069.394 6 -10564659.96147
  22540616.80147        44.300          29.300  
 08  1 16 17 31  0.0000000  0  9G02G04G05G09G12G17G20G29G30    0.000179392
  20628054.008 7      1160.579 7       904.34748 -10894279.475 7  -8446868.32948
  20628047.27748        49.800          39.700  
  20890519.711 7     -1815.586 7     -1414.74248    156765.675 7    132910.50548
  20890515.27348        50.800          38.300  
  21120645.594 7      1730.647 7      1348.55647 -12224719.703 7  -9490816.30447
  21120640.17647        48.000          32.500  
  23233201.688 5     -3884.189 5     -3026.64047  10459440.797 5   8135686.08747
  23233197.44147        41.400          26.700  
  20886654.555 7       837.493 7       652.59248  -8954711.914 7  -6958541.56048
  20886649.56348        49.400          37.500  
  24087515.008 6     -3531.091 6     -2751.49847  11574066.592 6   8996797.65647
  24087510.65647        43.000          28.400  
  24995699.406 5     -2724.194 5     -2122.74546   4625580.951 5   3435486.39746
  24995694.14146        39.200          19.000  
  25135682.617 4      2878.367 4      2242.88446  -2848149.586 4  -2199917.53046
  25135679.25046        38.600          21.700  
  22532763.055 6      2753.145 6      2145.30947 -13628366.573 6 -10596839.59347
  22532757.89847        43.800          29.400  
 08  1 16 17 31 15.0000000  0  9G02G04G05G09G12G17G20G29G30    0.000182671
  20624766.500 7      1151.872 7       897.56248 -10911557.553 7  -8460331.76648
  20624759.74648        50.000          39.300  
  20895727.281 7     -1824.483 7     -1421.67548    184132.921 7    154235.62648
  20895722.61348        50.700          38.500  
  21115727.414 6      1722.969 6      1342.57347 -12250564.240 6  -9510954.90447
  21115722.14847        46.600          32.100  
  23244301.148 5     -3888.543 5     -3030.03346  10517768.950 5   8181136.58546
  23244296.64546        41.800          26.000  
  20884286.516 7       829.532 7       646.38948  -8967154.893 7  -6968237.39248
  20884281.30948        49.300          37.900  
  24097599.195 6     -3532.666 6     -2752.72547  11627056.579 6   9038088.52647
  24097594.61747        43.700          26.800  
  25003495.375 5     -2731.467 5     -2128.41545   4666552.949 5   3467412.62145
  25003490.27045        40.200          18.300  
  25127468.703 5      2877.490 5      2242.19646  -2891311.934 5  -2233550.46246
  25127465.61746        40.200          19.900  
  22524919.680 6      2748.067 6      2141.34947 -13669587.580 6 -10628959.83447
  22524914.19147        44.900          29.500  
 08  1 16 17 31 30.0000000  0  9G02G04G05G09G12G17G20G29G30    0.000185953
  20621503.438 7      1143.136 7       890.75648 -10928704.598 7  -8473693.09948
  20621496.53948        50.300          39.600  
  20900960.438 7     -1833.369 7     -1428.59948    211633.450 7    175664.60848
  20900955.82048        50.800          38.300  
  21110831.133 7      1715.257 7      1336.56447 -12276293.101 7  -9531003.35947
  21110826.25447        48.000          32.400  
  23255413.859 5     -3892.889 5     -3033.41846  10576162.289 5   8226637.85346
  23255409.18046        41.400          25.000  
  20881941.953 7       821.538 7       640.16048  -8979477.969 7  -6977839.78648
  20881935.98048        49.600          38.000  
  24107686.305 6     -3534.243 6     -2753.95647  11680070.228 6   9079397.86347
  24107682.37947        42.700          27.300  
  25011312.398 6     -2738.733 6     -2134.07745   4707633.938 6   3499423.78145
  25011307.67645        42.600          16.900  
  25119257.727 4      2876.581 4      2241.49346  -2934460.647 4  -2267172.86146
  25119254.16846        38.400          21.700  
  22517089.305 6      2742.943 6      2137.35947 -13710731.720 6 -10661020.21947
  22517084.43047        44.600          29.100  
 08  1 16 17 31 45.0000000  0  9G02G04G05G09G12G17G20G29G30    0.000189234
  20618264.828 7      1134.584 7       884.09248 -10945723.357 7  -8486954.47648
  20618258.13348        50.600          39.700  
  20906218.500 7     -1842.053 7     -1435.36648    239264.253 7    197195.09848
  20906214.12148        50.500          38.000  
  21105957.227 6      1707.714 6      1330.68647 -12301908.808 6  -9550963.65247
  21105951.79347        47.100          32.100  
  23266536.555 5     -3897.008 5     -3036.62847  10634617.403 5   8272187.26947
  23266532.66447        41.700          26.800  
  20879619.000 7       813.723 7       634.06948  -8991683.811 7  -6987350.82848
  20879613.43448        48.800          37.800  
  24117778.914 6     -3535.629 6     -2755.03446  11733104.668 6   9120723.37146
  24117774.87946        42.700          26.000  
  25019151.063 5     -2745.798 5     -2139.58645   4748820.909 5   3531517.57545
  25019144.84045        42.200          17.400  
  25111050.742 5      2875.867 5      2240.93546  -2977598.653 5  -2300786.88246
  25111045.43846        41.400          22.500  
  22509274.148 6      2738.002 6      2133.50747 -13751801.745 6 -10693022.82747
  22509269.36347        43.900          28.800  
 08  1 16 17 32  0.0000000  0  9G02G04G05G09G12G17G20G29G30    0.000192514
  20615050.617 7      1126.022 7       877.41948 -10962613.685 7  -8500115.76848
  20615043.67248        50.200          39.700  
  20911501.523 7     -1850.730 7     -1442.12748    267025.210 7    218827.00548
  20911497.05948        50.800          37.400  
  21101103.883 7      1700.150 7      1324.79247 -12327411.050 7  -9570835.53547
  21101098.58247        48.400          31.900  
  23277671.664 5     -3901.113 5     -3039.82946  10693134.093 5   8317784.70246
  23277667.71146        41.900          25.200  
  20877318.883 7       805.881 7       627.96048  -9003772.021 7  -6996770.22148
  20877313.28148        49.600          37.700  
  24127875.117 5     -3537.018 5     -2756.11646  11786159.935 5   9162065.11046
  24127871.14146        42.400          25.600  
  25027007.727 5     -2752.848 5     -2145.08445   4790113.624 5   3563693.83145
  25027002.84045        41.500          16.300  
  25102842.555 4      2875.139 4      2240.36646  -3020725.738 4  -2334392.37346
  25102838.70346        38.700          21.800  
  22501472.406 6      2733.031 6      2129.63547 -13792797.215 6 -10724967.34847
  22501468.25447        45.100          28.500  
 08  1 16 17 32 15.0000000  0  9G02G04G05G09G12G17G20G29G30    0.000195793
  20611860.930 7      1117.467 7       870.75448 -10979375.684 7  -8513177.07348
  20611853.93848        50.300          39.700  
  20916808.992 7     -1859.368 7     -1448.85848    294915.725 7    240559.87348
  20916804.18048        50.600          38.200  
  21096272.281 7      1692.581 7      1318.89447 -12352799.760 7  -9590618.94347
  21096267.22747        47.800          32.600  
  23288819.594 5     -3905.178 5     -3042.99246  10751711.763 5   8363429.57946
  23288814.98046        41.700          24.600  
  20875041.031 7       798.044 7       621.85348  -9015742.686 7  -7006098.01048
  20875035.46948        49.300          37.800  
  24137974.828 6     -3538.374 6     -2757.17447  11839235.550 6   9203422.71547
  24137970.92247        43.000          26.800  
  25034885.648 6     -2759.851 6     -2150.53345   4831511.393 6   3595951.82545
  25034880.35945        43.400          17.400  
  25094638.313 5      2874.416 5      2239.80746  -3063841.979 5  -2367989.47446
  25094633.59046        39.400          21.700  
  22493686.328 6      2728.055 6      2125.75847 -13833718.045 6 -10756853.71247
  22493681.16047        43.900          30.200  
 08  1 16 17 32 30.0000000  0  9G02G04G05G09G12G17G20G29G30    0.000199076
  20608696.719 7      1108.597 7       863.84248 -10996004.644 7  -8526134.69748
  20608689.62948        50.800          39.400  
  20922141.781 7     -1868.296 7     -1455.81548    322940.170 7    262397.09548
  20922137.48448        51.500          38.900  
  21091463.922 7      1684.694 7      1312.74847 -12378070.163 7  -9610310.16647
  21091458.43847        47.900          32.300  
  23299979.016 6     -3909.513 6     -3046.37247  10810354.452 6   8409125.16347
  23299974.67247        43.000          26.700  
  20872786.406 7       789.894 7       615.50248  -9027591.093 7  -7015330.53448
  20872780.77348        49.900          38.100  
  24148079.930 6     -3540.024 6     -2758.45846  11892335.917 6   9244799.59146
  24148075.78146        43.600          25.800  
  25042784.898 6     -2767.152 6     -2156.22745   4873018.677 6   3628295.23345
  25042778.64545        42.600          16.900  
  25086436.438 5      2873.389 5      2239.00446  -3106942.813 5  -2401574.53246
  25086432.30146        39.200          22.300  
  22485914.695 6      2722.754 6      2121.62647 -13874559.360 6 -10788678.10047
  22485909.26647        43.800          28.700  
 08  1 16 17 32 45.0000000  0  9G02G04G05G09G12G17G20G29G30    0.000202356
  20605556.711 7      1100.014 7       857.15448 -11012504.851 7  -8538992.01348
  20605549.71948        49.800          39.700  
  20927499.336 7     -1876.920 7     -1462.53548    351093.974 7    284335.12348
  20927494.50448        50.800          38.800  
  21086676.859 6      1677.075 6      1306.81347 -12403226.295 6  -9629912.35447
  21086671.25847        46.400          32.100  
  23311149.219 6     -3913.525 6     -3049.49946  10869057.327 6   8454867.64946
  23311145.28546        43.300          25.700  
  20870553.875 7       782.023 7       609.36948  -9039321.444 7  -7024471.07448
  20870548.60948        49.300          37.900  
  24158188.508 6     -3541.384 6     -2759.51946  11945456.679 6   9286192.36946
  24158183.86746        43.400          25.300  
  25050702.422 5     -2774.145 5     -2161.67346   4914630.850 5   3660720.32346
  25050697.59446        41.300          19.000  
  25078236.273 5      2872.648 5      2238.42446  -3150032.527 5  -2435150.89746
  25078232.65246        40.600          22.300  
  22478156.859 6      2717.721 6      2117.70547 -13915325.181 6 -10820443.67547
  22478151.74647        45.600          29.700  
 08  1 16 17 33  0.0000000  0  9G02G04G05G09G12G17G20G29G30    0.000205639
  20602441.906 7      1091.247 7       850.32248 -11028873.563 7  -8551746.84748
  20602434.74648        50.200          39.000  
  20932881.688 7     -1885.693 7     -1469.37148    379379.360 7    306375.68648
  20932876.90648        50.500          38.400  
  21081911.906 6      1669.268 6      1300.72847 -12428265.319 6  -9649423.27947
  21081906.31647        47.400          32.100  
  23322331.984 6     -3917.695 6     -3052.74946  10927822.751 6   8500658.88146
  23322328.10946        43.100          25.900  
  20868345.000 7       773.962 7       603.08748  -9050930.874 7  -7033517.38048
  20868339.48448        48.600          37.700  
  24168301.109 6     -3542.921 6     -2760.71647  11998600.490 6   9327603.10547
  24168296.96547        43.100          26.800  
  25058640.938 5     -2781.289 5     -2167.24546   4956350.181 5   3693228.99546
  25058637.43846        40.100          19.000  
  25070039.484 4      2871.717 4      2237.70146  -3193108.277 4  -2468716.41146
  25070035.54746        38.800          22.500  
  22470413.984 6      2712.489 6      2113.62747 -13956012.509 6 -10852148.08047
  22470409.27747        44.200          28.900  
 08  1 16 17 33 15.0000000  0  9G02G04G05G09G12G17G20G29G30    0.000208921
  20599351.688 7      1082.665 7       843.63648 -11045113.543 7  -8564401.38048
  20599344.57848        50.000          39.500  
  20938288.586 7     -1894.272 7     -1476.05648    407793.435 7    328516.52548
  20938284.10548        50.500          37.300  
  21077169.094 7      1661.634 7      1294.78147 -12453189.836 7  -9668844.99147
  21077164.18047        48.700          32.700  
  23333526.023 5     -3921.642 5     -3055.82447  10986647.377 5   8546496.24647
  23333522.02747        42.300          26.400  
  20866158.047 7       766.080 7       596.94648  -9062422.078 7  -7042471.56548
  20866152.84448        48.500          37.700  
  24178417.805 6     -3544.247 6     -2761.75046  12051764.188 6   9369029.35546
  24178413.28546        42.900          24.500  
  25066599.156 3     -2788.211 3     -2172.63245   4998173.345 3   3725818.47945
  25066595.78545        36.300          16.900  
  25061845.195 5      2870.985 5      2237.13346  -3236173.051 5  -2502273.40446
  25061840.17246        40.300          20.600  
  22462685.914 6      2707.427 6      2109.68347 -13996623.919 6 -10883793.32547
  22462681.16847        44.100          29.100  
 08  1 16 17 33 30.0000000  0  9G02G04G05G09G12G17G20G29G30    0.000212202
  20596285.586 7      1074.080 7       836.94648 -11061224.747 7  -8576955.56948
  20596278.60548        50.800          40.100  
  20943720.281 7     -1902.820 7     -1482.71748    436335.740 7    350757.27848
  20943715.32448        51.000          38.200  
  21072448.266 7      1653.986 7      1288.82047 -12477999.621 7  -9688177.28947
  21072442.59847        47.900          32.500  
  23344731.422 6     -3925.561 6     -3058.87646  11045530.786 6   8592379.38746
  23344727.29746        43.400          25.700  
  20863994.008 7       758.186 7       590.79448  -9073794.869 7  -7051333.47748
  20863988.64148        49.200          37.800  
  24188538.023 6     -3545.559 6     -2762.77346  12104947.572 6   9410470.95546
  24188534.09846        43.500          25.600  
  25074577.656 3     -2795.131 3     -2178.01645   5040100.304 3   3758488.72445
  25074574.70745        35.800          16.300  
  25053652.164 5      2870.249 5      2236.56046  -3279226.778 5  -2535821.79746
  25053647.15246        39.700          22.000  
  22454972.945 6      2702.345 6      2105.72347 -14037159.098 6 -10915379.17447
  22454968.11347        44.400          29.300  
 08  1 16 17 33 45.0000000  0  9G02G04G05G09G12G17G20G29G30    0.000215485
  20593244.828 7      1065.375 7       830.16248 -11077205.373 7  -8589407.99848
  20593237.56648        50.200          39.800  
  20949176.008 7     -1911.474 7     -1489.46048    465007.843 7    373099.18048
  20949171.51248        50.900          38.300  
  21067749.117 7      1646.205 7      1282.75647 -12502692.692 7  -9707418.63747
  21067744.54347        48.000          32.300  
  23355947.523 6     -3929.564 6     -3061.99746  11104474.251 6   8638309.33646
  23355944.04746        43.400          24.100  
  20861852.609 7       750.168 7       584.54748  -9085047.394 7  -7060101.68848
  20861847.34448        49.300          37.600  
  24198662.953 6     -3546.972 6     -2763.87346  12158152.158 6   9451929.04946
  24198658.61346        42.600          25.400  
  25082576.969 3     -2802.120 3     -2183.46745   5082132.097 3   3791240.73345
  25082572.87145        37.200          16.900  
  25045461.031 5      2869.385 5      2235.88146  -3322267.545 5  -2569360.01646
  25045457.68446        40.200          21.500  
  22447274.133 6      2697.139 6      2101.66747 -14077616.189 6 -10946904.17347
  22447268.92247        44.700          29.800  
 08  1 16 17 34  0.0000000  0  9G02G04G05G09G12G17G20G29G30    0.000218765
  20590228.367 7      1056.754 7       823.44448 -11093056.679 7  -8601759.66548
  20590221.26648        50.300          40.100  
  20954656.664 7     -1920.009 7     -1496.11048    493807.976 7    395540.83648
  20954652.02348        50.500          38.600  
  21063071.922 7      1638.496 7      1276.75047 -12527270.139 7  -9726569.89447
  21063067.03547        49.300          32.600  
  23367175.023 6     -3933.438 6     -3065.01546  11163475.826 6   8684284.56546
  23367171.22346        43.600          24.800  
  20859733.891 7       742.238 7       578.36748  -9096180.970 7  -7068777.20048
  20859728.36348        49.500          37.600  
  24208791.359 6     -3548.291 6     -2764.90146  12211376.522 6   9493402.56746
  24208786.91046        43.700          25.600  
  25090594.258 3     -2809.005 3     -2188.82645   5124267.169 3   3824073.11745
  25090591.21145        36.500          17.400  
  25037273.141 5      2868.617 5      2235.28746  -3365296.805 5  -2602889.32646
  25037269.14546        40.700          21.700  
  22439589.766 6      2692.002 6      2097.66547 -14117996.226 6 -10978369.14447
  22439584.85247        43.800          29.700  
 08  1 16 17 34 15.0000000  0  9G02G04G05G09G12G17G20G29G30    0.000222046
  20587236.758 7      1048.036 7       816.65148 -11108777.212 7  -8614009.43148
  20587229.61748        50.900          40.100  
  20960161.609 7     -1928.631 7     -1502.82948    522737.435 7    418083.27648
  20960157.14148        50.900          38.600  
  21058417.227 7      1630.688 7      1270.66647 -12551730.453 7  -9745629.87947
  21058412.58647        48.500          33.400  
  23378414.414 6     -3937.379 6     -3068.08646  11222536.515 6   8730305.85546
  23378410.40646        42.600          24.900  
  20857638.102 7       734.198 7       572.10248  -9107193.942 7  -7077358.73748
  20857632.81348        49.600          37.700  
  24218923.555 6     -3549.697 6     -2765.99746  12264621.972 6   9534892.51546
  24218918.93046        42.700          24.600  
  25098633.039 3     -2815.967 3     -2194.25445   5166506.678 3   3856986.93445
  25098628.72745        36.600          17.800  
  25029088.203 5      2867.734 5      2234.59546  -3408312.819 5  -2636408.24746
  25029083.94946        40.400          22.600  
  22431920.508 6      2686.756 6      2093.57447 -14158297.561 6 -11009772.76247
  22431916.00047        45.200          29.200  
 08  1 16 17 34 30.0000000  0  9G02G04G05G09G12G17G20G29G30    0.000225328
  20584270.266 7      1039.339 7       809.87448 -11124367.300 7  -8626157.54848
  20584263.00048        49.900          39.900  
  20965691.523 7     -1937.197 7     -1509.50448    551795.395 7    440725.83148
  20965686.68848        50.400          37.900  
  21053785.492 6      1622.891 6      1264.59047 -12576073.816 6  -9764598.72947
  21053780.18047        47.300          33.400  
  23389663.523 6     -3941.255 6     -3071.10746  11281655.333 6   8776372.46346
  23389660.00846        43.200          25.600  
  20855565.305 7       726.184 7       565.85848  -9118086.700 7  -7085846.60648
  20855559.86348        49.400          37.600  
  24229060.133 6     -3551.059 6     -2767.05746  12317887.861 6   9576398.37246
  24229055.01246        43.300          24.100  
  25106690.250 3     -2822.881 3     -2199.64645   5208849.891 3   3889981.61745
  25106686.06345        36.800          17.800  
  25020904.227 4      2866.896 4      2233.94746  -3451316.259 4  -2669917.45246
  25020900.15646        38.100          20.900  
  22424266.109 6      2681.518 6      2089.49647 -14198520.330 6 -11041115.19447
  22424262.07847        43.400          29.300  
 08  1 16 17 34 45.0000000  0  9G02G04G05G09G12G17G20G29G30    0.000228609
  20581328.063 7      1030.640 7       803.09648 -11139826.905 7  -8638203.98748
  20581321.23048        50.700          39.900  
  20971245.031 7     -1945.730 7     -1516.15448    580981.348 7    463468.13448
  20971240.68448        50.300          37.900  
  21049175.008 7      1615.080 7      1258.50447 -12600300.020 7  -9783476.28847
  21049169.99247        47.800          32.800  
  23400924.617 5     -3945.103 5     -3074.10346  11340831.879 5   8822484.00646
  23400921.20346        42.200          24.200  
  20853515.445 7       718.160 7       559.60548  -9128859.102 7  -7094240.68848
  20853509.57048        48.500          37.300  
  24239199.453 6     -3552.408 6     -2768.11046  12371173.981 6   9617920.02046
  24239194.78146        43.800          24.700  
  25114767.336 4     -2829.759 4     -2205.00746   5251296.274 4   3923056.72046
  25114763.57846        38.200          19.000  
  25012723.508 5      2866.050 5      2233.28746  -3494307.010 5  -2703416.75746
  25012718.76246        41.100          21.100  
  22416626.938 6      2676.270 6      2085.40447 -14238664.372 6 -11072396.26047
  22416622.75447        44.300          29.300  
 08  1 16 17 35  0.0000000  0  9G02G04G05G09G12G17G20G29G30    0.000231892
  20578410.938 7      1021.912 7       796.29548 -11155155.583 7  -8650148.40548
  20578404.23848        50.200          39.800  
  20976823.867 7     -1954.282 7     -1522.81748    610295.585 7    486310.39348
  20976819.28148        50.200          37.300  
  21044587.227 7      1607.227 7      1252.38447 -12624408.420 7  -9802262.05547
  21044582.39847        48.200          32.800  
  23412197.039 6     -3948.938 6     -3077.09346  11400065.945 6   8868640.40346
  23412193.27346        43.300          25.700  
  20851488.586 7       710.099 7       553.32448  -9139510.579 7  -7102540.54148
  20851482.98848        49.100          37.300  
  24249343.625 6     -3553.782 6     -2769.18146  12424480.715 6   9659457.73546
  24249338.71146        43.600          24.600  
  25122865.633 5     -2836.641 5     -2210.36846   5293845.889 5   3956212.23946
  25122860.37146        39.900          19.900  
  25004544.477 5      2865.187 5      2232.61346  -3537284.814 5  -2736905.94446
  25004540.66046        40.400          21.800  
  22409003.750 6      2670.965 6      2081.27147 -14278728.852 6 -11103615.33147
  22408998.75447        45.400          28.900  
 08  1 16 17 35 15.0000000  0  9G02G04G05G09G12G17G20G29G30    0.000235174
  20575519.852 7      1013.007 7       789.35648 -11170350.686 7  -8661988.74648
  20575512.77348        49.800          39.300  
  20982426.477 7     -1962.993 7     -1529.60448    639740.482 7    509254.45648
  20982421.88748        50.800          37.900  
  21040022.250 7      1599.183 7      1246.11747 -12648396.160 7  -9820953.80347
  21040017.59847        48.400          32.200  
  23423480.320 6     -3952.938 6     -3080.21147  11459360.020 6   8914843.57647
  23423476.30547        42.800          26.500  
  20849485.344 7       701.851 7       546.89748  -9150038.341 7  -7110743.99148
  20849479.68448        48.700          37.800  
  24259491.656 6     -3555.316 6     -2770.37646  12477810.456 6   9701013.37746
  24259486.91446        42.600          22.800  
  25130980.992 5     -2843.679 5     -2215.85846   5336501.069 5   3989450.11246
  25130977.72746        41.000          22.000  
  24996369.773 5      2864.130 5      2231.78546  -3580246.761 5  -2770382.72646
  24996365.55546        42.000          22.500  
  22401395.297 6      2665.467 6      2076.98747 -14318710.854 6 -11134770.13647
  22401389.90247        44.500          29.100  
 08  1 16 17 35 30.0000000  0  9G02G04G05G09G12G17G20G29G30    0.000238457
  20572652.781 7      1004.377 7       782.63148 -11185416.334 7  -8673728.20748
  20572646.02048        50.000          39.800  
  20988053.898 7     -1971.396 7     -1536.15348    669311.430 7    532296.75748
  20988049.40648        50.700          38.500  
  21035479.836 7      1591.402 7      1240.05347 -12672267.192 7  -9839554.60247
  21035474.97347        48.300          32.700  
  23434774.023 5     -3956.604 5     -3083.06746  11518709.085 5   8961089.57446
  23434770.55146        41.900          25.100  
  20847504.383 7       693.874 7       540.68148  -9160446.445 7  -7118854.21248
  20847499.29348        48.500          37.400  
  24269643.844 6     -3556.561 6     -2771.34446  12531158.864 6   9742583.53246
  24269639.03946        43.400          23.800  
  25139117.758 5     -2850.420 5     -2221.10146   5379257.375 5   4022766.62546
  25139114.25046        41.300          22.000  
  24988196.797 5      2863.348 5      2231.18646  -3623196.988 5  -2803850.52146
  24988191.45346        41.300          21.500  
  22393801.094 6      2660.233 6      2072.90847 -14358614.346 6 -11165863.76047
  22393796.70347        43.900          29.300  
 08  1 16 17 35 45.0000000  0  9G02G04G05G09G12G17G20G29G30    0.000241739
  20569810.258 7       995.805 7       775.95148 -11200353.401 7  -8685367.47248
  20569803.21948        50.000          40.300  
  20993704.891 7     -1979.728 7     -1542.64548    699007.344 7    555436.42848
  20993700.11748        50.600          38.200  
  21030959.531 7      1583.676 7      1234.03347 -12696022.325 7  -9858065.09347
  21030954.70347        47.600          32.600  
  23446078.188 5     -3960.179 5     -3085.85246  11578111.769 5   9007377.34846
  23446073.66846        42.000          24.700  
  20845546.758 7       685.951 7       534.50748  -9170735.706 7  -7126871.82248
  20845541.13348        49.300          37.700  
  24279798.508 6     -3557.734 6     -2772.26046  12584524.873 6   9784167.42846
  24279794.02746        43.200          24.200  
  25147273.859 5     -2857.073 5     -2226.29346   5422113.465 5   4056161.02146
  25147269.11346        41.600          22.300  
  24980025.289 5      2862.623 5      2230.61446  -3666136.331 5  -2837309.72846
  24980021.11346        40.500          22.300  
  22386222.336 6      2655.050 6      2068.87047 -14398440.093 6 -11196896.81347
  22386217.73047        44.400          28.900  
 08  1 16 17 36  0.0000000  0  9G02G04G05G09G12G17G20G29G30    0.000245020
  20566992.992 7       987.057 7       769.13548 -11215159.256 7  -8696904.49948
  20566985.83248        49.800          39.600  
  20999380.039 7     -1988.202 7     -1549.24848    728830.373 7    578675.14648
  20999375.43048        50.500          38.300  
  21026461.805 6      1575.759 6      1227.86547 -12719658.709 6  -9876483.06147
  21026457.29347        47.200          32.700  
  23457393.148 6     -3963.894 6     -3088.74746  11637570.176 6   9053708.54746
  23457389.14846        43.000          25.500  
  20843611.875 7       677.844 7       528.19048  -9180903.373 7  -7134794.67748
  20843605.79348        49.400          37.500  
  24289958.594 5     -3559.068 5     -2773.29746  12637910.897 5   9825766.89046
  24289953.14546        42.300          23.800  
  25155448.438 5     -2863.861 5     -2231.58146   5465071.382 5   4089634.73946
  25155443.89846        41.400          21.800  
  24971856.258 5      2861.719 5      2229.90746  -3709062.108 5  -2870758.33246
  24971852.47346        39.700          22.200  
  22378659.328 6      2649.668 6      2064.67747 -14438185.119 6 -11227866.95947
  22378655.28947        44.700          29.600  
 08  1 16 17 36 15.0000000  0  9G02G04G05G09G12G17G20G29G30    0.000248302
  20564200.414 7       978.327 7       762.33348 -11229834.166 7  -8708339.49148
  20564193.44548        50.300          40.400  
  21005079.008 7     -1996.635 7     -1555.81948    758779.899 7    602012.43848
  21005074.57448        50.500          38.300  
  21021986.094 6      1567.852 6      1221.70347 -12743176.487 6  -9894808.60547
  21021981.46147        47.000          32.600  
  23468717.750 5     -3967.568 5     -3091.61146  11697083.690 5   9100082.70646
  23468713.77346        42.100          26.100  
  20841700.039 7       669.757 7       521.88948  -9190949.729 7  -7142623.01248
  20841694.47748        48.800          37.700  
  24300120.898 5     -3560.369 5     -2774.31246  12691316.427 5   9867381.56646
  24300116.23846        42.400          24.600  
  25163641.984 5     -2870.611 5     -2236.83946   5508130.545 5   4123187.33146
  25163637.48446        42.000          21.300  
  24963692.039 5      2860.861 5      2229.24346  -3751975.025 5  -2904196.98346
  24963686.24246        42.300          22.500  
  22371111.867 6      2644.291 6      2060.48647 -14477849.479 6 -11258774.24547
  22371107.12947        45.100          29.000  
