     2.11           OBSERVATION DATA    GPS(GPS)            RINEX VERSION / TYPE
convertToRinex 1.14 convertToRINEX OPR  21-Jan-08 20:41 UTC PGM / RUN BY / DATE 
----------------------------------------------------------- COMMENT             
kylebase                                                    MARKER NAME         
                                                            MARKER NUMBER       
GNSS Observer       Trimble                                 OBSERVER / AGENCY   
4629118867          R8 Model 2          Version 3.50        REC # / TYPE / VERS 
                    TRM_R8_GNSS                             ANT # / TYPE        
 -1641683.7864 -3663550.1144  4940985.9841                  APPROX POSITION XYZ 
        0.0000        0.0000        0.0000                  ANTENNA: DELTA H/E/N
     1     1     0                                          WAVELENGTH FACT L1/2
     8    C1    D1    D2    L1    L2    P2    S1    S2      # / TYPES OF OBSERV 
  2008     1    20    20    10   15.0000000     GPS         TIME OF FIRST OBS   
  2008     1    20    21    26   55.0000000     GPS         TIME OF LAST OBS    
     0                                                      RCV CLOCK OFFS APPL 
    14                                                      LEAP SECONDS        
    14                                                      # OF SATELLITES     
   G02   503   471   370   495   383   383   503   383      PRN / # OF OBS      
   G05   384   368   349   378   352   352   384   352      PRN / # OF OBS      
   G06   921   909   909   921   921   921   921   921      PRN / # OF OBS      
   G10   921   902   911   921   921   921   921   921      PRN / # OF OBS      
   G12   186   150   123   175   127   129   186   129      PRN / # OF OBS      
   G13     2     0     0     1     0     0     2     0      PRN / # OF OBS      
   G15   698   697   697   698   698   698   698   698      PRN / # OF OBS      
   G16   921   919   919   921   921   921   921   921      PRN / # OF OBS      
   G18   494   488   408   494   414   414   494   414      PRN / # OF OBS      
   G21   921   920   920   921   921   921   921   921      PRN / # OF OBS      
   G24   921   903   911   921   921   921   921   921      PRN / # OF OBS      
   G26   728   725   699   727   703   704   728   704      PRN / # OF OBS      
   G29   921   919   919   921   921   921   921   921      PRN / # OF OBS      
   G30   751   732   675   747   681   681   751   681      PRN / # OF OBS      
                                                            END OF HEADER       
 08  1 20 20 10 20.0000000  0 11G02G05G06G10G12G13G16G21G24G29G30   -0.000187691
  23058442.938 5     -3495.55315     -2723.80556   5985735.460 5   4630058.26446
  23058436.73446        40.700          22.500  
  23203875.328 5     -3936.51115     -3067.41256   6847885.795 5   5299365.71046
  23203870.35946        41.300          25.000  
  20772509.516 7      1182.01617       921.05358  -5607401.732 7  -4352181.47848
  20772504.62548        48.800          37.900  
  20725241.648 7      -621.63017      -484.38858  -2280557.040 7  -1766900.81848
  20725236.42648        49.100          36.700  
  24185903.117 5     -4055.68115     -3160.27056   7367567.737 5   5704521.56246
  24185900.21946        41.000          25.200  
  24877847.070 1                                                
                        24.600  
  25021240.719 3      2864.96013      2232.43356  -2328863.061 3  -1740487.21946
  25021235.34046        36.900          19.000  
  23198800.359 5      2600.45715      2026.33156  -4137416.526 5  -3116377.96246
  23198794.85546        42.000          24.400  
  20480636.508 7       733.05117       571.20758  -4669787.891 7  -3617482.58148
  20480632.45348        50.100          39.300  
  20342467.969 7       298.22317       232.38259  -3610839.560 7  -2808023.66649
  20342462.70749        49.100          43.700  
  22172194.453 6     -3356.68716     -2615.60057   4864206.216 6   3774860.43847
  22172190.42247        45.200          32.500  
 08  1 20 20 10 25.0000000  0 10G02G05G06G10G12G16G21G24G29G30   -0.000186708
  23061770.539 5     -3496.419 5     -2724.48246   6003217.555 5   4643680.67246
  23061763.78146        40.900          24.400  
  23207621.148 5     -3937.510 5     -3068.18846   6867573.348 5   5314706.65146
  23207617.08246        40.800          24.800  
  20771387.297 7      1179.827 7       919.34548  -5613300.866 7  -4356778.20348
  20771382.13748        49.900          37.800  
  20725836.625 7                                  -2277430.733 7  -1764464.73948
  20725831.37948        47.800          36.800  
  24189762.922 5     -4056.241 5     -3160.70546   7387848.941 5   5720325.08846
  24189759.88346        41.500          26.000  
  25018516.531 4      2863.490 4      2231.29545  -2343180.512 4  -1751643.69545
  25018511.02745        37.700          17.400  
  23196327.070 5      2599.580 5      2025.64546  -4150414.426 5  -3126506.18646
  23196321.32846        42.100          24.500  
  20479941.188 7       730.807 7       569.46048  -4673441.924 7  -3620329.87948
  20479937.73848        50.100          39.700  
  20342186.836 7       295.741 7       230.44849  -3612318.267 7  -2809175.90449
  20342182.17649        49.200          43.900  
  22175390.305 6     -3358.785 6     -2617.23447   4881000.140 6   3787946.60847
  22175386.34447        44.200          32.100  
 08  1 20 20 10 30.0000000  0 10G02G05G06G10G12G16G21G24G29G30   -0.000185724
  23065097.547 5     -3497.390 5     -2725.23946   6020704.507 5   4657306.86846
  23065091.32446        42.300          24.900  
  23211369.023 5     -3938.604 5     -3069.04046   6887266.365 5   5330051.85046
  23211364.49246        41.300          24.300  
  20770266.820 7      1177.524 7       917.55348  -5619188.488 7  -4361365.96648
  20770261.87948        49.800          37.800  
  20726434.836 7      -629.009 7      -490.13848  -2274285.688 7  -1762014.05048
  20726429.48048        47.800          36.500  
  24193622.727 5     -4056.902 5     -3161.22046   7408133.453 5   5736131.18846
  24193619.98046        40.900          23.000  
  25015792.750 3      2861.882 3      2230.03745  -2357489.923 3  -1762793.88045
  25015788.08245        37.200          17.400  
  23193854.836 5      2598.592 5      2024.87946  -4163407.385 5  -3136630.58246
  23193848.66446        41.900          25.200  
  20479247.875 7       728.448 7       567.62248  -4677084.162 7  -3623167.99048
  20479244.23448        49.900          39.700  
  20341907.484 7       293.149 7       228.42849  -3613784.011 7  -2810318.04549
  20341902.96949        48.900          43.900  
  22178588.586 6     -3360.986 6     -2618.94847   4897805.068 6   3801041.35147
  22178584.58247        44.400          32.300  
 08  1 20 20 10 35.0000000  0 10G02G05G06G10G12G16G21G24G29G30   -0.000184738
  23068426.367 5     -3498.425 5     -2726.04546   6038196.634 5   4670937.09446
  23068419.78146        42.200          24.700  
  23215117.641 5     -3939.766 5     -3069.94946   6906965.193 5   5345401.59446
  23215113.02746        40.800          25.200  
  20769148.742 7      1175.139 7       915.69148  -5625064.183 7  -4365944.42348
  20769143.63348        50.200          37.700  
  20727036.984 7      -632.819 7      -493.10648  -2271121.593 7  -1759548.52048
  20727031.76648        48.800          36.300  
  24197483.305 5     -4057.640 5     -3161.79546   7428421.651 5   5751940.16546
  24197481.21146        40.000          26.000  
  25013071.727 4      2860.222 4      2228.74645  -2371791.035 4  -1773937.60745
  25013066.94945        38.000          17.800  
  23191383.469 5      2597.524 5      2024.04446  -4176395.005 5  -3146750.80046
  23191376.86346        41.100          24.700  
  20478557.492 7       726.025 7       565.73348  -4680714.286 7  -3625996.65348
  20478553.79348        49.900          39.800  
  20341631.555 7       290.483 7       226.35149  -3615236.425 7  -2811449.80149
  20341626.34449        49.800          43.900  
  22181788.211 6     -3363.258 6     -2620.71947   4914621.358 6   3814144.94747
  22181784.49647        43.900          32.700  
 08  1 20 20 10 40.0000000  0 10G02G05G06G10G12G16G21G24G29G30   -0.000183754
  23071755.531 6     -3499.409 6     -2726.81447   6055693.679 6   4684571.16647
  23071749.23447        42.600          26.800  
  23218867.227 5     -3940.861 5     -3070.80246   6926669.498 5   5360755.60246
  23218862.74646        40.500          24.800  
  20768032.859 7      1172.825 7       913.89048  -5630928.306 7  -4370513.87248
  20768027.50448        49.800          37.700  
  20727642.984 6      -636.567 6      -496.02548  -2267938.759 6  -1757068.39348
  20727637.99648        47.000          36.500  
  24201345.094 5     -4058.297 5     -3162.31046   7448713.137 5   5767751.71546
  24201342.05546        39.700          24.200  
  25010351.250 4      2858.620 4      2227.49645  -2386084.133 4  -1785075.08745
  25010347.06345        37.700          17.800  
  23188912.391 5      2596.540 5      2023.27646  -4189377.706 5  -3156867.17946
  23188906.75846        41.700          25.400  
  20477868.789 7       723.670 7       563.90048  -4684332.638 7  -3628816.15348
  20477865.07848        50.700          39.900  
  20341357.414 7       287.883 7       224.32349  -3616675.838 7  -2812571.41749
  20341352.76249        48.600          43.800  
  22184990.617 6     -3365.452 6     -2622.43047   4931448.616 6   3827257.09647
  22184987.09447        43.500          32.300  
 08  1 20 20 10 45.0000000  0 10G02G05G06G10G12G16G21G24G29G30   -0.000182768
  23075086.398 5     -3500.352 5     -2727.54446   6073195.440 5   4698208.88946
  23075080.00446        42.400          25.900  
  23222617.461 5     -3941.917 5     -3071.62146   6946379.086 5   5376113.70546
  23222613.07446        40.300          22.600  
  20766918.867 7      1170.558 7       912.12248  -5636781.097 7  -4375074.48448
  20766914.00048        50.300          37.800  
  20728251.703 7      -640.276 7      -498.91648  -2264737.381 7  -1754573.81348
  20728246.62948        47.600          36.200  
  24205206.445 5     -4058.919 5     -3162.79246   7469007.732 5   5783565.67546
  24205203.57446        40.500          24.300  
  25007632.578 3      2857.060 3      2226.27745  -2400369.433 3  -1796206.47045
  25007628.39845        37.100          16.900  
  23186442.898 5      2595.576 5      2022.52646  -4202355.588 5  -3166979.81046
  23186437.35246        41.300          25.800  
  20477182.422 7       721.344 7       562.08548  -4687939.359 7  -3631626.57848
  20477178.90248        50.600          39.900  
  20341086.063 7       285.321 7       222.32949  -3618102.444 7  -2813683.06349
  20341081.12949        48.700          43.700  
  22188194.281 6     -3367.623 6     -2624.11947   4948286.729 6   3840377.69247
  22188190.93847        44.100          31.600  
 08  1 20 20 10 50.0000000  0 10G02G05G06G10G12G16G21G24G29G30   -0.000181782
  23078417.336 6     -3501.288 6     -2728.27746   6090701.879 6   4711850.27246
  23078411.21946        43.000          23.900  
  23226369.688 5     -3942.961 5     -3072.43946   6966093.893 5   5391475.90246
  23226364.78146        40.500          22.500  
  20765807.469 7      1168.298 7       910.36348  -5642622.585 7  -4379626.29848
  20765802.20348        50.700          38.000  
  20728864.203 6      -643.964 6      -501.78948  -2261517.563 6  -1752064.86748
  20728859.50848        47.300          36.400  
  24209069.336 5     -4059.525 5     -3163.26446   7489305.355 5   5799381.99546
  24209066.35546        40.300          22.600  
  25004916.148 4      2855.528 4      2225.08645  -2414647.073 4  -1807331.90145
  25004911.64845        37.600          17.400  
  23183974.711 5      2594.619 5      2021.77946  -4215328.681 5  -3177088.70346
  23183968.50046        41.900          23.900  
  20476498.336 7       719.035 7       560.28848  -4691534.532 7  -3634428.01748
  20476494.29348        50.800          40.000  
  20340817.102 7       282.769 7       220.34049  -3619516.288 7  -2814784.76449
  20340812.19149        49.000          44.000  
  22191400.578 6     -3369.763 6     -2625.78847   4965135.544 6   3853506.63147
  22191397.08247        44.700          31.900  
 08  1 20 20 10 55.0000000  0 10G02G05G06G10G12G16G21G24G29G30   -0.000180794
  23081749.406 5     -3502.137 5     -2728.93746   6108212.565 5   4725494.95546
  23081743.35546        42.400          25.700  
  23230121.617 5     -3943.918 5     -3073.18246   6985813.484 5   5406841.81346
  23230117.47746        40.300          22.900  
  20764697.766 7      1166.100 7       908.64948  -5648453.083 7  -4384169.54348
  20764692.65648        50.000          37.900  
  20729480.492 7      -647.579 7      -504.60848  -2258279.669 7  -1749541.82548
  20729475.08248        47.900          36.100  
  24212932.680 5     -4060.052 5     -3163.67346   7509605.617 5   5815200.36146
  24212929.21946        39.900          22.900  
  25002200.594 3      2854.031 3      2223.91845  -2428917.229 3  -1818451.49045
  25002196.18445        37.200          16.900  
  23181505.969 5      2593.749 5      2021.10346  -4228297.427 5  -3187194.21746
  23181500.34446        41.100          24.800  
  20475816.445 7       716.803 7       558.54848  -4695118.545 7  -3637220.75548
  20475812.80948        50.500          40.100  
  20340550.133 7       280.298 7       218.41349  -3620917.778 7  -2815876.83049
  20340545.19949        49.600          43.900  
  22194608.695 6     -3371.831 6     -2627.40147   4981994.697 6   3866643.63447
  22194605.20747        44.300          31.100  
 08  1 20 20 11  0.0000000  0 10G02G05G06G10G12G16G21G24G29G30   -0.000179808
  23085083.039 6     -3503.093 6     -2729.68147   6125728.031 6   4739143.36247
  23085077.23447        43.200          26.800  
  23233875.758 5     -3944.980 5     -3074.01346   7005538.387 5   5422211.87746
  23233871.23446        41.000          23.000  
  20763590.375 7      1163.799 7       906.85848  -5654272.078 7  -4388703.83348
  20763585.61348        49.100          38.000  
  20730100.195 6      -651.291 6      -507.49948  -2255023.216 6  -1747004.32948
  20730095.00448        47.300          36.200  
  24216796.688 5     -4060.686 5     -3164.16946   7529909.047 5   5831021.20846
  24216793.15646        40.600          22.800  
  24999486.656 4      2852.441 4      2222.68245  -2443179.432 4  -1829564.89845
  24999482.00445        37.600          16.300  
  23179039.961 5      2592.773 5      2020.33946  -4241261.291 5  -3197295.91446
  23179033.67246        40.800          24.100  
  20475136.914 7       714.466 7       556.72748  -4698690.875 7  -3640004.38848
  20475133.31348        51.000          40.400  
  20340285.844 7       277.718 7       216.40349  -3622306.370 7  -2816958.84649
  20340281.33249        48.600          44.000  
  22197818.813 6     -3374.000 6     -2629.09147   4998864.699 6   3879789.08847
  22197815.58247        44.100          31.200  
 08  1 20 20 11  5.0000000  0 10G02G05G06G10G12G16G21G24G29G30   -0.000178820
  23088416.672 6     -3504.013 6     -2730.39746   6143248.099 6   4752795.34646
  23088411.10246        42.800          24.400  
  23237629.602 5     -3946.006 5     -3074.80746   7025268.419 5   5437585.91446
  23237625.59846        41.600          23.900  
  20762485.219 7      1161.534 7       905.09148  -5660079.748 7  -4393229.28648
  20762480.27348        49.600          38.000  
  20730723.344 7      -654.976 7      -510.37148  -2251748.338 7  -1744452.47648
  20730717.93448        48.500          36.400  
  24220660.242 5     -4061.277 5     -3164.62946   7550215.431 5   5846844.35446
  24220657.09846        40.100          24.700  
  24996774.719 4      2850.867 4      2221.45345  -2457433.766 4  -1840672.16145
  24996770.28145        37.500          17.400  
  23176573.992 5      2591.827 5      2019.60746  -4254220.428 5  -3207393.95146
  23176568.10946        41.400          25.200  
  20474458.922 7       712.161 7       554.93148  -4702251.679 7  -3642779.04248
  20474455.24248        50.500          40.400  
  20340023.922 7       275.163 7       214.41449  -3623682.186 7  -2818030.91449
  20340019.52749        49.100          43.900  
  22201031.531 6     -3376.127 6     -2630.74647   5015745.335 6   3892942.81847
  22201028.05547        43.200          31.700  
 08  1 20 20 11 10.0000000  0 10G02G05G06G10G12G16G21G24G29G30   -0.000177832
  23091751.867 6     -3505.033 6     -2731.19447   6160773.262 6   4766451.31447
  23091746.36747        43.200          26.800  
  23241385.789 5     -3947.155 5     -3075.70346   7045004.194 5   5452964.43146
  23241381.89846        41.700          26.200  
  20761382.305 7      1159.162 7       903.24348  -5665875.558 7  -4397745.50148
  20761377.77048        49.800          38.000  
  20731350.289 7      -658.767 7      -513.32648  -2248454.505 7  -1741885.84848
  20731344.82048        50.000          36.200  
  24224525.188 5     -4061.980 5     -3165.17546   7570525.333 5   5862670.23146
  24224522.26646        40.200          22.900  
  24994063.461 4      2849.195 4      2220.15645  -2471679.742 4  -1851772.94345
  24994058.55145        37.500          17.400  
  23174108.547 5      2590.773 5      2018.78046  -4267174.291 5  -3217487.85246
  23174102.69946        41.800          24.900  
  20473783.625 7       709.744 7       553.04648  -4705800.397 7  -3645544.27148
  20473779.59048        50.700          40.500  
  20339765.133 7       272.500 7       212.33849  -3625044.688 7  -2819092.60549
  20339760.55949        49.100          44.000  
  22204245.781 6     -3378.372 6     -2632.49847   5032637.194 6   3906105.31047
  22204242.17647        43.400          31.900  
 08  1 20 20 11 15.0000000  0 10G02G05G06G10G12G16G21G24G29G30   -0.000176844
  23095088.383 6     -3505.995 6     -2731.94247   6178303.234 6   4780111.02647
  23095081.86747        43.800          27.300  
  23245141.406 5     -3948.210 5     -3076.52946   7064745.246 5   5468347.07646
  23245138.25846        41.400          22.800  
  20760281.688 7      1156.842 7       901.43548  -5671659.766 7  -4402252.67848
  20760277.25048        50.700          38.000  
  20731980.641 7      -662.507 7      -516.23948  -2245141.972 7  -1739304.65448
  20731975.51248        49.700          36.400  
  24228390.563 5     -4062.615 5     -3165.67347   7590838.408 5   5878498.59547
  24228387.94947        40.200          26.400  
  24991354.828 4      2847.598 4      2218.90345  -2485917.733 4  -1862867.45845
  24991349.28145        38.600          17.400  
  23171644.883 6      2589.786 6      2018.01546  -4280123.222 6  -3227577.92646
  23171638.57846        42.800          25.600  
  20473110.781 7       707.394 7       551.21648  -4709337.366 7  -3648300.35248
  20473107.16048        50.800          40.600  
  20339508.117 7       269.904 7       210.31549  -3626394.209 7  -2820144.17949
  20339503.55149        49.100          44.000  
  22207462.031 6     -3380.546 6     -2634.19347   5049539.926 6   3919276.27247
  22207458.60547        44.400          31.900  
 08  1 20 20 11 20.0000000  0 10G02G05G06G10G12G16G21G24G29G30   -0.000175856
  23098425.523 6     -3506.893 6     -2732.64247   6195837.698 6   4793774.23647
  23098418.24647        43.400          26.900  
  23248898.930 5     -3949.218 5     -3077.31146   7084491.337 5   5483733.62946
  23248895.77746        41.600          22.900  
  20759183.031 7      1154.602 7       899.68948  -5677432.775 7  -4406751.12348
  20759178.59448        50.000          38.000  
  20732614.375 7      -666.184 7      -519.10648  -2241811.050 7  -1736709.12648
  20732609.47348        49.900          36.400  
  24232257.391 5     -4063.187 5     -3166.11946   7611154.344 5   5894329.18946
  24232253.79746        39.500          24.400  
  24988646.594 4      2846.040 4      2217.69745  -2500147.931 4  -1873955.94045
  24988641.27045        38.900          17.800  
  23169181.570 5      2588.858 5      2017.29047  -4293067.510 5  -3237664.37647
  23169175.48847        42.200          26.800  
  20472439.953 7       705.108 7       549.43548  -4712862.906 7  -3651047.52848
  20472436.47348        51.200          40.700  
  20339253.609 7       267.367 7       208.33749  -3627731.043 7  -2821185.86449
  20339249.06349        49.300          44.000  
  22210680.258 6     -3382.661 6     -2635.83947   5066453.230 6   3932455.46947
  22210676.93047        44.300          31.400  
 08  1 20 20 11 25.0000000  0 10G02G05G06G10G12G16G21G24G29G30   -0.000174866
  23101763.164 6     -3507.850 6     -2733.39047   6213376.947 6   4807441.18547
  23101755.85547        43.400          27.100  
  23252657.883 5     -3950.294 5     -3078.15246   7104242.808 5   5499124.38846
  23252654.20746        41.600          23.400  
  20758086.438 7      1152.265 7       897.87048  -5683194.103 7  -4411240.47148
  20758081.83648        48.300          37.700  
  20733251.539 7      -669.917 7      -522.01448  -2238461.465 7  -1734099.05448
  20733246.91448        48.700          36.100  
  24236123.828 5     -4063.832 5     -3166.62146   7631473.501 5   5910162.29246
  24236120.25846        40.200          23.500  
  24985940.359 4      2844.410 4      2216.42245  -2514369.981 4  -1885038.04945
  24985934.68445        39.100          18.300  
  23166718.828 5      2587.857 5      2016.51146  -4306006.795 5  -3247746.93346
  23166713.10546        41.400          25.700  
  20471771.375 7       702.748 7       547.59548  -4716376.645 7  -3653785.50448
  20471767.19548        50.800          40.600  
  20339001.883 7       264.759 7       206.30649  -3629054.839 7  -2822217.39549
  20338997.00849        48.500          44.000  
  22213901.258 6     -3384.838 6     -2637.53647   5083377.422 6   3945643.14747
  22213897.43047        44.100          31.000  
 08  1 20 20 11 30.0000000  0 10G02G05G06G10G12G16G21G24G29G30   -0.000173876
  23105101.008 6     -3508.868 6     -2734.17946   6230921.285 6   4821112.08246
  23105094.38746        43.700          26.200  
  23256417.852 5     -3951.403 5     -3079.01546   7123999.821 5   5514519.46446
  23256414.13346        41.800          25.200  
  20756992.781 7      1149.896 7       896.02248  -5688943.584 7  -4415720.58048
  20756988.25448        49.500          38.000  
  20733892.445 7      -673.690 7      -524.95448  -2235093.015 7  -1731474.28248
  20733888.20748        49.600          36.400  
  24239991.164 5     -4064.517 5     -3167.15146   7651796.085 5   5925998.04846
  24239987.34446        40.400          21.800  
  24983235.430 5      2842.726 5      2215.11346  -2528583.609 5  -1896113.61146
  24983230.11746        39.400          19.600  
  23164257.781 6      2586.803 6      2015.68846  -4318940.809 6  -3257825.37546
  23164251.74246        42.600          25.800  
  20471104.859 7       700.344 7       545.72348  -4719878.365 7  -3656514.12148
  20471100.58648        51.200          40.800  
  20338752.344 7       262.111 7       204.24249  -3630365.394 7  -2823238.60549
  20338747.75849        49.200          44.100  
  22217124.211 6     -3387.063 6     -2639.26847   5100312.737 6   3958839.48847
  22217120.18847        45.100          31.600  
 08  1 20 20 11 35.0000000  0 10G02G05G06G10G12G16G21G24G29G30   -0.000172884
  23108440.594 6     -3509.831 6     -2734.93447   6248470.438 6   4834786.75147
  23108433.96547        43.100          26.800  
  23260178.164 5     -3952.457 5     -3079.83546   7143762.106 5   5529918.63846
  23260174.59046        42.200          23.200  
  20755900.727 7      1147.575 7       894.21448  -5694681.457 7  -4420191.65148
  20755895.92648        49.700          38.200  
  20734537.164 7      -677.411 7      -527.85148  -2231705.960 7  -1728835.02648
  20734532.66848        47.900          36.400  
  24243858.766 5     -4065.148 5     -3167.64646   7672121.826 5   5941836.27646
  24243855.53146        39.200          24.000  
  24980532.414 5      2841.112 5      2213.85446  -2542789.170 5  -1907182.88346
  24980526.40246        39.300          20.400  
  23161797.078 5      2585.804 5      2014.91346  -4331869.827 5  -3267899.94146
  23161791.51246        42.000          26.100  
  20470440.836 7       697.994 7       543.89148  -4723368.336 7  -3659233.57448
  20470436.78148        51.000          40.900  
  20338505.578 7       259.499 7       202.20749  -3631662.889 7  -2824249.64049
  20338501.07449        49.200          44.000  
  22220348.422 6     -3389.236 6     -2640.96347   5117258.919 6   3972044.30547
  22220344.67647        43.900          31.600  
 08  1 20 20 11 40.0000000  0 10G02G05G06G10G12G16G21G24G29G30   -0.000171894
  23111780.883 6     -3510.827 6     -2735.70847   6266024.573 6   4848465.29047
  23111774.03147        43.400          27.200  
  23263939.977 6     -3953.570 6     -3080.70346   7163529.954 6   5545322.15246
  23263936.34046        42.500          24.700  
  20754810.828 7      1145.211 7       892.37248  -5700407.513 7  -4424653.51448
  20754806.88348        48.200          38.400  
  20735185.320 7      -681.199 7      -530.80548  -2228299.967 7  -1726181.00348
  20735180.84448        48.600          36.500  
  24247727.711 5     -4065.817 5     -3168.16646   7692450.910 5   5957677.10646
  24247723.75846        39.400          22.000  
  24977830.281 4      2839.429 4      2212.54146  -2556986.316 4  -1918245.58646
  24977825.16846        38.500          19.900  
  23159338.195 6      2584.759 6      2014.09546  -4344793.621 6  -3277970.41646
  23159332.58646        42.700          26.200  
  20469778.813 7       695.588 7       542.01648  -4726846.274 7  -3661943.65448
  20469775.00848        50.700          40.600  
  20338261.180 7       256.846 7       200.14049  -3632947.121 7  -2825250.34049
  20338256.47749        48.500          43.900  
  22223575.320 6     -3391.442 6     -2642.68047   5134216.127 6   3985257.70647
  22223571.47747        43.200          31.800  
 08  1 20 20 11 45.0000000  0 10G02G05G06G10G12G16G21G24G29G30   -0.000170902
  23115122.000 6     -3511.795 6     -2736.46547   6283583.550 6   4862147.61547
  23115115.37147        42.900          26.400  
  23267703.047 5     -3954.641 5     -3081.53946   7183303.157 5   5560729.84646
  23267699.19146        41.300          24.800  
  20753723.766 7      1142.861 7       890.54348  -5706121.819 7  -4429106.22748
  20753718.93048        49.500          38.000  
  20735837.156 7      -684.924 7      -533.70648  -2224875.347 7  -1723512.47448
  20735832.27348        49.300          36.200  
  24251597.008 5     -4066.448 5     -3168.66346   7712783.151 5   5973520.41946
  24251593.05546        39.700          24.300  
  24975130.602 5      2837.801 5      2211.26846  -2571175.319 5  -1929301.92646
  24975124.93846        39.600          19.000  
  23156879.859 5      2583.753 5      2013.31346  -4357712.385 5  -3288036.98346
  23156873.98446        41.800          26.200  
  20469119.227 7       693.229 7       540.17948  -4730312.419 7  -3664644.54848
  20469115.45348        51.300          40.800  
  20338019.203 7       254.227 7       198.09949  -3634218.256 7  -2826240.83349
  20338014.55149        49.500          44.000  
  22226804.211 6     -3393.612 6     -2644.37347   5151184.186 6   3998479.57247
  22226800.54347        44.100          31.400  
 08  1 20 20 11 50.0000000  0 10G02G05G06G10G12G16G21G24G29G30   -0.000169910
  23118464.797 6     -3512.710 6     -2737.17547   6301147.102 6   4875833.49147
  23118457.94547        43.700          27.300  
  23271466.867 5     -3955.638 5     -3082.31346   7203081.346 5   5576141.41046
  23271462.57446        42.100          26.000  
  20752638.625 7      1140.583 7       888.76548  -5711824.734 7  -4433550.05248
  20752633.65648        49.100          37.900  
  20736492.469 6      -688.624 6      -536.59148  -2221432.227 6  -1720829.52148
  20736487.50848        47.500          36.600  
  24255466.609 5     -4067.019 5     -3169.09946   7733118.246 5   5989365.91446
  24255462.82446        39.900          22.800  
  24972431.805 5      2836.209 5      2210.03346  -2585356.365 5  -1940352.09046
  24972426.24246        39.900          19.300  
  23154422.289 5      2582.794 5      2012.56647  -4370626.354 5  -3298099.81547
  23154416.53947        42.400          26.800  
  20468462.086 7       690.915 7       538.37448  -4733766.992 7  -3667336.41948
  20468457.97348        51.600          40.800  
  20337779.781 7       251.658 7       196.09749  -3635476.546 7  -2827221.31949
  20337775.18849        48.300          44.000  
  22230035.500 6     -3395.730 6     -2646.02047   5168162.834 6   4011709.67247
  22230031.86747        44.100          30.400  
 08  1 20 20 11 55.0000000  0 10G02G05G06G10G12G16G21G24G29G30   -0.000168917
  23121807.211 6     -3513.564 6     -2737.83947   6318714.923 6   4889522.68647
  23121801.17647        42.800          26.700  
  23275230.891 5     -3956.590 5     -3083.05546   7222864.294 5   5591556.68846
  23275227.32446        42.000          24.500  
  20751555.289 7      1138.364 7       887.03848  -5717516.556 7  -4437985.24148
  20751550.91048        50.100          38.000  
  20737151.492 7      -692.258 7      -539.42148  -2217970.936 7  -1718132.41848
  20737146.38348        49.700          36.600  
  24259337.039 5     -4067.531 5     -3169.50346   7753455.903 5   6005213.42946
  24259332.56346        39.300          23.500  
  24969734.633 5      2834.683 5      2208.84345  -2599529.779 5  -1951396.30545
  24969729.85245        40.200          18.300  
  23151965.664 6      2581.906 6      2011.87346  -4383535.881 6  -3308159.18246
  23151959.90246        42.700          25.500  
  20467806.641 7       688.663 7       536.62248  -4737210.308 7  -3670019.52848
  20467802.77348        50.500          40.600  
  20337542.734 7       249.157 7       194.14849  -3636722.333 7  -2828192.06149
  20337538.02749        49.700          43.700  
  22233268.328 6     -3397.777 6     -2647.61847   5185151.718 6   4024947.76147
  22233264.36747        44.200          30.400  
 08  1 20 20 12  0.0000000  0 10G02G05G06G10G12G16G21G24G29G30   -0.000167925
  23125150.867 5     -3514.449 5     -2738.52847   6336287.169 5   4903215.32647
  23125145.28947        42.100          26.900  
  23278996.594 5     -3957.567 5     -3083.81946   7242652.131 5   5606975.78446
  23278992.27746        41.400          22.800  
  20750474.711 7      1136.114 7       885.28448  -5723197.126 7  -4442411.66148
  20750469.60948        50.200          38.000  
  20737813.555 7      -695.902 7      -542.26148  -2214491.427 7  -1715421.11548
  20737808.79748        48.300          36.600  
  24263206.977 5     -4068.068 5     -3169.92246   7773796.243 5   6021063.04146
  24263203.12946        39.500          24.400  
  24967038.891 5      2833.121 5      2207.63245  -2613695.382 5  -1962434.46545
  24967033.92245        40.500          18.300  
  23149510.133 6      2580.974 6      2011.14547  -4396440.752 6  -3318214.90847
  23149504.15247        42.700          26.700  
  20467153.594 7       686.388 7       534.84748  -4740642.246 7  -3672693.76448
  20467149.35548        50.400          40.600  
  20337308.188 7       246.617 7       192.16949  -3637955.418 7  -2829152.90749
  20337303.64149        49.100          43.700  
  22236503.352 6     -3399.853 6     -2649.23447   5202150.981 6   4038193.93047
  22236498.71947        44.200          30.400  
 08  1 20 20 12  5.0000000  0 10G02G05G06G10G12G16G21G24G29G30   -0.000166931
  23128495.570 5     -3515.393 5     -2739.26647   6353864.136 5   4916911.65547
  23128490.01247        42.300          26.800  
  23282763.547 5     -3958.607 5     -3084.62646   7262445.168 5   5622398.91646
  23282759.39846        41.400          25.400  
  20749395.766 7      1133.776 7       883.46248  -5728866.007 7  -4446828.97048
  20749391.16048        49.300          38.100  
  20738479.227 7      -699.611 7      -545.15248  -2210993.374 7  -1712695.35748
  20738474.05148        50.300          36.600  
  24267079.156 5     -4068.680 5     -3170.39746   7794139.644 5   6036915.02446
  24267074.31346        39.400          22.800  
  24964344.750 5      2831.481 5      2206.34546  -2627852.787 5  -1973466.19046
  24964340.02746        40.900          19.600  
  23147055.609 6      2579.974 6      2010.37046  -4409340.623 6  -3328266.76146
  23147049.78146        42.600          25.400  
  20466502.906 7       684.032 7       533.01148  -4744062.405 7  -3675358.82048
  20466499.16048        51.000          40.500  
  20337075.703 7       244.014 7       190.14049  -3639175.486 7  -2830103.60649
  20337071.31349        50.100          43.700  
  22239739.742 6     -3402.005 6     -2650.91447   5219161.009 6   4051448.49747
  22239735.93847        44.200          29.800  
 08  1 20 20 12 10.0000000  0 10G02G05G06G10G12G16G21G24G29G30   -0.000165937
  23131841.242 5     -3516.302 5     -2739.97547   6371445.647 5   4930611.52847
  23131835.86347        42.300          27.000  
  23286530.594 5     -3959.601 5     -3085.40347   7282243.171 5   5637825.93347
  23286527.04747        41.000          26.400  
  20748319.289 7      1131.489 7       881.67948  -5734523.450 7  -4451237.36648
  20748314.61748        50.000          37.800  
  20739148.258 7      -703.305 7      -548.02948  -2207476.851 7  -1709955.21448
  20739143.39848        48.100          36.900  
  24270950.242 4     -4069.247 4     -3170.84446   7814485.877 4   6052769.24246
  24270945.66446        38.700          22.500  
  24961652.063 5      2829.887 5      2205.10946  -2642002.225 5  -1984491.73446
  24961647.43046        40.200          19.000  
  23144601.211 5      2579.025 5      2009.62847  -4422235.746 5  -3338314.90047
  23144595.77747        42.100          27.100  
  20465854.289 7       681.727 7       531.21648  -4747471.038 7  -3678014.89948
  20465850.06648        50.300          40.400  
  20336846.313 7       241.446 7       188.14049  -3640382.717 7  -2831044.30749
  20336841.69949        48.800          43.600  
  22242978.672 6     -3404.110 6     -2652.55247   5236181.557 6   4064711.25947
  22242974.90647        43.600          30.600  
 08  1 20 20 12 15.0000000  0 10G02G05G06G10G12G16G21G24G29G30   -0.000164944
  23135187.930 6     -3517.329 6     -2740.77547   6389032.292 6   4944315.40347
  23135182.65647        43.000          27.200  
  23290299.453 5     -3960.723 5     -3086.27546   7302046.788 5   5653257.30846
  23290295.03546        41.300          24.200  
  20747244.977 7      1129.076 7       879.80048  -5740168.832 7  -4455636.36848
  20747240.32448        50.600          38.100  
  20739821.258 7      -707.115 7      -550.99948  -2203941.277 7  -1707200.22048
  20739816.34048        49.600          36.800  
  24274822.719 4     -4069.941 4     -3171.38246   7834835.584 4   6068626.15046
  24274818.47346        38.500          22.500  
  24958961.000 5      2828.183 5      2203.77746  -2656143.142 5  -1995510.61846
  24958956.27046        40.400          19.000  
  23142148.148 5      2577.939 5      2008.78346  -4435125.439 5  -3348358.81346
  23142142.85546        41.600          25.200  
  20465207.977 7       679.292 7       529.31948  -4750867.496 7  -3680661.49348
  20465203.84448        50.500          40.400  
  20336619.133 7       238.758 7       186.04649  -3641576.507 7  -2831974.53949
  20336614.33649        49.400          43.500  
  22246219.711 6     -3406.335 6     -2654.28647   5253213.233 6   4077982.69047
  22246215.90647        44.100          30.700  
 08  1 20 20 12 20.0000000  0 10G02G05G06G10G12G16G21G24G29G30   -0.000163950
  23138535.531 6     -3518.175 6     -2741.43547   6406623.169 6   4958022.57847
  23138529.62147        42.600          26.700  
  23294068.313 5     -3961.661 5     -3087.00846   7321855.092 5   5668692.34946
  23294064.50446        41.500          24.800  
  20746172.617 7      1126.838 7       878.05548  -5745803.022 7  -4460026.64648
  20746167.95748        49.500          38.000  
  20740497.461 7      -710.731 7      -553.81648  -2200387.620 7  -1704431.13848
  20740492.32848        49.500          36.700  
  24278695.984 4     -4070.447 4     -3171.77246   7855187.816 4   6084485.00946
  24278691.18846        38.700          22.500  
  24956272.430 5      2826.634 5      2202.57246  -2670276.311 5  -2006523.47746
  24956266.62546        40.600          19.000  
  23139696.422 5      2577.033 5      2008.07946  -4448010.604 5  -3358399.20746
  23139690.66446        41.800          25.700  
  20464563.844 7       677.042 7       527.56548  -4754252.704 7  -3683299.31748
  20464559.75848        51.300          40.500  
  20336394.234 7       236.243 7       184.08649  -3642757.721 7  -2832894.96849
  20336389.66449        49.100          43.500  
  22249462.906 6     -3408.381 6     -2655.87947   5270255.137 6   4091262.08647
  22249458.58247        44.000          31.100  
 08  1 20 20 12 25.0000000  0 10G02G05G06G10G12G16G21G24G29G30   -0.000162954
  23141883.492 5     -3519.201 5     -2742.23347   6424219.174 5   4971733.74247
  23141878.23447        41.900          26.500  
  23297839.398 5     -3962.772 5     -3087.87446   7341668.950 5   5684131.72046
  23297834.88746        42.300          24.900  
  20745102.898 7      1124.420 7       876.17148  -5751425.121 7  -4464407.49848
  20745098.30548        49.200          38.000  
  20741177.289 7      -714.522 7      -556.77048  -2196815.010 7  -1701647.28948
  20741172.22348        49.400          36.800  
  24282569.750 4     -4071.128 4     -3172.30646   7875543.455 4   6100346.53846
  24282564.88346        39.000          23.800  
  24953584.078 5      2824.901 5      2201.21946  -2684400.813 5  -2017529.57046
  24953578.95346        40.200          19.900  
  23137245.359 5      2575.948 5      2007.23046  -4460890.341 5  -3368435.35846
  23137239.58246        41.200          25.600  
  20463921.945 7       674.613 7       525.67248  -4757625.769 7  -3685927.68048
  20463917.95748        50.700          40.400  
  20336171.930 7       233.561 7       181.99549  -3643925.523 7  -2833804.94149
  20336167.30549        49.100          43.500  
  22252708.055 6     -3410.587 6     -2657.60047   5287308.074 6   4104550.08447
  22252703.83647        44.500          30.500  
 08  1 20 20 12 30.0000000  0 10G02G05G06G10G12G16G21G24G29G30   -0.000161959
  23145233.211 6     -3520.206 6     -2743.01647   6441820.204 6   4985448.82347
  23145227.41847        42.700          27.300  
  23301610.758 5     -3963.862 5     -3088.72246   7361488.261 5   5699575.32846
  23301606.35946        42.200          25.300  
  20744035.180 7      1122.022 7       874.30248  -5757035.231 7  -4468779.00848
  20744030.57448        49.700          38.200  
  20741860.563 7      -718.328 7      -559.73548  -2193223.370 7  -1698848.61248
  20741855.56648        49.000          37.000  
  24286443.938 5     -4071.799 5     -3172.82446   7895902.451 5   6116210.66046
  24286439.16846        39.200          23.000  
  24950897.625 5      2823.193 5      2199.89446  -2698516.778 5  -2028529.04246
  24950892.83646        40.000          19.900  
  23134795.766 5      2574.879 5      2006.39846  -4473764.735 5  -3378467.34846
  23134789.99646        41.500          26.000  
  20463282.406 7       672.194 7       523.78748  -4760986.740 7  -3688546.61748
  20463278.35548        50.600          40.300  
  20335952.281 7       230.874 7       179.90149  -3645079.892 7  -2834704.44749
  20335947.38749        49.100          43.600  
  22255955.195 6     -3412.792 6     -2659.31747   5304372.036 6   4117846.67147
  22255951.21547        43.700          31.200  
 08  1 20 20 12 35.0000000  0 10G02G05G06G10G12G16G21G24G29G30   -0.000160963
  23148582.953 6     -3521.094 6     -2743.70947   6459425.673 6   4999167.37047
  23148577.41447        43.200          26.400  
  23305383.391 5     -3964.844 5     -3089.49046   7381312.479 5   5715022.77846
  23305378.92246        41.900          25.600  
  20742969.758 7      1119.738 7       872.52448  -5762633.920 7  -4473141.62848
  20742965.45348        49.300          38.200  
  20742547.594 7      -721.991 7      -562.59048  -2189613.417 7  -1696035.66148
  20742542.66048        49.800          36.700  
  24290318.672 4     -4072.344 4     -3173.25546   7916264.170 4   6132076.93646
  24290313.59446        38.700          22.500  
  24948213.156 5      2821.585 5      2198.63746  -2712624.704 5  -2039522.22846
  24948208.38746        40.000          19.600  
  23132346.359 5      2573.923 5      2005.65446  -4486634.349 5  -3388495.61846
  23132341.17246        40.900          24.900  
  20462644.836 7       669.894 7       521.99348  -4764336.208 7  -3691156.58448
  20462641.03948        51.200          40.300  
  20335735.109 7       228.311 7       177.90449  -3646221.446 7  -2835593.97049
  20335730.30549        49.300          43.500  
  22259204.203 6     -3414.872 6     -2660.93847   5321446.394 6   4131151.35847
  22259200.28147        44.300          30.800  
 08  1 20 20 12 40.0000000  0 10G02G05G06G10G12G16G21G24G29G30   -0.000159966
  23151934.016 6     -3521.961 6     -2744.38547   6477035.478 6   5012889.29547
  23151928.52347        42.600          26.600  
  23309156.766 5     -3965.771 5     -3090.20846   7401141.334 5   5730473.81546
  23309152.19146        42.200          25.800  
  20741906.672 7      1117.486 7       870.76948  -5768221.351 7  -4477495.47348
  20741902.12948        49.600          38.100  
  20743237.695 6      -725.604 6      -565.40548  -2185985.396 6  -1693208.63648
  20743232.93048        47.000          36.600  
  24294193.758 5     -4072.867 5     -3173.66046   7936628.505 5   6147945.23346
  24294188.84046        39.800          22.500  
  24945530.125 5      2820.027 5      2197.42546  -2726724.838 5  -2050509.35346
  24945525.62146        40.400          20.600  
  23129898.492 5      2573.007 5      2004.94146  -4499499.382 5  -3398520.32546
  23129892.82846        41.700          25.600  
  20462009.445 7       667.627 7       520.22948  -4767674.344 7  -3693757.72948
  20462005.88348        51.300          40.300  
  20335520.281 7       225.787 7       175.93949  -3647350.379 7  -2836473.66549
  20335515.58249        48.900          43.500  
  22262455.711 6     -3416.911 6     -2662.52647   5338530.949 6   4144463.98947
  22262451.08247        44.700          30.600  
 08  1 20 20 12 45.0000000  0 10G02G05G06G10G12G16G21G24G29G30   -0.000158968
  23155285.656 6     -3522.839 6     -2745.06947   6494649.675 6   5026614.64147
  23155280.78947        43.200          26.500  
  23312931.391 5     -3966.752 5     -3090.97746   7420975.094 5   5745928.70146
  23312926.57846        42.300          25.200  
  20740845.828 7      1115.188 7       868.97848  -5773797.292 7  -4481840.36048
  20740840.80548        49.800          38.200  
  20743931.813 7      -729.271 7      -568.26348  -2182339.039 7  -1690367.32048
  20743926.42648        48.400          36.800  
  24298069.125 5     -4073.404 5     -3174.08246   7956995.526 5   6163815.64346
  24298064.45346        39.400          22.000  
  24942847.969 5      2818.438 5      2196.17746  -2740817.026 5  -2061490.24046
  24942843.78946        40.200          19.600  
  23127451.047 5      2572.050 5      2004.19146  -4512359.632 5  -3408541.28046
  23127445.62146        41.600          26.200  
  20461376.547 7       665.331 7       518.43848  -4771000.998 7  -3696349.91948
  20461372.57848        51.100          40.400  
  20335308.195 7       223.222 7       173.93949  -3648466.489 7  -2837343.36149
  20335303.07049        48.800          43.500  
  22265708.766 6     -3418.992 6     -2664.14947   5355625.908 6   4157784.73247
  22265704.55547        44.700          30.500  
 08  1 20 20 12 50.0000000  0 10G02G05G06G10G12G16G21G24G29G30   -0.000157972
  23158638.523 6     -3523.800 6     -2745.82047   6512268.674 6   5040343.74147
  23158633.14147        43.700          26.900  
  23316706.016 5     -3967.783 5     -3091.77446   7440814.011 5   5761387.57346
  23316701.48846        42.200          26.100  
  20739786.656 7      1112.828 7       867.14048  -5779361.433 7  -4486176.06348
  20739782.00048        49.800          38.300  
  20744629.305 7      -733.001 7      -571.16948  -2178674.034 7  -1687511.47748
  20744624.14548        49.400          36.200  
  24301945.328 5     -4074.013 5     -3174.55146   7977365.590 5   6179688.39646
  24301940.62946        39.200          22.500  
  24940168.758 5      2816.742 5      2194.86445  -2754900.737 5  -2072464.56245
  24940163.32445        40.300          18.600  
  23125004.922 5      2571.018 5      2003.39247  -4525214.724 5  -3418558.24047
  23124999.47347        40.900          26.700  
  20460745.422 7       662.957 7       516.59048  -4774315.783 7  -3698932.87048
  20460742.32048        50.900          40.100  
  20335098.047 7       220.577 7       171.87749  -3649569.375 7  -2838202.74749
  20335093.57849        49.900          43.800  
  22268963.742 6     -3421.135 6     -2665.81647   5372731.586 6   4171113.81247
  22268959.49647        44.300          30.900  
 08  1 20 20 12 55.0000000  0 10G02G05G06G10G12G16G21G24G29G30   -0.000156975
  23161992.281 6     -3524.653 6     -2746.48046   6529891.938 6   5054076.14346
  23161986.39146        43.200          25.300  
  23320481.867 5     -3968.710 5     -3092.50246   7460657.563 5   5776850.08446
  23320477.64846        42.300          24.700  
  20738730.102 7      1110.581 7       865.38848  -5784914.337 7  -4490503.00248
  20738725.20748        49.800          38.300  
  20745330.016 7      -736.656 7      -574.01848  -2174990.752 7  -1684641.38748
  20745325.12148        49.300          36.500  
  24305822.164 5     -4074.510 5     -3174.94346   7997738.143 5   6195563.10846
  24305817.27746        39.500          22.200  
  24937490.109 5      2815.182 5      2193.64845  -2768976.648 5  -2083432.80145
  24937484.68045        40.400          18.600  
  23122559.844 5      2570.098 5      2002.67147  -4538065.214 5  -3428571.59347
  23122554.30547        40.800          26.300  
  20460116.977 7       660.696 7       514.82748  -4777619.266 7  -3701507.00748
  20460113.42648        50.200          39.900  
  20334890.320 7       218.047 7       169.90749  -3650659.610 7  -2839052.28249
  20334885.63349        50.000          43.700  
  22272220.789 6     -3423.164 6     -2667.40047   5389847.403 6   4184450.81147
  22272216.66847        44.900          30.900  
 08  1 20 20 13  0.0000000  0 10G02G05G06G10G12G16G21G24G29G30   -0.000155975
  23165346.719 6     -3525.627 6     -2747.24347   6547520.073 6   5067812.35947
  23165341.15647        43.000          26.300  
  23324259.344 6     -3969.777 6     -3093.33246   7480506.446 6   5792316.74246
  23324254.72346        42.800          25.800  
  20737675.906 7      1108.186 7       863.52148  -5790455.269 7  -4494820.60648
  20737671.01248        50.200          38.200  
  20746034.719 7      -740.399 7      -576.93448  -2171288.755 7  -1681756.71648
  20746029.63348        48.400          36.400  
  24309699.180 5     -4075.143 5     -3175.43546   8018113.856 5   6211440.28246
  24309694.62946        39.500          22.200  
  24934812.953 5      2813.462 5      2192.31346  -2783043.958 5  -2094394.36646
  24934807.78546        40.900          19.600  
  23120114.875 5      2569.047 5      2001.85546  -4550910.448 5  -3438580.86646
  23120109.88746        40.600          25.100  
  20459490.422 7       658.301 7       512.96248  -4780910.769 7  -3704071.81548
  20459486.77348        50.900          39.900  
  20334685.492 7       215.387 7       167.83449  -3651736.545 7  -2839891.45349
  20334680.53949        50.300          43.700  
  22275479.781 6     -3425.332 6     -2669.08847   5406974.063 6   4197796.25047
  22275475.71147        45.100          30.800  
 08  1 20 20 13  5.0000000  0 10G02G05G06G10G12G16G21G24G29G30   -0.000154976
  23168701.969 6     -3526.525 6     -2747.93946   6565152.697 6   5081552.05746
  23168696.51646        42.900          25.800  
  23328036.906 5     -3970.744 5     -3094.08546   7500360.168 5   5807787.16646
  23328032.96146        42.400          25.000  
  20736623.625 7      1105.881 7       861.72748  -5795984.675 7  -4499129.24048
  20736618.72348        49.800          38.400  
  20746742.461 7      -744.076 7      -579.79848  -2167568.377 7  -1678857.72648
  20746737.14548        48.900          36.400  
  24313576.805 5     -4075.683 5     -3175.85746   8038492.271 5   6227319.56546
  24313572.48446        39.400          22.300  
  24932137.539 5      2811.840 5      2191.04246  -2797103.159 5  -2105349.57446
  24932132.44946        40.700          19.300  
  23117671.547 5      2568.082 5      2001.10247  -4563750.856 5  -3448586.37647
  23117666.34047        41.400          26.700  
  20458866.648 7       655.995 7       511.16548  -4784190.745 7  -3706627.64048
  20458862.81648        51.100          39.700  
  20334483.086 7       212.814 7       165.82949  -3652800.613 7  -2840720.59649
  20334478.31649        50.200          43.800  
  22278741.117 6     -3427.396 6     -2670.69747   5424111.042 6   4211149.73347
  22278737.03547        44.400          31.500  
 08  1 20 20 13 10.0000000  0 10G02G05G06G10G12G16G21G24G29G30   -0.000153978
  23172058.625 6     -3527.460 6     -2748.66846   6582789.996 6   5095295.39646
  23172052.89846        42.900          24.500  
  23331816.844 6     -3971.740 6     -3094.86046   7520218.870 6   5823261.46446
  23331812.27346        42.600          25.700  
  20735573.445 7      1103.539 7       859.90048  -5801502.368 7  -4503428.74048
  20735568.76648        49.600          38.400  
  20747454.109 7      -747.782 7      -582.68848  -2163829.469 7  -1675944.28848
  20747448.70748        48.000          36.500  
  24317455.320 5     -4076.257 5     -3176.30046   8058873.554 5   6243201.06446
  24317450.82446        39.200          21.800  
  24929464.016 5      2810.176 5      2189.75346  -2811154.038 5  -2116298.33846
  24929459.07446        41.100          19.300  
  23115229.484 5      2567.074 5      2000.31746  -4576586.228 5  -3458587.96346
  23115223.66046        42.000          25.800  
  20458244.375 7       653.642 7       509.33348  -4787458.956 7  -3709174.30648
  20458240.72348        49.900          39.700  
  20334283.359 7       210.191 7       163.78649  -3653851.567 7  -2841539.52349
  20334278.51649        49.400          43.800  
  22282004.516 6     -3429.517 6     -2672.34847   5441258.627 6   4224511.47647
  22281999.87547        44.000          31.300  
 08  1 20 20 13 15.0000000  0 10G02G05G06G10G12G16G21G24G29G30   -0.000152979
  23175416.023 6     -3528.331 6     -2749.34746   6600431.652 6   5109042.13146
  23175409.55146        42.900          24.800  
  23335596.195 6     -3972.693 6     -3095.60547   7540082.337 6   5838739.49047
  23335591.88347        42.800          26.400  
  20734525.781 7      1101.260 7       858.12548  -5807008.669 7  -4507719.36548
  20734521.17648        49.600          38.400  
  20748168.977 7      -751.446 7      -585.54148  -2160072.240 7  -1673016.58348
  20748163.62548        48.900          36.300  
  24321334.406 4     -4076.771 4     -3176.70446   8079257.411 4   6259084.58646
  24321329.71546        38.900          21.700  
  24926791.805 5      2808.579 5      2188.50346  -2825196.933 5  -2127240.85446
  24926787.01246        41.600          19.000  
  23112787.961 5      2566.121 5      1999.57347  -4589416.831 5  -3468585.82547
  23112782.06347        41.900          26.500  
  20457624.789 7       651.349 7       507.54448  -4790715.702 7  -3711712.02448
  20457620.74648        49.900          39.600  
  20334085.750 7       207.633 7       161.79149  -3654889.730 7  -2842348.47749
  20334080.73049        50.200          43.800  
  22285269.281 6     -3431.561 6     -2673.94347   5458416.432 6   4237881.19047
  22285265.10947        44.600          31.700  
 08  1 20 20 13 20.0000000  0 10G02G05G06G10G12G16G21G24G29G30   -0.000151979
  23178774.164 6     -3529.069 6     -2749.92346   6618076.996 6   5122791.74446
  23178768.11746        43.000          25.600  
  23339377.023 5     -3973.509 5     -3096.23747   7559949.880 5   5854220.67347
  23339372.77347        42.400          26.500  
  20733480.047 7      1099.091 7       856.43448  -5812504.122 7  -4512001.53548
  20733475.49648        49.500          38.200  
  20748887.500 7      -754.967 7      -588.28748  -2156297.405 7  -1670075.14648
  20748882.07048        48.400          36.400  
  24325213.133 5     -4077.170 5     -3177.01246   8099643.262 5   6274969.64746
  24325209.32846        39.200          21.700  
  24924121.195 5      2807.086 5      2187.34545  -2839232.364 5  -2138177.58145
  24924115.56345        41.200          18.600  
  23110347.055 5      2565.301 5      1998.93547  -4602243.337 5  -3478580.49847
  23110341.52747        41.800          26.300  
  20457007.109 7       649.185 7       505.86048  -4793961.629 7  -3714241.32448
  20457003.10548        50.200          39.600  
  20333890.211 7       205.201 7       159.89649  -3655915.733 7  -2843147.95849
  20333885.64849        49.800          43.900  
  22288535.766 6     -3433.481 6     -2675.43847   5475583.839 6   4251258.37947
  22288532.14847        44.500          31.900  
 08  1 20 20 13 25.0000000  0 10G02G05G06G10G12G16G21G24G29G30   -0.000150978
  23182132.945 6     -3529.933 6     -2750.59746   6635726.661 6   5136544.73046
  23182126.23846        43.000          25.700  
  23343158.414 6     -3974.442 6     -3096.96346   7579822.091 6   5869705.48746
  23343154.19146        43.600          25.900  
  20732436.438 7      1096.805 7       854.65248  -5817988.146 7  -4516274.79348
  20732431.86348        48.800          38.600  
  20749609.195 7      -758.604 7      -591.12048  -2152504.385 7  -1667119.54748
  20749603.78548        49.000          36.500  
  24329093.422 4     -4077.667 4     -3177.40146   8120031.599 4   6290856.65446
  24329088.87546        38.600          21.300  
  24921451.180 5      2805.471 5      2186.07846  -2853259.721 5  -2149107.96946
  24921446.24246        40.800          19.000  
  23107907.023 5      2564.348 5      1998.19347  -4615065.075 5  -3488571.46147
  23107901.41047        42.400          26.900  
  20456391.672 7       646.892 7       504.07248  -4797196.090 7  -3716761.68348
  20456387.71148        50.600          39.400  
  20333697.734 7       202.641 7       157.90149  -3656928.937 7  -2843937.46449
  20333693.03949        49.200          43.900  
  22291804.508 6     -3435.526 6     -2677.03147   5492761.467 6   4264643.53147
  22291800.88347        44.600          31.000  
 08  1 20 20 13 30.0000000  0 10G02G05G06G10G12G16G21G24G29G30   -0.000149979
  23185491.391 6     -3530.726 6     -2751.21447   6653380.290 6   5150300.80147
  23185485.42647        43.500          26.400  
  23346940.477 5     -3975.307 5     -3097.64146   7599698.626 5   5885193.69446
  23346936.37146        42.300          25.600  
  20731394.672 7      1094.580 7       852.92048  -5823461.047 7  -4520539.39548
  20731390.03148        50.300          38.500  
  20750334.438 7      -762.187 7      -593.91148  -2148693.452 7  -1664149.99148
  20750329.43848        48.200          36.400  
  24332973.813 4     -4078.104 4     -3177.74546   8140422.118 4   6306745.37846
  24332969.40246        38.600          21.100  
  24918783.617 5      2803.927 5      2184.87845  -2867279.357 5  -2160032.35845
  24918778.40245        40.400          18.300  
  23105467.477 5      2563.464 5      1997.50446  -4627882.396 5  -3498558.98046
  23105462.40246        42.100          26.200  
  20455778.219 7       644.676 7       502.34548  -4800419.472 7  -3719273.40648
  20455774.54748        50.700          39.200  
  20333507.516 7       200.149 7       155.96049  -3657929.682 7  -2844717.26249
  20333502.40249        49.600          44.000  
  22295075.781 6     -3437.493 6     -2678.56347   5509948.934 6   4278036.34847
  22295071.35547        45.000          31.100  
 08  1 20 20 13 35.0000000  0 10G02G05G06G10G12G16G21G24G29G30   -0.000148979
  23188851.414 6     -3531.643 6     -2751.93146   6671038.507 6   5164060.45446
  23188845.43846        43.600          22.600  
  23350723.961 6     -3976.291 6     -3098.40846   7619580.079 6   5900685.73646
  23350719.67246        42.500          25.500  
  20730355.578 7      1092.239 7       851.09548  -5828922.242 7  -4524794.86848
  20730351.05548        49.100          38.800  
  20751062.867 7      -765.889 7      -596.79748  -2144864.005 7  -1661166.00548
  20751057.54348        48.600          36.700  
  24336854.031 4     -4078.664 4     -3178.17646   8160815.436 4   6322636.25946
  24336849.96146        38.100          21.500  
  24916117.305 5      2802.254 5      2183.56945  -2881290.629 5  -2170950.20245
  24916112.07445        40.800          18.300  
  23103029.953 6      2562.464 6      1996.72446  -4640694.717 6  -3508542.60146
  23103024.49246        42.600          25.200  
  20455167.234 7       642.332 7       500.51948  -4803631.134 7  -3721776.00348
  20455163.11348        50.200          39.100  
  20333319.211 7       197.536 7       153.92449  -3658917.359 7  -2845486.88349
  20333314.39149        49.700          43.800  
  22298348.516 6     -3439.586 6     -2680.19847   5527146.862 6   4291437.33847
  22298344.22747        44.000          31.100  
 08  1 20 20 13 40.0000000  0 10G02G05G06G10G12G16G21G24G29G30   -0.000147978
  23192212.922 6     -3532.587 6     -2752.66346   6688701.440 6   5177823.77046
  23192206.61346        43.200          24.600  
  23354508.656 6     -3977.298 6     -3099.19147   7639466.568 6   5916181.69047
  23354503.67647        42.900          26.300  
  20729318.469 7      1089.858 7       849.24148  -5834371.531 7  -4529041.07348
  20729314.62948        49.900          38.600  
  20751795.477 7      -769.615 7      -599.70248  -2141015.932 7  -1658167.49748
  20751789.94148        49.800          36.500  
  24340735.227 3     -4079.248 3     -3178.62646   8181211.673 3   6338529.38946
  24340731.51246        37.300          20.600  
  24913452.852 5      2800.552 5      2182.26146  -2895293.387 5  -2181861.50946
  24913447.20346        41.600          19.000  
  23100592.703 5      2561.425 5      1995.91446  -4653501.843 5  -3518522.17146
  23100587.37946        42.100          26.100  
  20454558.617 7       639.962 7       498.67148  -4806830.941 7  -3724269.36048
  20454554.18448        50.000          39.300  
  20333133.633 7       194.895 7       151.86649  -3659891.833 7  -2846246.21349
  20333129.00849        50.000          43.900  
  22301623.008 6     -3441.691 6     -2681.83547   5544355.315 6   4304846.51247
  22301618.52347        44.200          31.900  
 08  1 20 20 13 45.0000000  0 10G02G05G06G10G12G16G21G24G29G30   -0.000146976
  23195574.891 6     -3533.494 6     -2753.37246   6706368.908 6   5191590.62946
  23195568.59446        43.300          22.800  
  23358294.063 5     -3978.274 5     -3099.95347   7659357.938 5   5931681.45347
  23358289.28547        42.300          26.900  
  20728283.883 7      1087.533 7       847.42848  -5839809.198 7  -4533278.21248
  20728279.68848        50.200          38.700  
  20752531.344 7      -773.300 7      -602.57148  -2137149.433 7  -1655154.64048
  20752525.93848        49.800          36.300  
  24344617.664 3     -4079.781 3     -3179.05046   8201610.577 3   6354424.63746
  24344613.16046        37.100          21.500  
  24910789.367 5      2798.895 5      2180.95045  -2909287.862 5  -2192766.25945
  24910784.71945        41.400          18.600  
  23098156.539 5      2560.437 5      1995.14346  -4666304.029 5  -3528497.88646
  23098151.44546        41.900          25.000  
  20453951.766 7       637.630 7       496.85448  -4810019.089 7  -3726753.62848
  20453947.71948        50.000          39.300  
  20332950.906 7       192.284 7       149.83249  -3660853.255 7  -2846995.37449
  20332945.75849        50.700          43.900  
  22304899.414 6     -3443.775 6     -2683.45847   5561574.191 6   4318263.80247
  22304895.76247        44.100          31.500  
 08  1 20 20 13 50.0000000  0 10G02G05G06G10G12G16G21G24G29G30   -0.000145975
  23198936.883 6     -3534.350 6     -2754.03846   6724040.658 6   5205360.81646
  23198931.30546        42.900          22.900  
  23362079.180 5     -3979.180 5     -3100.65946   7679253.839 5   5947184.75046
  23362075.53946        41.700          25.300  
  20727251.469 7      1085.243 7       845.64448  -5845235.413 7  -4537506.43148
  20727246.73448        50.200          38.900  
  20753270.320 7      -776.939 7      -605.40648  -2133264.739 7  -1652127.61048
  20753264.80548        49.600          36.500  
  24348500.102 4     -4080.289 4     -3179.44346   8222012.023 4   6370321.85446
  24348495.46546        37.600          21.500  
  24908128.734 5      2797.285 5      2179.70645  -2923274.285 5  -2203664.78745
  24908122.85545        42.100          18.300  
  23095720.914 5      2559.489 5      1994.40647  -4679101.476 5  -3538469.91447
  23095716.01247        42.100          26.500  
  20453347.164 7       635.353 7       495.07948  -4813195.853 7  -3729229.02248
  20453343.16848        50.300          39.500  
  20332770.461 7       189.733 7       147.84449  -3661801.921 7  -2847734.59649
  20332765.32049        50.300          43.700  
  22308178.297 6     -3445.787 6     -2685.02847   5578803.126 6   4331688.94347
  22308174.05947        44.300          32.100  
 08  1 20 20 13 55.0000000  0 10G02G05G06G10G12G16G21G24G29G30   -0.000144974
  23202301.555 5     -3535.230 5     -2754.72746   6741716.807 5   5219134.44946
  23202294.86746        42.000          23.600  
  23365866.281 5     -3980.129 5     -3101.40046   7699154.486 5   5962691.75146
  23365862.49246        42.300          25.800  
  20726220.867 7      1082.906 7       843.82248  -5850649.945 7  -4541725.53948
  20726216.39848        50.200          39.000  
  20754012.930 7      -780.612 7      -608.27048  -2129361.681 7  -1649086.26248
  20754007.18048        50.100          36.400  
  24352383.063 4     -4080.805 4     -3179.84646   8242416.049 4   6386221.08646
  24352378.16446        37.500          22.000  
  24905468.758 5      2795.663 5      2178.43945  -2937252.599 5  -2214556.98145
  24905463.04745        41.800          17.800  
  23093286.289 5      2558.516 5      1993.64846  -4691894.055 5  -3548438.15246
  23093281.85246        42.300          25.500  
  20452744.750 7       633.036 7       493.27448  -4816361.030 7  -3731695.39548
  20452740.87548        50.800          39.400  
  20332592.367 7       187.143 7       145.82749  -3662737.638 7  -2848463.73049
  20332587.20349        50.300          43.700  
  22311458.539 6     -3447.840 6     -2686.62847   5596042.325 6   4345122.08447
  22311454.30947        44.300          32.300  
 08  1 20 20 14  0.0000000  0 10G02G05G06G10G12G16G21G24G29G30   -0.000143970
  23205666.141 6     -3536.132 6     -2755.42546   6759397.467 6   5232911.57246
  23205659.23046        42.600          25.300  
  23369654.367 5     -3981.090 5     -3102.14646   7719059.938 5   5978202.48246
  23369650.19946        42.000          25.700  
  20725193.000 7      1080.570 7       842.00248  -5856052.795 7  -4545935.54948
  20725188.82448        49.500          38.900  
  20754759.281 7      -784.312 7      -611.15248  -2125440.122 7  -1646030.50448
  20754753.82848        50.500          36.500  
  24356266.188 4     -4081.341 4     -3180.25846   8262822.756 4   6402122.37646
  24356261.46946        38.200          21.100  
  24902810.031 5      2793.978 5      2177.12746  -2951222.489 5  -2225442.61546
  24902804.58246        41.400          19.000  
  23090852.883 5      2557.512 5      1992.86446  -4704681.614 5  -3558402.47446
  23090848.36746        41.000          25.000  
  20452144.555 7       630.703 7       491.45648  -4819514.548 7  -3734152.67748
  20452141.07448        50.400          39.200  
  20332416.828 7       184.527 7       143.78749  -3663660.271 7  -2849182.66449
  20332411.57049        49.900          43.700  
  22314741.117 6     -3449.903 6     -2688.23647   5613291.842 6   4358563.26247
  22314737.50847        43.700          32.600  
 08  1 20 20 14  5.0000000  0 10G02G05G06G10G12G16G21G24G29G30   -0.000142969
  23209031.844 5     -3537.065 5     -2756.15346   6777082.790 5   5246692.33846
  23209024.30946        42.000          22.800  
  23373442.797 5     -3982.088 5     -3102.92547   7738970.378 5   5993717.10747
  23373439.20747        42.100          26.700  
  20724167.133 7      1078.199 7       840.15648  -5861443.791 7  -4550136.32848
  20724162.51248        50.500          39.000  
  20755509.031 7      -788.012 7      -614.03548  -2121500.063 7  -1642960.32948
  20755503.43848        50.000          36.600  
  24360149.008 4     -4081.899 4     -3180.70746   8283232.252 4   6418025.91146
  24360145.17646        38.800          20.900  
  24900152.961 5      2792.268 5      2175.79546  -2965183.830 5  -2236321.59246
  24900148.00046        42.000          19.000  
  23088420.414 5      2556.487 5      1992.06646  -4717464.048 5  -3568362.80546
  23088415.78546        41.600          24.400  
  20451546.461 7       628.342 7       489.61648  -4822656.256 7  -3736600.75748
  20451543.04348        50.500          39.400  
  20332243.727 7       181.888 7       141.73049  -3664569.710 7  -2849891.31649
  20332238.66449        50.800          43.500  
  22318025.813 6     -3451.992 6     -2689.86347   5630551.803 6   4372012.57447
  22318021.84047        43.900          31.900  
 08  1 20 20 14 10.0000000  0 10G02G05G06G10G12G16G21G24G29G30   -0.000141966
  23212397.328 5     -3537.825 5     -2756.74546   6794771.917 5   5260476.06246
  23212389.59046        41.200          23.400  
  23377232.625 5     -3982.906 5     -3103.56347   7758884.907 5   6009234.92047
  23377228.77347        41.900          26.700  
  20723143.422 7      1075.990 7       838.43348  -5866823.738 7  -4554328.49448
  20723139.51648        49.500          39.000  
  20756262.086 7      -791.560 7      -616.80148  -2117542.266 7  -1639876.32648
  20756257.23848        50.200          36.800  
  24364033.156 4     -4082.302 4     -3181.01146   8303643.760 4   6433930.96746
  24364029.79346        38.100          21.500  
  24897498.070 5      2790.726 5      2174.58846  -2979137.459 5  -2247194.53346
  24897492.93446        41.200          19.600  
  23085988.961 5      2555.613 5      1991.38746  -4730242.111 5  -3578319.74146
  23085984.55946        41.300          25.600  
  20450951.016 7       626.138 7       487.90048  -4825786.945 7  -3739040.25548
  20450947.09848        50.900          39.200  
  20332072.727 7       179.405 7       139.79649  -3665466.736 7  -2850590.29849
  20332067.52349        49.100          43.600  
  22321311.766 6     -3453.926 6     -2691.37047   5647821.432 6   4385469.42547
  22321307.88347        44.600          32.400  
 08  1 20 20 14 15.0000000  0 10G02G05G06G10G12G16G21G24G29G30   -0.000140963
  23215764.609 5     -3538.584 5     -2757.33846   6812464.840 5   5274262.75146
  23215756.79346        40.700          22.900  
  23381022.578 6     -3983.719 6     -3104.19547   7778803.502 6   6024755.89347
  23381019.25447        42.700          27.800  
  20722121.516 7      1073.782 7       836.71448  -5872192.650 7  -4558512.06348
  20722117.32448        48.800          38.900  
  20757018.742 7      -795.109 7      -619.56548  -2113566.720 7  -1636778.50248
  20757013.65648        49.800          36.600  
  24367918.078 4     -4082.696 4     -3181.31946   8324057.237 4   6449837.56346
  24367914.00046        37.500          21.500  
  24894844.484 5      2789.176 5      2173.39346  -2993083.337 5  -2258061.49746
  24894839.50046        40.800          19.900  
  23083558.266 5      2554.752 5      1990.71446  -4743015.872 5  -3588273.31246
  23083553.45346        41.900          25.600  
  20450357.211 7       623.944 7       486.19048  -4828906.667 7  -3741471.20648
  20450353.50848        50.800          39.100  
  20331904.531 7       176.927 7       137.86649  -3666351.372 7  -2851279.63049
  20331899.41449        50.300          43.500  
  22324599.883 6     -3455.850 6     -2692.86847   5665100.681 6   4398933.76647
  22324596.42247        44.600          32.600  
 08  1 20 20 14 20.0000000  0 10G02G05G06G10G12G16G21G24G29G30   -0.000139959
  23219131.906 5     -3539.419 5     -2757.98946   6830161.937 5   5288052.69346
  23219124.70346        40.200          25.100  
  23384813.406 5     -3984.611 5     -3104.88946   7798726.558 5   6040280.33946
  23384810.33246        42.400          25.400  
  20721102.188 7      1071.494 7       834.92948  -5877550.119 7  -4562686.70548
  20721097.50448        49.600          39.000  
  20757778.391 7      -798.735 7      -622.39048  -2109573.047 7  -1633666.55148
  20757773.30948        49.200          36.500  
  24371803.102 4     -4083.159 4     -3181.67946   8344473.031 4   6465745.96046
  24371799.24646        37.500          20.400  
  24892192.297 5      2787.547 5      2172.10746  -3007021.071 5  -2268922.03246
  24892187.09846        40.300          19.900  
  23081128.500 5      2553.812 5      1989.98146  -4755784.931 5  -3598223.21846
  23081123.52746        41.800          25.500  
  20449765.586 7       621.676 7       484.42248  -4832015.049 7  -3743893.31448
  20449762.28948        50.200          38.900  
  20331738.664 7       174.380 7       135.88049  -3667223.274 7  -2851959.03149
  20331733.51649        50.100          43.500  
  22327890.266 6     -3457.850 6     -2694.42747   5682389.933 6   4412405.90247
  22327886.07847        44.000          32.600  
 08  1 20 20 14 25.0000000  0 10G02G05G06G10G12G16G21G24G29G30   -0.000138956
  23222500.789 5     -3540.294 5     -2758.67146   6847863.408 5   5301846.04746
  23222492.73046        40.000          24.000  
  23388605.570 6     -3985.533 6     -3105.61147   7818654.223 6   6055808.39347
  23388602.75447        42.700          26.900  
  20720084.875 7      1069.166 7       833.11748  -5882895.950 7  -4566852.28848
  20720080.72748        48.900          38.900  
  20758541.836 7      -802.391 7      -625.23948  -2105561.091 7  -1630540.35548
  20758537.16048        49.600          36.300  
  24375688.203 3     -4083.666 3     -3182.08046   8364891.358 3   6481656.35946
  24375684.46946        36.300          20.600  
  24889540.961 5      2785.884 5      2170.81645  -3020950.490 5  -2279776.11345
  24889536.44145        40.500          18.300  
  23078699.695 5      2552.826 5      1989.21446  -4768549.061 5  -3608169.28846
  23078694.64146        42.300          25.300  
  20449176.320 7       619.365 7       482.62348  -4835111.875 7  -3746306.43048
  20449172.72348        50.400          38.600  
  20331575.375 7       171.788 7       133.86049  -3668082.214 7  -2852628.33049
  20331570.71149        49.500          43.600  
  22331181.750 6     -3459.882 6     -2696.01047   5699689.342 6   4425885.95447
  22331178.46947        45.100          32.600  
 08  1 20 20 14 30.0000000  0 10G02G05G06G10G12G16G21G24G29G30   -0.000137951
  23225870.844 5     -3541.117 5     -2759.31146   6865568.995 5   5315642.60246
  23225862.23046        41.000          26.200  
  23392398.766 5     -3986.415 5     -3106.29447   7838586.299 5   6071339.86347
  23392395.71547        42.400          26.400  
  20719069.758 7      1066.888 7       831.34248  -5888230.389 7  -4571008.99748
  20719065.48048        48.900          38.900  
  20759308.797 7      -806.003 7      -628.05448  -2101531.074 7  -1627400.08548
  20759303.95748        49.600          36.600  
  24379574.281 3     -4084.122 3     -3182.42746   8385311.969 3   6497568.49546
  24379570.35246        37.200          20.600  
  24886891.703 5      2784.255 5      2169.55346  -3034871.767 5  -2290623.87746
  24886887.30146        40.700          19.300  
  23076272.000 5      2551.897 5      1988.49147  -4781308.547 5  -3618111.74247
  23076266.19147        42.000          26.500  
  20448589.406 7       617.102 7       480.85948  -4838197.384 7  -3748710.72348
  20448585.50848        50.300          38.300  
  20331414.055 7       169.246 7       131.88149  -3668928.441 7  -2853287.73349
  20331408.91849        49.800          43.500  
  22334475.844 6     -3461.866 6     -2697.55747   5716998.674 6   4439373.73947
  22334472.12947        45.900          33.300  
 08  1 20 20 14 35.0000000  0 10G02G05G06G10G12G16G21G24G29G30   -0.000136948
  23229240.188 5     -3541.931 5     -2759.94246   6883278.652 5   5329442.31046
  23229232.41446        41.700          24.500  
  23396192.406 5     -3987.279 5     -3106.96946   7858522.691 5   6086874.70846
  23396189.62146        42.300          26.200  
  20718056.789 7      1064.614 7       829.56748  -5893553.457 7  -4575156.83248
  20718052.39148        49.100          38.600  
  20760079.234 7      -809.596 7      -630.85248  -2097483.094 7  -1624245.82348
  20760074.38748        48.300          36.200  
  24383460.711 3     -4084.555 3     -3182.77146   8405734.745 3   6513482.35346
  24383456.91046        36.600          21.100  
  24884243.625 5      2782.645 5      2168.29346  -3048784.990 5  -2301465.34446
  24884239.84846        40.000          19.300  
  23073844.172 5      2550.978 5      1987.77747  -4794063.437 5  -3628050.62547
  23073838.99647        42.100          26.800  
  20448004.156 7       614.854 7       479.10948  -4841271.656 7  -3751106.27048
  20448000.41048        49.900          38.600  
  20331255.555 7       166.705 7       129.89949  -3669761.966 7  -2853937.22949
  20331250.51649        50.200          43.500  
  22337771.523 6     -3463.833 6     -2699.09247   5734317.842 6   4452869.19947
  22337767.73447        45.800          32.800  
 08  1 20 20 14 40.0000000  0 10G02G05G06G10G12G16G21G24G29G30   -0.000135942
  23232611.383 5     -3542.874 5     -2760.67746   6900993.022 5   5343245.69346
  23232603.37946        42.000          25.700  
  23399987.461 5     -3988.265 5     -3107.73847   7878464.015 5   6102413.39747
  23399984.43847        41.800          26.300  
  20717046.266 7      1062.219 7       827.70348  -5898864.554 7  -4579295.34748
  20717041.80548        48.900          38.600  
  20760853.016 7      -813.342 7      -633.77348  -2093416.383 7  -1621076.95848
  20760848.53548        48.600          36.600  
  24387347.656 3     -4085.121 3     -3183.21146   8426160.349 3   6529398.40946
  24387344.00446        36.600          20.100  
  24881598.570 5      2780.917 5      2166.94846  -3062689.574 5  -2312300.08146
  24881594.06646        40.300          19.300  
  23071417.898 5      2549.930 5      1986.95746  -4806813.087 5  -3637985.41046
  23071413.02046        42.300          25.400  
  20447421.875 7       612.478 7       477.25548  -4844334.046 7  -3753492.54748
  20447417.25448        49.500          38.400  
  20331099.563 7       164.051 7       127.83349  -3670582.222 7  -2854576.39649
  20331094.37949        50.200          43.500  
  22341069.164 6     -3465.923 6     -2700.71847   5751647.456 6   4466372.78747
  22341065.47347        45.100          33.600  
 08  1 20 20 14 45.0000000  0 10G02G05G06G10G12G16G21G24G29G30   -0.000134937
  23235983.156 5     -3543.713 5     -2761.33547   6918711.586 5   5357052.37147
  23235975.30147        42.000          26.400  
  23403782.656 5     -3989.159 5     -3108.43246   7898409.810 5   6117955.55946
  23403780.23846        42.000          25.600  
  20716037.383 7      1059.893 7       825.89248  -5904164.019 7  -4583424.80948
  20716033.37148        48.900          38.600  
  20761630.492 7      -816.973 7      -636.60348  -2089331.516 7  -1617893.94348
  20761625.54348        48.400          36.700  
  24391233.484 3     -4085.609 3     -3183.58846   8446588.394 3   6545316.35246
  24391231.67246        36.900          20.100  
  24878954.328 5      2779.253 5      2165.65346  -3076585.839 5  -2323128.34846
  24878949.46946        40.600          19.900  
  23068993.070 5      2548.956 5      1986.19846  -4819557.866 5  -3647916.40246
  23068988.03946        42.400          25.300  
  20446841.203 7       610.183 7       475.46848  -4847384.962 7  -3755869.88548
  20446837.12948        49.300          38.200  
  20330945.992 7       161.469 7       125.81949  -3671389.564 7  -2855205.49149
  20330940.69949        49.900          43.500  
  22344368.789 6     -3467.932 6     -2702.28347   5768987.118 6   4479884.20347
  22344364.84847        45.600          33.300  
 08  1 20 20 14 50.0000000  0 10G02G05G06G10G12G16G21G24G29G30   -0.000133932
  23239355.469 5     -3544.718 5     -2762.11646   6936435.177 5   5370862.94946
  23239348.27746        41.100          25.600  
  23407579.375 6     -3990.211 6     -3109.25746   7918360.866 6   6133501.84446
  23407576.81646        42.500          25.700  
  20715031.844 7      1057.426 7       823.96748  -5909451.146 7  -4587544.64548
  20715027.10548        48.700          38.500  
  20762411.367 7      -820.762 7      -639.55548  -2085227.708 7  -1614696.17048
  20762406.36748        48.400          36.600  
  24395123.352 3     -4086.223 3     -3184.06746   8467019.508 3   6561236.68546
  24395119.41446        37.300          20.400  
  24876311.961 5      2777.448 5      2164.24046  -3090473.078 5  -2333949.54546
  24876307.07846        40.300          19.900  
  23066568.594 5      2547.835 5      1985.32647  -4832297.040 5  -3657843.03047
  23066563.69547        41.800          26.800  
  20446262.641 7       607.742 7       473.56648  -4850423.673 7  -3758237.71548
  20446258.57048        49.200          38.000  
  20330794.711 7       158.736 7       123.68949  -3672183.243 7  -2855823.93849
  20330789.83649        50.000          43.600  
  22347670.539 6     -3470.086 6     -2703.96147   5786337.548 6   4493404.01047
  22347666.65647        45.900          32.800  
 08  1 20 20 14 55.0000000  0 10G02G05G06G10G12G16G21G24G29G30   -0.000132927
  23242728.883 5     -3545.642 5     -2762.83747   6954163.386 5   5384677.13447
  23242722.07447        41.600          26.900  
  23411376.695 5     -3991.183 5     -3110.01146   7938316.780 5   6149051.89946
  23411374.68446        42.300          26.200  
  20714027.906 7      1055.029 7       822.10048  -5914726.293 7  -4591655.14648
  20714023.28148        50.300          38.700  
  20763196.039 7      -824.473 7      -642.44748  -2081105.342 7  -1611483.93648
  20763191.25048        49.200          36.500  
  24399011.719 4     -4086.783 4     -3184.50446   8487453.424 4   6577159.20546
  24399007.71546        38.000          20.100  
  24873670.508 5      2775.709 5      2162.88746  -3104351.622 5  -2344763.98146
  24873665.98446        40.000          19.300  
  23064145.398 5      2546.790 5      1984.51146  -4845030.990 5  -3667765.58846
  23064140.55946        41.800          24.800  
  20445686.773 7       605.373 7       471.72048  -4853450.538 7  -3760596.31348
  20445682.71948        49.100          38.000  
  20330646.055 7       156.073 7       121.61549  -3672963.608 7  -2856432.01649
  20330641.05949        50.900          43.600  
  22350973.672 6     -3472.169 6     -2705.58547   5803698.393 6   4506931.93747
  22350970.49247        45.800          33.400  
 08  1 20 20 15  0.0000000  0 10G02G05G06G10G12G16G21G24G29G30   -0.000131920
  23246103.656 5     -3546.641 5     -2763.61247   6971896.591 5   5398495.19547
  23246096.38347        42.400          26.500  
  23415175.195 5     -3992.218 5     -3110.81647   7958277.871 5   6164605.98147
  23415172.64547        41.500          26.600  
  20713026.492 7      1052.568 7       820.18448  -5919989.132 7  -4595756.06448
  20713021.59048        49.700          38.800  
  20763983.813 7      -828.258 7      -645.39548  -2076964.051 7  -1608256.96348
  20763978.91048        49.300          36.400  
  24402900.305 5     -4087.383 5     -3184.97346   8507890.338 5   6593084.07146
  24402896.54746        39.200          20.100  
  24871031.492 5      2773.907 5      2161.49246  -3118221.158 5  -2355571.44246
  24871026.77046        40.200          20.100  
  23061723.789 5      2545.676 5      1983.64346  -4857759.368 5  -3677683.80446
  23061718.84846        42.200          26.100  
  20445113.102 7       602.932 7       469.81748  -4856465.199 7  -3762945.39848
  20445108.58648        49.700          37.600  
  20330500.320 7       153.353 7       119.49649  -3673730.375 7  -2857029.49749
  20330495.40649        51.000          43.700  
  22354280.070 6     -3474.302 6     -2707.24648   5821069.900 6   4520468.16748
  22354276.48048        46.900          33.900  
 08  1 20 20 15  5.0000000  0 10G02G05G06G10G12G16G21G24G29G30   -0.000130911
  23249478.422 5     -3547.553 5     -2764.32546   6989634.355 5   5412316.81946
  23249472.14846        41.300          25.600  
  23418974.938 5     -3993.169 5     -3111.55947   7978243.718 5   6180163.77847
  23418971.91847        41.300          26.600  
  20712027.250 7      1050.180 7       818.32248  -5925240.034 7  -4599847.67748
  20712022.32848        48.400          38.700  
  20764775.633 7      -831.948 7      -648.27348  -2072804.313 7  -1605015.59648
  20764770.81348        49.000          36.300  
  24406789.453 4     -4087.915 4     -3185.38346   8528329.912 4   6609010.98746
  24406785.93846        38.800          19.900  
  24868393.523 4      2772.184 4      2160.14046  -3132082.080 4  -2366372.14346
  24868388.91046        39.000          19.600  
  23059302.633 5      2544.649 5      1982.84246  -4870482.613 5  -3687598.01546
  23059297.57446        42.300          25.900  
  20444541.609 7       600.573 7       467.97848  -4859468.065 7  -3765285.28948
  20444537.37548        49.400          38.000  
  20330357.109 7       150.703 7       117.43149  -3674483.888 7  -2857616.65249
  20330352.02049        49.200          43.700  
  22357587.516 6     -3476.356 6     -2708.84748   5838451.682 6   4534012.40348
  22357584.03948        45.700          33.800  
 08  1 20 20 15 10.0000000  0 10G02G05G06G10G12G16G21G24G29G30   -0.000129904
  23252854.336 5     -3548.444 5     -2765.02046   7007376.575 5   5426141.92146
  23252848.16446        41.300          25.200  
  23422774.688 5     -3994.109 5     -3112.29146   7998214.261 5   6195725.23346
  23422772.69946        41.000          26.200  
  20711030.258 7      1047.816 7       816.47948  -5930479.113 7  -4603930.07448
  20711025.38748        47.900          38.700  
  20765570.555 7      -835.629 7      -651.13948  -2068626.170 7  -1601759.90148
  20765565.49248        48.800          36.400  
  24410679.820 5     -4088.427 5     -3185.79546   8548772.045 5   6624939.96246
  24410676.05546        39.300          19.900  
  24865758.031 4      2770.485 4      2158.82246  -3145934.503 4  -2377166.25246
  24865753.14146        38.700          19.300  
  23056882.344 5      2543.635 5      1982.05346  -4883200.789 5  -3697508.27946
  23056877.08646        41.300          25.700  
  20443972.500 7       598.237 7       466.15948  -4862459.250 7  -3767616.08248
  20443967.58648        48.800          37.900  
  20330216.031 7       148.079 7       115.38749  -3675224.280 7  -2858193.58649
  20330210.88349        49.800          43.700  
  22360897.391 6     -3478.389 6     -2710.43247   5855843.627 6   4547564.56247
  22360893.62547        46.200          33.100  
 08  1 20 20 15 15.0000000  0 10G02G05G06G10G12G16G21G24G29G30   -0.000128895
  23256231.836 5     -3549.311 5     -2765.69346   7025123.128 5   5439970.38646
  23256225.55146        40.400          25.100  
  23426575.656 5     -3995.021 5     -3113.00547   8018189.367 5   6211290.25747
  23426573.22747        40.800          26.400  
  20710035.438 7      1045.457 7       814.64248  -5935706.397 7  -4608003.28448
  20710031.06348        47.800          38.800  
  20766369.242 7      -839.310 7      -654.00748  -2064429.619 7  -1598489.86548
  20766364.51648        48.800          36.300  
  24414570.047 5     -4088.920 5     -3186.16746   8569216.646 5   6640870.79946
  24414566.59046        39.400          19.900  
  24863123.242 4      2768.768 4      2157.47946  -3159778.342 4  -2387953.64546
  24863118.46946        38.500          19.300  
  23054463.406 6      2542.623 6      1981.26247  -4895913.904 6  -3707414.59247
  23054457.89847        43.000          26.400  
  20443405.445 7       595.908 7       464.34448  -4865438.789 7  -3769937.80148
  20443401.10248        49.800          37.500  
  20330077.656 7       145.459 7       113.34549  -3675951.574 7  -2858760.31249
  20330072.91849        50.900          43.600  
  22364208.664 6     -3480.408 6     -2712.00448   5873245.668 6   4561124.58048
  22364205.42648        45.800          34.500  
 08  1 20 20 15 20.0000000  0 10G02G05G06G10G12G16G21G24G29G30   -0.000127886
  23259609.984 5     -3550.175 5     -2766.36946   7042874.002 5   5453802.22946
  23259603.08246        41.300          25.500  
  23430378.641 5     -3995.924 5     -3113.70646   8038168.988 5   6226858.78546
  23430375.28546        41.000          25.800  
  20709042.883 7      1043.110 7       812.81248  -5940921.947 7  -4612067.34548
  20709038.39548        49.300          38.800  
  20767171.383 7      -842.961 7      -656.85448  -2060214.813 7  -1595205.59848
  20767166.30948        49.500          36.300  
  24418460.961 5     -4089.398 5     -3186.54046   8589663.637 5   6656803.49946
  24418457.55146        39.400          19.900  
  24860490.813 4      2767.073 4      2156.16245  -3173613.707 4  -2398734.45245
  24860485.82845        38.700          18.600  
  23052045.063 6      2541.633 6      1980.49447  -4908622.069 6  -3717317.06047
  23052039.28147        42.700          27.200  
  20442840.297 7       593.586 7       462.53548  -4868406.720 7  -3772250.47548
  20442836.50448        49.200          37.700  
  20329941.820 7       142.847 7       111.30849  -3676665.809 7  -2859316.85449
  20329936.51249        50.500          43.500  
  22367522.078 6     -3482.419 6     -2713.57348   5890657.765 6   4574692.44448
  22367518.48448        45.700          33.900  
 08  1 20 20 15 25.0000000  0 10G02G05G06G10G12G16G21G24G29G30   -0.000126877
  23262988.461 5     -3550.994 5     -2767.00746   7060628.974 5   5467637.26546
  23262981.82446        40.400          25.600  
  23434182.320 5     -3996.764 5     -3114.36246   8058152.809 5   6242430.59346
  23434178.37546        41.000          25.300  
  20708052.703 7      1040.803 7       811.01548  -5946125.963 7  -4616122.42148
  20708047.62148        48.400          38.600  
  20767976.633 7      -846.561 7      -659.65848  -2055982.006 7  -1591907.30948
  20767971.57848        48.500          36.500  
  24422352.719 5     -4089.830 5     -3186.88046   8610112.787 5   6672737.89746
  24422349.37546        39.700          20.100  
  24857859.352 4      2765.444 4      2154.89446  -3187440.929 4  -2409508.92146
  24857854.30546        38.600          19.300  
  23049627.836 6      2540.695 6      1979.76347  -4921325.543 6  -3727215.87347
  23049622.23847        43.400          27.600  
  20442277.438 7       591.326 7       460.77348  -4871363.349 7  -3774554.34248
  20442273.82448        49.400          37.700  
  20329808.344 7       140.290 7       109.31749  -3677367.257 7  -2859863.43949
  20329803.20349        50.100          43.600  
  22370837.438 6     -3484.368 6     -2715.09047   5908079.603 6   4588267.89347
  22370834.17647        45.700          33.600  
 08  1 20 20 15 30.0000000  0 10G02G05G06G10G12G16G21G24G29G30   -0.000125868
  23266368.133 5     -3551.854 5     -2767.67747   7078388.241 5   5481475.64747
  23266361.21947        40.600          26.700  
  23437984.883 5     -3997.671 5     -3115.06547   8078141.166 5   6258005.92047
  23437982.12147        40.700          26.500  
  20707064.703 7      1038.479 7       809.20448  -5951318.356 7  -4620168.44348
  20707059.81648        47.800          38.500  
  20768785.672 7      -850.204 7      -662.49848  -2051730.983 7  -1588594.81848
  20768780.32448        49.700          36.500  
  24426244.320 5     -4090.302 5     -3187.24446   8630564.296 5   6688674.11646
  24426241.11746        40.200          19.900  
  24855230.000 4      2763.762 4      2153.57646  -3201259.737 4  -2420276.79946
  24855224.92646        38.800          19.600  
  23047211.172 6      2539.700 6      1978.98847  -4934024.044 6  -3737110.81347
  23047205.50847        43.000          26.500  
  20441717.539 7       589.022 7       458.97848  -4874308.458 7  -3776849.23048
  20441713.34448        50.300          37.800  
  20329677.438 7       137.688 7       107.28949  -3678055.696 7  -2860399.88749
  20329672.50849        48.700          43.700  
  22374154.617 6     -3486.362 6     -2716.64547   5925511.413 6   4601851.11847
  22374151.26647        46.000          33.500  
 08  1 20 20 15 35.0000000  0 10G02G05G06G10G12G16G21G24G29G30   -0.000124857
  23269748.922 5     -3552.770 5     -2768.38847   7096152.090 5   5495317.59047
  23269741.57047        40.800          26.700  
  23441789.875 5     -3998.612 5     -3115.79946   8098134.225 5   6273584.91746
  23441786.82046        41.000          24.900  
  20706078.945 7      1036.066 7       807.32448  -5956498.688 7  -4624205.06448
  20706074.37948        49.000          38.500  
  20769597.961 7      -853.934 7      -665.40248  -2047461.312 7  -1585267.80748
  20769593.00048        50.500          36.500  
  24430137.578 5     -4090.835 5     -3187.65746   8651018.473 5   6704612.40146
  24430133.13346        39.300          20.400  
  24852601.977 4      2761.986 4      2152.19646  -3215069.667 4  -2431037.77746
  24852596.95746        39.000          19.000  
  23044795.641 6      2538.643 6      1978.16146  -4946717.258 6  -3747001.62146
  23044790.25046        43.000          25.700  
  20441158.906 7       586.653 7       457.13048  -4877241.722 7  -3779134.88248
  20441155.22748        49.600          38.000  
  20329548.836 7       135.018 7       105.20849  -3678730.784 7  -2860925.92649
  20329543.86749        49.700          43.600  
  22377473.852 6     -3488.416 6     -2718.24648   5942953.494 6   4615442.34748
  22377469.86348        46.300          34.000  
 08  1 20 20 15 40.0000000  0 10G02G05G06G10G12G16G21G24G29G30   -0.000123846
  23273129.617 5     -3553.663 5     -2769.08747   7113920.402 5   5509163.02747
  23273123.19147        40.600          26.800  
  23445595.180 5     -3999.545 5     -3116.52947   8118131.951 5   6289167.56247
  23445591.88347        41.300          27.000  
  20705095.391 7      1033.673 7       805.46048  -5961667.053 7  -4628232.36348
  20705090.53948        48.700          38.400  
  20770414.375 7      -857.620 7      -668.27548  -2043173.214 7  -1581926.43148
  20770408.99648        50.200          36.700  
  24434029.586 4     -4091.338 4     -3188.05746   8671475.165 4   6720552.68846
  24434025.66446        38.900          20.600  
  24849975.563 4      2760.244 4      2150.84145  -3228870.889 4  -2441791.98145
  24849970.42245        38.700          18.600  
  23042381.383 6      2537.620 6      1977.36646  -4959405.356 6  -3756888.45346
  23042375.18046        42.900          25.300  
  20440603.344 7       584.300 7       455.29948  -4880163.221 7  -3781411.37548
  20440599.23048        49.500          38.000  
  20329422.758 7       132.371 7       103.14749  -3679392.640 7  -2861441.65949
  20329417.56349        50.200          43.700  
  22380794.930 6     -3490.452 6     -2719.83147   5960405.752 6   4629041.50347
  22380791.80947        45.700          33.700  
 08  1 20 20 15 45.0000000  0 10G02G05G06G10G12G16G21G24G29G30   -0.000122835
  23276511.289 5     -3554.433 5     -2769.68947   7131692.569 5   5523011.47547
  23276505.49647        40.500          26.700  
  23449400.938 5     -4000.357 5     -3117.16046   8138133.738 5   6304753.36046
  23449398.17646        41.800          25.800  
  20704113.930 7      1031.392 7       803.68248  -5966824.011 7  -4632250.77448
  20704109.66848        48.300          38.300  
  20771233.891 7      -861.184 7      -671.05348  -2038867.295 7  -1578571.16748
  20771228.07048        49.000          36.700  
  24437923.625 5     -4091.734 5     -3188.36646   8691933.835 5   6736494.51746
  24437919.24646        40.300          20.400  
  24847350.820 5      2758.615 5      2149.56846  -3242663.962 5  -2452539.81946
  24847345.33646        39.800          19.000  
  23039967.570 6      2536.707 6      1976.65347  -4972088.892 6  -3766771.71647
  23039961.61747        43.700          26.900  
  20440049.500 7       582.060 7       453.55448  -4883073.521 7  -3783679.14448
  20440045.53148        49.600          37.800  
  20329299.766 7       129.841 7       101.17449  -3680041.845 7  -2861947.52949
  20329294.51249        50.300          43.600  
  22384117.750 6     -3492.360 6     -2721.31747   5977867.552 6   4642648.08847
  22384114.68047        45.700          33.600  
 08  1 20 20 15 50.0000000  0 10G02G05G06G10G12G16G21G24G29G30   -0.000121824
  23279893.453 5     -3555.289 5     -2770.35546   7149469.014 5   5536863.25246
  23279888.55146        39.900          25.600  
  23453208.500 5     -4001.233 5     -3117.84446   8158139.905 5   6320342.58346
  23453205.16846        42.100          25.900  
  20703134.773 7      1029.045 7       801.85348  -5971969.234 7  -4636260.03748
  20703129.85548        49.000          38.400  
  20772056.711 7      -864.828 7      -673.89148  -2034543.152 7  -1575201.71048
  20772051.47748        49.800          36.900  
  24441816.664 5     -4092.192 5     -3188.71846   8712394.795 5   6752438.10546
  24441812.94946        39.600          20.600  
  24844727.352 4      2756.905 4      2148.23946  -3256448.484 4  -2463281.01246
  24844722.53146        38.800          19.300  
  23037555.055 6      2535.712 6      1975.88046  -4984767.450 6  -3776651.11746
  23037548.89846        44.000          26.200  
  20439497.992 7       579.754 7       451.75548  -4885972.288 7  -3785937.92048
  20439494.25448        49.400          38.000  
  20329178.508 7       127.230 7        99.14149  -3680677.995 7  -2862443.23649
  20329173.52349        51.000          43.700  
  22387442.719 6     -3494.345 6     -2722.86648   5995339.277 6   4656262.41948
  22387439.05548        45.600          33.800  
 08  1 20 20 15 55.0000000  0 10G02G05G06G10G12G16G21G24G29G30   -0.000120813
  23283277.250 5     -3556.111 5     -2770.99547   7167249.567 5   5550718.22647
  23283272.10247        39.600          27.200  
  23457015.930 5     -4002.092 5     -3118.51146   8178150.364 5   6335935.14046
  23457013.29346        42.200          26.000  
  20702157.969 7      1026.716 7       800.03748  -5977102.813 7  -4640260.22448
  20702152.98048        49.500          38.200  
  20772882.938 7      -868.436 7      -676.70348  -2030200.971 7  -1571818.19348
  20772877.80548        49.200          36.400  
  24445710.859 5     -4092.624 5     -3189.05746   8732857.915 5   6768383.39346
  24445706.94146        40.800          20.600  
  24842106.273 4      2755.226 4      2146.93246  -3270224.615 4  -2474015.67146
  24842101.08246        38.400          19.900  
  23035143.289 6      2534.747 6      1975.12746  -4997441.185 6  -3786526.75446
  23035137.32846        43.800          25.200  
  20438948.391 7       577.471 7       449.97948  -4888859.642 7  -3788187.81548
  20438944.64848        49.700          38.200  
  20329059.883 7       124.638 7        97.12149  -3681301.184 7  -2862928.84149
  20329054.75449        50.200          43.600  
  22390769.094 6     -3496.296 6     -2724.38748   6012820.759 6   4669884.35448
  22390765.56348        45.700          34.200  
 08  1 20 20 16  0.0000000  0 10G02G05G06G10G12G16G21G24G29G30   -0.000119802
  23286661.375 5     -3556.869 5     -2771.58546   7185033.912 5   5564576.15346
  23286656.30946        39.900          24.700  
  23460824.297 5     -4002.869 5     -3119.11747   8198164.709 5   6351530.72647
  23460821.58247        41.800          26.400  
  20701183.414 7      1024.454 7       798.27648  -5982225.081 7  -4644251.60448
  20701178.26248        48.600          38.400  
  20773712.500 7      -871.998 7      -679.47948  -2025840.982 7  -1568420.79648
  20773707.04348        48.800          36.800  
  24449605.578 5     -4092.981 5     -3189.33446   8753322.821 5   6784330.06346
  24449600.85946        40.200          20.100  
  24839486.281 4      2753.614 4      2145.66746  -3283992.683 4  -2484744.00846
  24839480.90646        38.400          19.300  
  23032731.898 6      2533.852 6      1974.42946  -5010110.442 6  -3796398.89846
  23032726.42646        44.800          26.200  
  20438401.023 7       575.252 7       448.24748  -4891735.900 7  -3790429.05348
  20438397.39548        49.800          38.300  
  20328943.891 7       122.127 7        95.16349  -3681911.816 7  -2863404.65449
  20328938.89849        49.100          43.600  
  22394097.328 6     -3498.181 6     -2725.85547   6030311.666 6   4683513.63147
  22394093.93047        45.500          33.400  
 08  1 20 20 16  5.0000000  0 10G02G05G06G10G12G16G21G24G29G30   -0.000118790
  23290046.047 5     -3557.757 5     -2772.27646   7202822.697 5   5578437.53146
  23290041.64146        39.900          25.400  
  23464634.883 6     -4003.795 6     -3119.83846   8218183.685 6   6367129.91746
  23464630.92646        42.900          25.300  
  20700210.516 7      1022.056 7       796.40748  -5987335.361 7  -4648233.64248
  20700206.40248        49.500          38.300  
  20774545.844 7      -875.681 7      -682.34848  -2021462.577 7  -1565009.05848
  20774540.50848        48.600          36.200  
  24453500.109 5     -4093.488 5     -3189.72846   8773790.261 5   6800278.70546
  24453495.79746        39.900          20.100  
  24836868.352 4      2751.878 4      2144.32445  -3297752.072 4  -2495465.62745
  24836862.62145        38.300          18.300  
  23030321.898 6      2532.804 6      1973.61146  -5022774.465 6  -3806266.95246
  23030316.60546        43.300          25.200  
  20437856.250 7       572.896 7       446.41348  -4894600.380 7  -3792661.11848
  20437852.49648        49.800          38.300  
  20328829.773 7       119.474 7        93.09749  -3682509.188 7  -2863870.14249
  20328825.22349        50.200          43.700  
  22397427.805 6     -3500.204 6     -2727.43147   6047812.688 6   4697150.78447
  22397424.05547        44.900          33.400  
 08  1 20 20 16 10.0000000  0 10G02G05G06G10G12G16G21G24G29G30   -0.000117777
  23293432.289 5     -3558.625 5     -2772.95246   7220615.824 5   5592302.29246
  23293427.32846        39.200          25.100  
  23468444.664 5     -4004.673 5     -3120.52446   8238207.048 5   6382732.53646
  23468441.62546        42.000          26.100  
  20699240.273 7      1019.694 7       794.56748  -5992433.832 7  -4652206.47848
  20699235.60948        49.200          38.300  
  20775382.531 7      -879.344 7      -685.20348  -2017065.858 7  -1561583.04348
  20775377.19548        49.100          36.500  
  24457395.336 5     -4093.973 5     -3190.11246   8794260.126 5   6816229.26646
  24457390.69546        39.700          19.000  
  24834251.719 4      2750.147 4      2142.96845  -3311502.809 4  -2506180.46745
  24834245.80545        38.900          18.600  
  23027913.063 6      2531.798 6      1972.83046  -5035433.453 6  -3816131.10446
  23027907.72746        43.900          24.700  
  20437313.141 7       570.573 7       444.60348  -4897453.244 7  -3794884.13248
  20437309.30548        50.700          38.200  
  20328718.781 7       116.854 7        91.05449  -3683093.460 7  -2864325.41449
  20328713.43049        50.200          43.700  
  22400760.031 6     -3502.191 6     -2728.97948   6065323.641 6   4710795.68048
  22400756.40248        45.400          34.000  
 08  1 20 20 16 15.0000000  0 10G02G05G06G10G12G16G21G24G29G30   -0.000116764
  23296819.164 4     -3559.525 4     -2773.65546   7238413.450 4   5606170.56846
  23296814.33646        38.700          25.800  
  23472255.836 5     -4005.601 5     -3121.24646   8258235.054 5   6398338.76546
  23472252.46546        41.000          26.100  
  20698272.242 7      1017.267 7       792.67548  -5997520.166 7  -4656169.85248
  20698267.87948        48.800          38.100  
  20776223.016 7      -883.041 7      -688.08348  -2012650.654 7  -1558142.62648
  20776217.19948        49.600          36.400  
  24461290.859 4     -4094.478 4     -3190.49846   8814732.515 4   6832181.75446
  24461286.44146        38.700          20.100  
  24831636.539 4      2748.370 4      2141.59445  -3325244.657 4  -2516888.43545
  24831630.39145        37.700          18.300  
  23025505.227 6      2530.743 6      1972.00446  -5048087.167 6  -3825991.12446
  23025499.69946        43.500          26.000  
  20436772.820 7       568.201 7       442.75448  -4900294.247 7  -3797097.89948
  20436768.53548        49.900          38.200  
  20328609.977 7       114.181 7        88.97149  -3683664.367 7  -2864770.27149
  20328605.15249        49.400          43.700  
  22404094.078 6     -3504.219 6     -2730.55947   6082844.737 6   4724448.47747
  22404090.80547        45.300          33.600  
 08  1 20 20 16 20.0000000  0 10G02G05G06G10G12G16G21G24G29G30   -0.000115751
  23300206.828 4     -3560.355 4     -2774.30047   7256215.224 4   5620042.06747
  23300201.41047        39.000          26.400  
  23476068.344 5     -4006.445 5     -3121.90247   8278267.276 5   6413948.27547
  23476064.43847        41.900          26.600  
  20697306.664 7      1014.932 7       790.85548  -6002594.825 7  -4660124.12848
  20697302.48848        48.100          38.200  
  20777066.453 7      -886.669 7      -690.91148  -2008217.308 7  -1554688.06848
  20777061.08248        49.600          36.600  
  24465187.039 5     -4094.896 5     -3190.82946   8835206.994 5   6848135.89746
  24465183.00046        39.200          19.900  
  24829022.836 3      2746.660 3      2140.25345  -3338977.959 3  -2527589.70145
  24829017.19545        37.100          18.600  
  23023097.984 6      2529.773 6      1971.25346  -5060736.032 6  -3835847.38946
  23023092.68846        43.500          23.900  
  20436234.195 7       565.912 7       440.97048  -4903123.806 7  -3799302.74848
  20436230.19948        50.300          38.600  
  20328503.148 7       111.593 7        86.95549  -3684222.332 7  -2865205.04849
  20328498.40249        50.200          43.600  
  22407430.555 6     -3506.160 6     -2732.07247   6100375.536 6   4738108.83647
  22407426.93447        44.100          33.500  
 08  1 20 20 16 25.0000000  0 10G02G05G06G10G12G16G21G24G29G30   -0.000114737
  23303595.484 5     -3561.131 5     -2774.90947   7274020.881 5   5633916.61147
  23303589.71147        39.900          26.700  
  23479881.086 5     -4007.244 5     -3122.52846   8298303.495 5   6429560.91546
  23479877.68846        41.800          25.700  
  20696343.133 7      1012.633 7       789.06448  -6007657.988 7  -4664069.44848
  20696339.05948        47.900          38.400  
  20777913.234 7      -890.237 7      -693.68948  -2003766.125 7  -1551219.62348
  20777908.24248        49.900          36.700  
  24469083.461 4     -4095.276 4     -3191.11946   8855683.374 4   6864091.49046
  24469079.02046        38.400          19.600  
  24826411.109 3      2745.013 3      2138.97245  -3352703.024 3  -2538284.56245
  24826405.40245        37.300          16.900  
  23020691.570 6      2528.839 6      1970.52246  -5073380.229 6  -3845699.99746
  23020686.00446        43.800          24.800  
  20435697.914 7       563.675 7       439.22648  -4905942.181 7  -3801498.88048
  20435693.99648        50.500          38.700  
  20328399.867 7       109.036 7        84.96349  -3684767.512 7  -2865629.86349
  20328395.19149        50.100          43.700  
  22410768.008 6     -3508.069 6     -2733.55847   6117915.880 6   4751776.62747
  22410764.61347        44.500          33.600  
 08  1 20 20 16 30.0000000  0 10G02G05G06G10G12G16G21G24G29G30   -0.000113724
  23306984.008 5     -3561.947 5     -2775.54547   7291830.617 5   5647794.33847
  23306978.80147        39.900          27.000  
  23483694.641 5     -4008.083 5     -3123.17947   8318343.910 5   6445176.81247
  23483690.97347        42.100          27.200  
  20695382.008 7      1010.308 7       787.25148  -6012709.528 7  -4668005.70248
  20695377.57448        47.800          38.300  
  20778763.320 7      -893.846 7      -696.50448  -1999296.897 7  -1547737.10448
  20778758.47748        49.400          36.600  
  24472980.250 3     -4095.695 3     -3191.45146   8876161.851 3   6880048.74746
  24472976.15646        37.100          19.000  
  24823801.406 3      2743.321 3      2137.64845  -3366419.628 3  -2548972.80045
  24823795.14845        36.800          18.600  
  23018286.445 6      2527.862 6      1969.76146  -5086019.541 6  -3855548.80546
  23018281.34846        42.800          24.100  
  20435163.789 7       561.382 7       437.44048  -4908749.090 7  -3803686.07848
  20435159.71548        50.700          38.500  
  20328298.484 7       106.448 7        82.94749  -3685299.750 7  -2866044.59749
  20328293.32849        50.100          43.500  
  22414107.930 6     -3510.002 6     -2735.06547   6135465.891 6   4765451.95247
  22414103.92247        44.900          33.400  
 08  1 20 20 16 35.0000000  0 10G02G05G06G10G12G16G21G24G29G30   -0.000112709
  23310373.070 5     -3562.650 5     -2776.09047   7309643.867 5   5661674.78647
  23310368.32847        40.000          27.200  
  23487509.320 5     -4008.803 5     -3123.74246   8338387.927 5   6460795.52346
  23487505.48046        41.400          26.200  
  20694422.602 7      1008.082 7       785.51848  -6017749.937 7  -4671933.29148
  20694418.23448        48.400          38.400  
  20779617.281 7      -897.354 7      -699.23748  -1994810.130 7  -1544240.91948
  20779612.21948        49.700          36.400  
  24476877.578 4     -4095.994 4     -3191.68346   8896641.821 4   6896007.16346
  24476873.07446        38.200          19.000  
  24821192.148 3      2741.712 3      2136.40645  -3380128.188 3  -2559654.82945
  24821186.74245        37.100          17.800  
  23015882.430 6      2526.998 6      1969.08746  -5098654.528 6  -3865394.24046
  23015877.43046        42.600          23.400  
  20434631.672 7       559.211 7       435.74848  -4911545.144 7  -3805864.82048
  20434627.62148        50.100          38.800  
  20328199.750 7       103.967 7        81.01349  -3685819.583 7  -2866449.66049
  20328194.79749        50.000          43.700  
  22417448.898 6     -3511.833 6     -2736.49547   6153025.057 6   4779134.42647
  22417445.28147        45.700          33.400  
 08  1 20 20 16 40.0000000  0 10G02G05G06G10G12G16G21G24G29G30   -0.000111696
  23313763.898 5     -3563.507 5     -2776.75647   7327461.401 5   5675558.56647
  23313759.19947        40.200          27.500  
  23491324.125 5     -4009.679 5     -3124.42346   8358436.324 5   6476417.64146
  23491320.37546        41.800          25.400  
  20693465.844 7      1005.684 7       783.65148  -6022778.357 7  -4675851.54448
  20693461.35548        48.000          38.500  
  20780474.836 7      -901.004 7      -702.08148  -1990305.109 7  -1540730.51248
  20780469.16848        49.000          36.600  
  24480775.836 4     -4096.464 4     -3192.04546   8917124.142 4   6911967.39046
  24480771.12146        38.100          19.000  
  24818584.766 3      2739.976 3      2135.03745  -3393828.070 3  -2570330.01545
  24818579.72345        35.800          17.800  
  23013479.117 5      2525.973 5      1968.28946  -5111284.396 5  -3875235.68746
  23013473.48846        42.100          24.600  
  20434101.656 7       556.880 7       433.93348  -4914329.544 7  -3808034.48748
  20434098.03548        49.900          38.700  
  20328103.453 7       101.324 7        78.95349  -3686326.205 7  -2866844.42749
  20328098.54349        49.700          43.700  
  22420792.406 6     -3513.808 6     -2738.03147   6170594.095 6   4792824.57847
  22420788.90647        44.900          33.200  
 08  1 20 20 16 45.0000000  0 10G02G05G06G10G12G16G21G24G29G30   -0.000110682
  23317155.422 5     -3564.229 5     -2777.32447   7345282.549 5   5689445.18747
  23317150.07447        40.100          27.000  
  23495140.211 5     -4010.414 5     -3124.99647   8378488.395 5   6492042.62247
  23495136.06647        42.200          26.300  
  20692510.664 7      1003.436 7       781.89748  -6027795.535 7  -4679761.02748
  20692506.76648        49.000          38.500  
  20781335.039 7      -904.521 7      -704.82048  -1985782.506 7  -1537206.41048
  20781329.89548        49.300          36.500  
  24484673.461 3     -4096.774 3     -3192.29145   8937608.014 3   6927928.84445
  24484669.08245        36.800          18.600  
  24815978.914 3      2738.352 3      2133.78545  -3407519.830 3  -2580998.93845
  24815973.92645        36.900          18.600  
  23011076.781 5      2525.083 5      1967.59546  -5123909.812 5  -3885073.66446
  23011071.62946        41.800          23.400  
  20433573.930 7       554.688 7       432.22448  -4917102.985 7  -3810195.60848
  20433570.19948        50.200          38.800  
  20328009.500 7        98.824 7        77.00749  -3686820.326 7  -2867229.46349
  20328004.35549        49.700          43.600  
  22424137.633 6     -3515.651 6     -2739.46847   6188172.349 6   4806521.91847
  22424134.14547        44.700          33.400  
 08  1 20 20 16 50.0000000  0 10G02G05G06G10G12G16G21G24G29G30   -0.000109667
  23320546.742 5     -3565.043 5     -2777.95547   7363107.765 5   5703334.96247
  23320542.27747        40.600          28.600  
  23498956.953 5     -4011.254 5     -3125.65346   8398544.664 5   6507670.88746
  23498952.33646        41.300          25.900  
  20691558.359 7      1001.090 7       780.07148  -6032800.986 7  -4683661.38448
  20691553.93048        48.700          38.300  
  20782199.422 7      -908.142 7      -707.64248  -1981241.796 7  -1533668.19848
  20782194.14848        49.400          36.400  
  24488571.453 3     -4097.188 3     -3192.61445   8958093.956 3   6943891.91145
  24488567.04345        36.500          18.300  
  24813375.875 3      2736.645 3      2132.45145  -3421203.057 3  -2591661.19345
  24813370.27045        36.800          17.400  
  23008675.164 5      2524.096 5      1966.82846  -5136530.290 5  -3894907.80446
  23008669.64846        42.100          23.900  
  20433048.445 7       552.396 7       430.43848  -4919864.967 7  -3812347.79748
  20433044.68848        49.900          38.800  
  20327917.438 7        96.224 7        74.97949  -3687301.446 7  -2867604.35849
  20327912.64849        49.800          43.700  
  22427483.875 6     -3517.589 6     -2740.97747   6205760.292 6   4820226.80447
  22427480.71147        44.200          33.600  
 08  1 20 20 16 55.0000000  0 10G02G05G06G10G12G16G21G24G29G30   -0.000108652
  23323939.922 5     -3565.808 5     -2778.55147   7380936.806 5   5717227.71547
  23323935.21947        40.400          27.700  
  23502774.492 5     -4012.021 5     -3126.24647   8418604.770 5   6523302.11547
  23502769.66047        41.400          26.400  
  20690608.234 7       998.800 7       778.28548  -6037794.985 7  -4687552.80848
  20690604.01248        48.700          38.200  
  20783066.805 7      -911.703 7      -710.41948  -1976683.280 7  -1530116.10448
  20783061.48448        48.400          36.600  
  24492471.125 3     -4097.546 3     -3192.88145   8978581.687 3   6959856.31445
  24492465.51245        36.400          17.800  
  24810773.156 3      2734.996 3      2131.16745  -3434878.036 3  -2602317.02945
  24810768.46545        36.100          18.300  
  23006274.109 5      2523.173 5      1966.10946  -5149146.155 5  -3904738.34746
  23006269.22346        42.200          23.300  
  20432524.883 7       550.158 7       428.69648  -4922615.759 7  -3814491.27548
  20432521.10248        49.500          38.800  
  20327828.750 7        93.686 7        73.00249  -3687769.878 7  -2867969.36849
  20327823.85549        50.100          43.700  
  22430833.117 6     -3519.460 6     -2742.43547   6223357.595 6   4833938.97947
  22430829.11347        43.500          32.800  
 08  1 20 20 17  0.0000000  0 10G02G05G06G10G12G16G21G24G29G30   -0.000107637
  23327333.625 5     -3566.511 5     -2779.09547   7398769.363 5   5731123.18947
  23327329.17247        39.900          26.800  
  23506592.180 5     -4012.735 5     -3126.80747   8438668.444 5   6538936.15247
  23506587.64847        41.900          27.200  
  20689659.758 7       996.550 7       776.53448  -6042777.733 7  -4691435.47748
  20689655.97348        48.900          38.000  
  20783937.898 7      -915.200 7      -713.14348  -1972107.278 7  -1526550.39248
  20783932.76248        48.700          36.500  
  24496369.742 3     -4097.835 3     -3193.12245   8999070.864 3   6975821.92345
  24496365.03945        36.300          18.300  
  24808172.148 2      2733.397 2      2129.91645  -3448545.023 2  -2612966.60745
  24808167.67245        35.400          18.300  
  23003874.391 5      2522.308 5      1965.43546  -5161757.697 5  -3914565.52146
  23003869.01246        42.400          22.500  
  20432003.641 7       547.986 7       427.00148  -4925355.687 7  -3816626.28248
  20431999.43448        49.400          39.000  
  20327742.133 7        91.207 7        71.07149  -3688225.911 7  -2868324.72149
  20327737.13349        49.000          43.600  
  22434183.031 6     -3521.270 6     -2743.84647   6240963.942 6   4847658.20947
  22434179.69147        43.900          32.300  
 08  1 20 20 17  5.0000000  0 10G02G05G06G10G12G16G21G24G29G30   -0.000106623
  23330726.984 5     -3567.366 5     -2779.76247   7416606.191 5   5745021.99947
  23330723.39547        39.400          27.200  
  23510411.172 5     -4013.596 5     -3127.47747   8458736.423 5   6554573.53647
  23510406.89547        42.400          27.000  
  20688713.898 7       994.169 7       774.67748  -6047748.576 7  -4695308.86148
  20688709.61748        48.300          38.000  
  20784811.930 7      -918.848 7      -715.98648  -1967513.037 7  -1522970.46348
  20784807.12948        49.000          37.000  
  24500269.500 3     -4098.282 3     -3193.45845   9019562.274 3   6991789.21645
  24500264.26245        36.400          17.800  
  24805572.891 2      2731.622 2      2128.52845  -3462203.132 2  -2623609.24845
  24805568.73445        35.500          17.400  
  23001475.820 6      2521.283 6      1964.63346  -5174364.112 6  -3924388.68846
  23001470.27046        42.600          22.500  
  20431484.609 7       545.648 7       425.17948  -4928083.925 7  -3818752.17848
  20431480.60548        49.400          38.900  
  20327657.609 7        88.563 7        69.01049  -3688668.728 7  -2868669.77049
  20327652.77749        49.200          43.600  
  22437535.023 6     -3523.237 6     -2745.37947   6258580.128 6   4861385.10547
  22437531.85947        43.300          32.200  
 08  1 20 20 17 10.0000000  0 10G02G05G06G10G12G16G21G24G29G30   -0.000105608
  23334122.227 5     -3568.187 5     -2780.40047   7434447.127 5   5758923.99747
  23334118.03947        39.200          27.600  
  23514230.555 5     -4014.414 5     -3128.11447   8478808.494 5   6570214.10447
  23514226.18447        40.900          26.400  
  20687770.273 7       991.810 7       772.83848  -6052707.625 7  -4699173.05348
  20687766.09448        49.400          38.100  
  20785689.773 7      -922.481 7      -718.81748  -1962900.631 7  -1519376.37948
  20785684.58648        48.500          36.600  
  24504169.258 3     -4098.696 3     -3193.79845   9040055.756 3   7007758.20745
  24504164.00045        36.700          17.400  
  24802975.844 3      2729.884 3      2127.18945  -3475852.554 3  -2634245.19545
  24802971.25845        35.800          16.300  
  22999077.289 6      2520.291 6      1963.86346  -5186965.565 6  -3934208.00046
  22999072.36346        42.600          22.800  
  20430967.539 7       543.347 7       423.38848  -4930800.659 7  -3820869.11648
  20430963.83648        49.700          39.000  
  20327576.008 7        85.951 7        66.97449  -3689098.482 7  -2869004.64249
  20327570.69149        49.900          43.500  
  22440889.602 6     -3525.162 6     -2746.87647   6276205.937 6   4875119.48747
  22440885.92647        43.700          32.500  
 08  1 20 20 17 15.0000000  0 10G02G05G06G10G12G16G21G24G29G30   -0.000104591
  23337517.875 5     -3569.063 5     -2781.08547   7452292.441 5   5772829.42347
  23337514.49247        39.200          29.000  
  23518051.180 5     -4015.312 5     -3128.81346   8498885.055 5   6585858.17146
  23518046.59046        41.600          25.900  
  20686829.359 7       989.385 7       770.95048  -6057654.551 7  -4703027.80548
  20686825.07848        47.900          38.200  
  20786571.047 7      -926.145 7      -721.67148  -1958269.904 7  -1515768.02648
  20786565.84848        48.000          36.900  
  24508069.359 4     -4099.155 4     -3194.14445   9060551.532 4   7023728.92645
  24508064.60545        37.700          18.300  
  24800379.594 3      2728.100 3      2125.79745  -3489493.056 3  -2644874.18045
  24800375.80545        35.800          16.300  
  22996680.047 5      2519.252 5      1963.05146  -5199561.825 5  -3944023.25446
  22996675.27746        42.100          22.600  
  20430452.695 7       540.993 7       421.55448  -4933505.622 7  -3822976.88548
  20430448.92248        49.500          38.900  
  20327496.609 7        83.281 7        64.89449  -3689514.887 7  -2869329.11149
  20327491.46149        49.600          43.500  
  22444245.102 6     -3527.146 6     -2748.42647   6293841.667 6   4888861.61547
  22444241.75447        44.200          32.100  
 08  1 20 20 17 20.0000000  0 10G02G05G06G10G12G16G21G24G29G30   -0.000103575
  23340914.992 5     -3569.901 5     -2781.73847   7470141.945 5   5786738.11147
  23340911.02747        40.200          28.300  
  23521872.391 5     -4016.128 5     -3129.44747   8518965.695 5   6601505.40747
  23521867.98047        40.500          27.000  
  20685890.000 7       987.016 7       769.10348  -6062589.631 7  -4706873.31748
  20685885.93048        48.100          38.200  
  20787455.633 7      -929.774 7      -724.49948  -1953621.035 7  -1512145.53248
  20787450.31648        48.900          37.000  
  24511969.945 3     -4099.586 3     -3194.47345   9081049.464 3   7039701.29345
  24511964.85945        35.900          16.300  
  24797785.539 3      2726.359 3      2124.42845  -3503124.849 3  -2655496.32145
  24797781.96545        36.600          16.300  
  22994284.297 5      2518.242 5      1962.26646  -5212153.033 5  -3953834.58246
  22994279.32446        42.400          23.000  
  20429940.625 7       538.681 7       419.75248  -4936199.028 7  -3825075.64448
  20429936.60948        50.100          39.000  
  20327420.133 7        80.654 7        62.84749  -3689918.155 7  -2869643.34549
  20327414.83249        49.400          43.500  
  22447603.125 6     -3529.078 6     -2749.92947   6311487.059 6   4902611.26347
  22447599.38747        44.400          32.000  
 08  1 20 20 17 25.0000000  0 10G02G05G06G10G12G16G21G24G29G30   -0.000102560
  23344313.094 5     -3570.682 5     -2782.34547   7487995.357 5   5800649.83947
  23344308.49647        39.600          28.800  
  23525694.953 5     -4016.920 5     -3130.06747   8539050.295 5   6617155.74447
  23525690.15647        40.900          26.500  
  20684953.523 7       984.696 7       767.29548  -6067513.110 7  -4710709.79348
  20684948.96548        47.700          38.300  
  20788343.719 7      -933.347 7      -727.28448  -1948954.300 7  -1508509.11348
  20788338.81648        49.100          36.800  
  24515870.672 2     -4099.943 2     -3194.76845   9101549.181 2   7055675.13445
  24515865.53545        35.500          17.400  
  24795193.625 3      2724.657 3      2123.11445  -3516748.134 3  -2666111.88945
  24795189.73045        36.600          16.900  
  22991888.750 5      2517.290 5      1961.52146  -5224739.484 5  -3963642.18746
  22991884.46146        42.100          22.500  
  20429429.977 7       536.427 7       417.99548  -4938881.162 7  -3827165.62048
  20429426.02348        50.000          39.200  
  20327345.602 7        78.077 7        60.84149  -3690308.542 7  -2869947.55049
  20327340.64849        49.200          43.500  
  22450962.594 6     -3530.952 6     -2751.38947   6329141.820 6   4916368.21047
  22450959.20747        44.500          32.600  
 08  1 20 20 17 30.0000000  0 10G02G05G06G10G12G16G21G24G29G30   -0.000101542
  23347711.039 5     -3571.477 5     -2782.96647   7505852.741 5   5814564.67147
  23347706.62147        40.600          28.500  
  23529516.891 5     -4017.728 5     -3130.69547   8559138.937 5   6632809.22047
  23529512.84847        41.100          26.700  
  20684018.391 6       982.331 6       765.45348  -6072424.766 6  -4714537.06048
  20684014.39848        47.300          38.400  
  20789235.359 7      -936.944 7      -730.08748  -1944269.578 7  -1504858.68148
  20789229.96948        48.500          37.200  
  24519772.891 3     -4100.342 3     -3195.06145   9122050.893 3   7071650.44045
  24519766.50045        35.700          16.900  
  24792602.633 2      2722.928 2      2121.76145  -3530362.772 2  -2676720.69645
  24792598.43845        35.600          17.400  
  22989494.328 5      2516.302 5      1960.75846  -5237320.997 5  -3973445.97746
  22989489.96146        41.600          22.200  
  20428921.758 7       534.138 7       416.21048  -4941551.853 7  -3829246.67048
  20428917.65248        49.500          39.400  
  20327274.133 7        75.481 7        58.81649  -3690685.949 7  -2870241.62949
  20327269.00049        48.600          43.300  
  22454324.172 6     -3532.859 6     -2752.87547   6346806.116 6   4930132.58247
  22454320.29747        43.900          31.500  
 08  1 20 20 17 35.0000000  0 10G02G05G06G10G12G16G21G24G29G30   -0.000100525
  23351110.117 5     -3572.199 5     -2783.53047   7523713.737 5   5828482.32247
  23351105.42647        40.500          27.900  
  23533340.586 5     -4018.439 5     -3131.24847   8579231.133 5   6648465.45747
  23533336.39847        40.200          26.300  
  20683086.000 7       980.047 7       763.67148  -6077324.999 7  -4718355.41548
  20683081.78948        47.800          38.500  
  20790130.063 7      -940.482 7      -732.84448  -1939567.170 7  -1501194.46348
  20790125.13748        48.300          36.900  
  24523674.320 2     -4100.663 2     -3195.32445   9142554.209 2   7087627.06145
  24523668.34445        35.200          15.600  
  24790012.766 3      2721.269 3      2120.46245  -3543969.119 3  -2687323.00545
  24790009.70345        35.800          16.900  
  22987101.633 5      2515.398 5      1960.05046  -5249897.987 5  -3983246.22946
  22987096.65646        42.000          22.500  
  20428415.758 7       531.937 7       414.49848  -4944211.538 7  -3831319.15948
  20428411.62548        49.500          39.400  
  20327204.461 7        72.957 7        56.85049  -3691050.735 7  -2870525.88149
  20327199.58649        48.500          43.300  
  22457687.563 6     -3534.688 6     -2754.30247   6364479.559 6   4943904.09347
  22457683.55147        43.800          31.400  
 08  1 20 20 17 40.0000000  0 10G02G05G06G10G12G16G21G24G29G30   -0.000099508
  23354510.031 5     -3572.818 5     -2784.01447   7541577.827 5   5842402.39347
  23354505.04747        40.600          28.600  
  23537164.734 5     -4019.050 5     -3131.72947   8599326.383 5   6664124.10447
  23537160.14147        41.400          26.500  
  20682155.594 7       977.883 7       761.98948  -6082214.414 7  -4722165.35848
  20682151.43448        47.800          38.600  
  20791027.820 7      -943.887 7      -735.49648  -1934847.736 7  -1497516.98448
  20791022.78948        48.100          37.000  
  24527575.906 2     -4100.851 2     -3195.45945   9163058.461 2   7103604.35645
  24527569.94945        34.600          16.300  
  24787426.008 2      2719.731 2      2119.27145  -3557567.774 2  -2697919.36045
  24787421.43045        34.800          17.400  
  22984709.039 5      2514.607 5      1959.43146  -5262471.021 5  -3993043.38346
  22984704.25846        41.200          22.900  
  20427911.813 7       529.839 7       412.86248  -4946860.733 7  -3833383.46848
  20427907.42248        50.200          39.300  
  20327137.180 7        70.554 7        54.97649  -3691403.504 7  -2870800.76149
  20327132.12949        49.400          43.100  
  22461052.172 6     -3536.399 6     -2755.63247   6382161.552 6   4957682.25447
  22461048.31347        44.300          31.900  
 08  1 20 20 17 45.0000000  0 10G02G05G06G10G12G16G21G24G29G30   -0.000098492
  23357909.844 5     -3573.681 5     -2784.68747   7559446.232 5   5856325.82947
  23357905.14147        40.400          28.500  
  23540989.586 5     -4019.925 5     -3132.40546   8619426.007 5   6679786.13046
  23540984.74246        40.100          26.000  
  20681227.484 6       975.460 6       760.09848  -6087091.715 6  -4725965.84848
  20681223.51648        47.400          38.500  
  20791929.523 7      -947.549 7      -738.35248  -1930109.989 7  -1493825.22348
  20791924.96148        47.800          36.800  
  24531478.305 2     -4101.299 2     -3195.81845   9183564.956 2   7119583.44845
  24531472.43045        35.000          16.900  
  24784839.344 2      2717.941 2      2117.87945  -3571157.481 2  -2708508.75745
  24784834.87945        35.100          17.400  
  22982317.711 5      2513.554 5      1958.61546  -5275038.791 5  -4002836.45846
  22982312.46546        40.900          22.300  
  20427409.672 7       527.486 7       411.02748  -4949498.164 7  -3835438.60448
  20427405.01248        49.900          39.300  
  20327072.875 7        67.880 7        52.89449  -3691742.906 7  -2871065.23149
  20327067.49249        49.100          43.200  
  22464418.438 6     -3538.362 6     -2757.16547   6399853.360 6   4971468.07747
  22464414.71547        44.200          32.000  
 08  1 20 20 17 50.0000000  0 10G02G05G06G10G12G16G21G24G29G30   -0.000097475
  23361310.656 4     -3574.391 4     -2785.24047   7577318.189 4   5870252.02747
  23361305.91847        38.900          29.100  
  23544815.383 5     -4020.635 5     -3132.96047   8639529.184 5   6695450.93147
  23544810.19547        41.100          27.900  
  20680301.773 7       973.171 7       758.31648  -6091957.571 7  -4729757.42648
  20680296.99248        47.600          38.700  
  20792834.211 7      -951.062 7      -741.08748  -1925354.681 7  -1490119.78948
  20792829.44948        48.300          36.800  
  24535380.219 2     -4101.601 2     -3196.04545   9204072.958 2   7135563.67445
  24535375.45745        34.400          16.900  
  24782255.867 3      2716.266 3      2116.57145  -3584738.812 3  -2719091.60945
  24782251.05145        35.800          16.900  
  22979927.695 5      2512.646 5      1957.90646  -5287602.020 5  -4012625.98746
  22979921.52046        41.600          22.800  
  20426909.859 7       525.278 7       409.30848  -4952124.553 7  -3837485.14448
  20426905.79748        50.600          39.600  
  20327010.336 7        65.352 7        50.92449  -3692069.665 7  -2871319.85349
  20327005.50449        48.500          43.200  
  22467787.000 6     -3540.171 6     -2758.57447   6417554.216 6   4985260.94547
  22467783.06647        44.800          31.000  
 08  1 20 20 17 55.0000000  0 10G02G05G06G10G12G16G21G24G29G30   -0.000096457
  23364711.961 5     -3575.190 5     -2785.85947   7595194.140 5   5884181.32047
  23364707.28147        39.400          28.400  
  23548641.609 5     -4021.415 5     -3133.56947   8659636.259 5   6711118.77647
  23548636.64547        41.700          27.100  
  20679377.914 7       970.821 7       756.48448  -6096811.678 7  -4733539.84748
  20679373.95748        48.600          38.900  
  20793742.539 7      -954.681 7      -743.90748  -1920581.275 7  -1486400.25248
  20793737.59448        48.300          36.800  
  24539283.125 2     -4101.968 2     -3196.33945   9224582.797 2   7151545.36945
  24539278.50845        34.900          16.300  
  24779672.773 3      2714.545 3      2115.23345  -3598311.539 3  -2729667.77345
  24779668.00445        36.000          17.800  
  22977537.109 5      2511.657 5      1957.13246  -5300160.307 5  -4022411.64846
  22977531.76646        41.400          22.600  
  20426412.281 7       522.996 7       407.52948  -4954739.535 7  -3839522.78648
  20426408.03148        50.300          39.600  
  20326950.758 7        62.748 7        48.89549  -3692383.407 7  -2871564.32649
  20326946.19149        49.200          43.200  
  22471157.164 6     -3542.049 6     -2760.03747   6435264.462 6   4999061.13047
  22471153.06647        44.600          32.400  
 08  1 20 20 18  0.0000000  0 10G02G05G06G10G12G16G21G24G29G30   -0.000095440
  23368115.008 5     -3576.041 5     -2786.52947   7613074.345 5   5898113.96347
  23368110.15647        39.500          28.700  
  23552468.781 5     -4022.274 5     -3134.24047   8679747.628 5   6726789.97447
  23552463.64147        40.300          26.800  
  20678456.516 7       968.384 7       754.58448  -6101653.596 7  -4737312.76948
  20678452.46148        48.100          38.600  
  20794654.211 7      -958.330 7      -746.75248  -1915789.624 7  -1482666.49148
  20794649.53148        48.400          36.400  
  24543186.250 2     -4102.406 2     -3196.67145   9245094.829 2   7167528.72445
  24543181.30145        34.600          16.900  
  24777092.648 3      2712.732 3      2113.81945  -3611875.197 3  -2740236.86745
  24777087.11745        36.400          17.400  
  22975148.547 5      2510.611 5      1956.32346  -5312713.359 5  -4032193.26346
  22975142.92646        41.500          22.300  
  20425916.875 7       520.648 7       405.70048  -4957342.774 7  -3841551.28748
  20425912.46948        50.700          39.700  
  20326893.852 7        60.075 7        46.81149  -3692683.782 7  -2871798.38349
  20326888.62949        49.600          43.200  
  22474529.195 6     -3544.008 6     -2761.56247   6452984.501 6   5012868.93947
  22474525.20747        43.800          31.400  
 08  1 20 20 18  5.0000000  0 10G02G05G06G10G12G16G21G24G29G30   -0.000094421
  23371517.742 5     -3576.893 5     -2787.18647   7630958.811 5   5912049.89547
  23371513.43447        39.300          29.100  
  23556296.477 5     -4023.115 5     -3134.89147   8699863.200 5   6742464.42747
  23556291.77747        41.000          27.400  
  20677537.008 7       965.974 7       752.70748  -6106483.466 7  -4741076.30348
  20677532.88748        48.800          38.900  
  20795569.445 7      -961.981 7      -749.59548  -1910979.718 7  -1478918.51548
  20795564.47748        48.400          36.300  
  24547090.539 2     -4102.850 2     -3197.03245   9265609.078 2   7183513.88345
  24547085.07045        35.300          15.600  
  24774511.805 3      2710.925 3      2112.40645  -3625429.823 3  -2750798.89645
  24774507.96145        35.900          16.300  
  22972760.656 5      2509.566 5      1955.50146  -5325261.188 5  -4041970.76846
  22972755.16846        41.700          22.000  
  20425424.109 7       518.309 7       403.87648  -4959934.317 7  -3843570.66948
  20425419.40248        50.800          39.400  
  20326838.664 7        57.427 7        44.74849  -3692970.919 7  -2872022.12249
  20326834.10949        49.300          43.300  
  22477903.336 6     -3545.943 6     -2763.07147   6470714.218 6   5026684.29647
  22477899.66047        45.000          31.600  
 08  1 20 20 18 10.0000000  0 10G02G05G06G10G12G16G21G24G29G30   -0.000093403
  23374922.602 5     -3577.585 5     -2787.72947   7648846.737 5   5925988.53847
  23374917.62547        40.300          29.800  
  23560124.750 5     -4023.801 5     -3135.42847   8719982.207 5   6758141.56647
  23560120.60247        40.500          27.400  
  20676620.180 7       963.715 7       750.94748  -6111302.041 7  -4744831.03848
  20676616.12548        48.300          38.800  
  20796488.219 7      -965.480 7      -752.32248  -1906152.318 7  -1475156.90448
  20796483.25048        48.600          36.400  
  24550994.219 2     -4103.098 2     -3197.21445   9286124.568 2   7199499.95345
  24550989.39145        35.300          15.600  
  24771935.227 3      2709.294 3      2111.14045  -3638976.293 3  -2761354.59745
  24771930.24645        36.400          16.300  
  22970373.758 5      2508.685 5      1954.82346  -5337804.613 5  -4051744.88446
  22970368.24646        41.600          22.500  
  20424932.594 7       516.121 7       402.17348  -4962514.922 7  -3845581.53448
  20424928.48448        50.200          39.400  
  20326786.555 7        54.913 7        42.79049  -3693245.486 7  -2872236.07149
  20326781.71949        49.300          43.300  
  22481279.211 6     -3547.724 6     -2764.45947   6488452.840 6   5040506.59247
  22481274.72347        44.300          31.900  
 08  1 20 20 18 15.0000000  0 10G02G05G06G10G12G16G21G24G29G30   -0.000092384
  23378327.391 5     -3578.331 5     -2788.30847   7666738.394 5   5939930.08047
  23378321.94547        41.100          30.000  
  23563953.695 5     -4024.525 5     -3135.99347   8740104.834 5   6773821.52947
  23563949.49647        41.200          28.500  
  20675705.344 7       961.399 7       749.14148  -6116109.037 7  -4748576.74248
  20675701.46948        49.100          38.900  
  20797410.063 7      -969.025 7      -755.08548  -1901307.193 7  -1471381.47948
  20797405.09448        48.600          36.300  
  24554898.344 2     -4103.424 2     -3197.48145   9306641.688 2   7215487.35645
  24554893.77345        34.900          14.800  
  24769358.680 3      2707.584 3      2109.81145  -3652514.213 3  -2771903.65145
  24769353.95745        36.700          17.400  
  22967987.953 5      2507.733 5      1954.07646  -5350343.276 5  -4061515.26646
  22967982.10946        41.600          22.000  
  20424443.688 7       513.884 7       400.42848  -4965084.344 7  -3847583.67548
  20424439.24248        50.500          39.500  
  20326736.953 7        52.352 7        40.79449  -3693507.246 7  -2872440.04349
  20326732.00049        49.500          43.200  
  22484656.078 6     -3549.556 6     -2765.88647   6506200.622 6   5054336.02147
  22484652.16847        45.200          32.100  
 08  1 20 20 18 20.0000000  0 10G02G05G06G10G12G16G21G24G29G30   -0.000091366
  23381732.211 5     -3579.153 5     -2788.95047   7684634.158 5   5953874.82947
  23381727.36347        42.200          31.100  
  23567783.828 5     -4025.335 5     -3136.62547   8760231.511 5   6789504.65247
  23567779.30947        42.000          28.000  
  20674793.234 7       959.008 7       747.28048  -6120904.076 7  -4752313.14248
  20674788.71548        49.500          39.100  
  20798335.438 7      -972.627 7      -757.89148  -1896444.061 7  -1467592.02648
  20798330.58248        48.800          36.400  
  24558802.281 2     -4103.811 2     -3197.76045   9327160.739 2   7231476.15945
  24558798.37945        33.900          14.800  
  24766784.359 3      2705.819 3      2108.43245  -3666043.307 3  -2782445.81345
  24766778.96145        37.100          17.800  
  22965602.594 5      2506.725 5      1953.29046  -5362876.902 5  -4071281.71446
  22965596.90646        42.100          22.500  
  20423957.086 7       511.572 7       398.62848  -4967642.202 7  -3849576.81548
  20423952.33648        50.500          39.800  
  20326689.625 7        49.720 7        38.74449  -3693755.848 7  -2872633.76349
  20326684.76649        49.000          43.200  
  22488035.445 6     -3551.455 6     -2767.36647   6523957.898 6   5068172.85047
  22488031.46147        44.800          32.100  
 08  1 20 20 18 25.0000000  0 10G02G05G06G10G12G16G21G24G29G30   -0.000090345
  23385138.875 5     -3579.948 5     -2789.56847   7702533.898 5   5967822.66747
  23385133.74247        41.700          30.800  
  23571614.703 5     -4026.121 5     -3137.23847   8780362.114 5   6805190.84047
  23571610.19947        41.800          27.700  
  20673882.883 7       956.628 7       745.42348  -6125687.216 7  -4756040.25748
  20673879.03148        49.100          39.000  
  20799264.617 7      -976.236 7      -760.70148  -1891562.883 7  -1463788.52148
  20799259.68048        47.800          36.300  
  24562708.375 1     -4104.191 1     -3198.07345   9347681.693 1   7247466.52545
  24562703.86345        33.200          14.800  
  24764210.742 3      2704.048 3      2107.04645  -3679563.548 3  -2792981.04445
  24764205.93845        36.400          17.400  
  22963218.352 5      2505.721 5      1952.50946  -5375405.508 5  -4081044.25746
  22963213.30546        41.500          22.800  
  20423472.672 7       509.280 7       396.84148  -4970188.601 7  -3851561.02248
  20423468.02748        50.300          39.600  
  20326644.734 7        47.093 7        36.69649  -3693991.314 7  -2872817.24549
  20326639.84849        49.600          43.300  
  22491416.219 6     -3553.345 6     -2768.83847   6541724.622 6   5082017.04047
  22491411.81647        44.900          32.100  
 08  1 20 20 18 30.0000000  0 10G02G05G06G10G12G16G21G24G29G30   -0.000089327
  23388546.023 5     -3580.777 5     -2790.21547   7720437.783 5   5981773.74147
  23388540.52747        40.900          31.400  
  23575446.141 5     -4026.924 5     -3137.86147   8800496.733 5   6820880.14347
  23575441.72347        40.800          27.400  
  20672975.234 7       954.226 7       743.55348  -6130458.346 7  -4759758.02248
  20672970.88348        48.800          39.000  
  20800197.156 7      -979.858 7      -763.52648  -1886663.593 7  -1459970.88948
  20800191.85248        48.800          36.400  
  24566613.594 1     -4104.570 1     -3198.36545   9368204.542 1   7263458.35145
  24566609.11745        33.400          15.600  
  24761640.047 4      2702.274 4      2105.66845  -3693074.917 4  -2803509.38545
  24761634.91845        37.400          16.900  
  22960834.563 5      2504.697 5      1951.71046  -5387928.992 5  -4090802.80646
  22960829.59046        40.900          22.200  
  20422990.289 7       506.957 7       395.03148  -4972723.385 7  -3853536.17848
  20422985.79348        50.200          39.600  
  20326602.398 7        44.451 7        34.63649  -3694213.571 7  -2872990.42549
  20326598.01649        49.300          43.300  
  22494799.133 6     -3555.250 6     -2770.32447   6559500.875 6   5095868.66147
  22494794.40247        44.600          31.900  
 08  1 20 20 18 35.0000000  0 10G02G05G06G10G12G16G21G24G29G30   -0.000088306
  23391953.641 5     -3581.520 5     -2790.79347   7738345.384 5   5995727.70847
  23391948.35247        41.900          30.900  
  23579278.273 5     -4027.659 5     -3138.43547   8820635.029 5   6836572.31747
  23579274.16047        40.900          28.500  
  20672069.563 7       951.880 7       741.72548  -6135217.748 7  -4763466.64648
  20672065.19948        49.100          38.900  
  20801132.992 7      -983.409 7      -766.29248  -1881746.548 7  -1456139.42948
  20801127.56348        48.800          36.200  
  24570519.492 1     -4104.903 1     -3198.62145   9388729.060 1   7279451.45645
  24570515.52045        33.400          15.600  
  24759070.164 4      2700.539 4      2104.32245  -3706577.613 4  -2814030.99645
  24759065.42245        37.600          18.300  
  22958453.492 5      2503.739 5      1950.96646  -5400447.686 5  -4100557.63846
  22958447.34846        40.900          21.100  
  20422510.063 7       504.708 7       393.28048  -4975246.926 7  -3855502.57748
  20422505.59048        50.300          39.300  
  20326562.789 7        41.881 7        32.63549  -3694422.976 7  -2873153.59849
  20326558.08649        49.500          43.200  
  22498183.641 6     -3557.082 6     -2771.75047   6577286.283 6   5109727.40847
  22498179.10947        45.200          31.700  
 08  1 20 20 18 40.0000000  0 10G02G05G06G10G12G16G21G24G29G30   -0.000087286
  23395361.867 6     -3582.297 6     -2791.39947   7756256.869 6   6009684.70547
  23395356.81347        42.700          31.500  
  23583111.281 5     -4028.420 5     -3139.02847   8840777.129 5   6852267.45747
  23583107.15647        41.700          28.100  
  20671166.000 7       949.528 7       739.89048  -6139965.387 7  -4767166.09848
  20671161.92648        48.300          39.300  
  20802072.391 7      -986.984 7      -769.07748  -1876811.629 7  -1452294.04448
  20802066.87148        49.100          36.600  
  24574424.852 2     -4105.243 2     -3198.89845   9409255.276 2   7295445.94845
  24574421.22345        34.200          15.600  
  24756502.203 3      2698.792 3      2102.95345  -3720071.575 3  -2824545.76045
  24756497.68445        37.300          18.300  
  22956072.000 5      2502.760 5      1950.20246  -5412961.487 5  -4110308.64946
  22956065.49246        40.000          21.800  
  20422031.922 7       502.434 7       391.50748  -4977759.098 7  -3857460.11248
  20422027.42648        49.900          39.300  
  20326525.555 7        39.284 7        30.61249  -3694619.394 7  -2873306.65949
  20326520.58249        48.800          43.400  
  22501569.703 6     -3558.931 6     -2773.19447   6595080.938 6   5123593.37747
  22501565.15647        44.800          31.600  
 08  1 20 20 18 45.0000000  0 10G02G05G06G10G12G16G21G24G29G30   -0.000086266
  23398771.063 6     -3583.121 6     -2792.04047   7774172.472 6   6023644.90347
  23398765.88347        42.700          29.700  
  23586944.984 5     -4029.213 5     -3139.64647   8860923.192 5   6867965.68647
  23586940.46147        41.100          28.300  
  20670264.813 7       947.112 7       738.01048  -6144700.947 7  -4770856.14648
  20670260.99648        48.300          39.000  
  20803014.453 7      -990.603 7      -771.89848  -1871858.612 7  -1448434.55548
  20803009.58248        48.700          36.800  
  24578332.383 2     -4105.631 2     -3199.18845   9429783.433 2   7311441.88845
  24578328.23845        34.500          16.300  
  24753936.336 4      2696.987 4      2101.54945  -3733556.510 4  -2835053.50345
  24753931.92645        37.700          17.400  
  22953692.273 5      2501.718 5      1949.39046  -5425470.078 5  -4120055.60246
  22953685.83646        40.000          22.200  
  20421556.070 7       500.112 7       389.69848  -4980259.660 7  -3859408.60248
  20421551.71148        50.100          39.600  
  20326490.219 7        36.630 7        28.54149  -3694802.542 7  -2873449.36649
  20326485.83249        48.800          43.300  
  22504957.492 6     -3560.845 6     -2774.68447   6612885.163 6   5137466.79847
  22504953.35547        44.900          32.300  
 08  1 20 20 18 50.0000000  0 10G02G05G06G10G12G16G21G24G29G30   -0.000085245
  23402181.180 5     -3584.009 5     -2792.73447   7792092.518 5   6037608.57447
  23402175.95347        42.100          28.900  
  23590778.930 5     -4030.084 5     -3140.32447   8881073.614 5   6883667.30847
  23590775.38747        41.800          27.700  
  20669365.820 7       944.632 7       736.07748  -6149424.109 7  -4774536.53248
  20669361.95348        47.900          39.100  
  20803960.375 7      -994.303 7      -774.78148  -1866887.096 7  -1444560.64848
  20803955.10248        47.600          36.900  
  24582238.484 2     -4106.091 2     -3199.54345   9450313.887 2   7327439.60445
  24582235.09445        34.600          15.600  
  24751372.406 4      2695.119 4      2100.09045  -3747032.104 4  -2845553.95445
  24751367.30545        38.500          18.600  
  22951312.477 5      2500.625 5      1948.53746  -5437973.201 5  -4129798.28746
  22951306.15646        40.700          21.700  
  20421082.898 7       497.727 7       387.84048  -4982748.295 7  -3861347.80048
  20421078.29748        50.000          39.400  
  20326458.289 7        33.910 7        26.42449  -3694972.093 7  -2873581.48449
  20326453.72349        49.200          43.200  
  22508347.609 6     -3562.799 6     -2776.20547   6630699.159 6   5151347.82447
  22508343.20347        45.500          32.600  
 08  1 20 20 18 55.0000000  0 10G02G05G06G10G12G16G21G24G29G30   -0.000084223
  23405591.766 6     -3584.810 6     -2793.35447   7810016.568 6   6051575.34747
  23405586.75047        42.600          29.200  
  23594614.188 5     -4030.855 5     -3140.92647   8901227.888 5   6899371.93647
  23594610.67647        41.100          27.600  
  20668469.344 7       942.239 7       734.21348  -6154135.307 7  -4778207.59748
  20668465.43048        48.100          39.000  
  20804910.164 7      -997.917 7      -777.59948  -1861897.513 7  -1440672.65448
  20804905.00048        48.600          36.900  
  24586144.180 2     -4106.444 2     -3199.83145   9470846.108 2   7343438.75745
  24586142.27345        34.300          16.300  
  24748809.297 4      2693.339 4      2098.70646  -3760498.799 4  -2856047.48146
  24748804.78146        38.200          19.300  
  22948934.180 5      2499.616 5      1947.75446  -5450471.283 5  -4139537.05646
  22948927.96946        39.900          22.000  
  20420611.680 7       495.425 7       386.04648  -4985225.419 7  -3863278.02748
  20420607.48448        49.600          39.500  
  20326428.688 7        31.277 7        24.37349  -3695128.479 7  -2873703.35249
  20326423.69149        49.500          43.200  
  22511739.367 6     -3564.680 6     -2777.67347   6648522.562 6   5165236.18947
  22511734.70347        45.300          32.300  
 08  1 20 20 19  0.0000000  0 10G02G05G06G10G12G16G21G24G29G30   -0.000083202
  23409003.156 6     -3585.544 6     -2793.93047   7827944.289 6   6065544.99647
  23408998.17247        42.900          30.000  
  23598449.820 5     -4031.572 5     -3141.48547   8921385.749 5   6915079.36147
  23598446.36747        41.400          27.200  
  20667575.203 7       939.900 7       732.38948  -6158834.807 7  -4781869.54248
  20667571.02348        47.800          38.800  
  20805862.797 7     -1001.445 7      -780.34748  -1856890.285 7  -1436770.92048
  20805857.92248        49.100          37.300  
  24590052.695 2     -4106.762 2     -3200.06345   9491379.919 2   7359439.06945
  24590050.28945        35.100          16.300  
  24746248.773 4      2691.620 4      2097.37046  -3773956.896 4  -2866534.33346
  24746243.98446        38.800          20.400  
  22946557.063 5      2498.664 5      1947.01246  -5462964.602 5  -4149272.11846
  22946550.68846        40.400          22.800  
  20420141.883 7       493.182 7       384.29848  -4987691.330 7  -3865199.51648
  20420137.79348        49.900          39.500  
  20326401.359 7        28.696 7        22.35949  -3695271.961 7  -2873815.14549
  20326395.68849        49.500          43.500  
  22515132.602 6     -3566.502 6     -2779.09347   6666355.071 6   5179131.65247
  22515128.39547        44.700          32.700  
 08  1 20 20 19  5.0000000  0 10G02G05G06G10G12G16G21G24G29G30   -0.000082180
  23412415.516 5     -3586.252 5     -2794.48047   7845875.548 5   6079517.39547
  23412410.12547        41.600          29.500  
  23602286.031 5     -4032.259 5     -3142.02047   8941547.045 5   6930789.45947
  23602282.78947        40.000          27.100  
  20666682.930 7       937.596 7       730.59448  -6163522.788 7  -4785522.51048
  20666679.38348        48.300          38.900  
  20806818.922 7     -1004.953 7      -783.08148  -1851865.520 7  -1432855.51548
  20806814.05548        49.300          37.000  
  24593959.859 2     -4107.017 2     -3200.28345   9511915.004 2   7375440.48545
  24593957.29745        34.700          15.600  
  24743689.500 4      2689.936 4      2096.04746  -3787406.574 4  -2877014.56846
  24743684.69946        38.900          19.900  
  22944180.539 5      2497.742 5      1946.29046  -5475453.312 5  -4159003.56746
  22944174.53146        40.500          22.200  
  20419675.148 7       490.972 7       382.57548  -4990146.192 7  -3867112.39248
  20419670.41448        49.500          39.300  
  20326376.328 7        26.150 7        20.37749  -3695402.710 7  -2873917.02949
  20326371.29349        49.800          43.300  
  22518527.758 6     -3568.283 6     -2780.47847   6684196.484 6   5193034.04347
  22518523.27347        44.700          32.400  
 08  1 20 20 19 10.0000000  0 10G02G05G06G10G12G16G21G24G29G30   -0.000081158
  23415829.227 5     -3587.022 5     -2795.08047   7863810.659 5   6093492.79247
  23415823.09847        42.100          28.800  
  23606123.953 5     -4032.992 5     -3142.59147   8961712.007 5   6946502.41347
  23606120.07847        41.500          27.900  
  20665792.836 7       935.225 7       728.74748  -6168198.915 7  -4789166.24548
  20665789.28948        48.600          38.800  
  20807778.430 7     -1008.540 7      -785.87548  -1846822.821 7  -1428926.13948
  20807773.79348        48.200          37.100  
  24597869.266 2     -4107.350 2     -3200.52545   9532451.754 2   7391443.11045
  24597865.39145        34.500          14.800  
  24741131.539 4      2688.165 4      2094.67646  -3800847.396 4  -2887487.94846
  24741126.92646        39.100          19.900  
  22941804.586 5      2496.759 5      1945.52746  -5487937.106 5  -4168731.20146
  22941798.91046        40.600          22.600  
  20419209.844 7       488.703 7       380.80648  -4992589.706 7  -3869016.42348
  20419205.58248        50.100          39.500  
  20326354.094 7        23.552 7        18.35249  -3695520.472 7  -2874008.78849
  20326349.17649        49.600          43.300  
  22521924.930 6     -3570.120 6     -2781.91147   6702047.084 6   5206943.59647
  22521920.40247        45.100          32.600  
 08  1 20 20 19 15.0000000  0 10G02G05G06G10G12G16G21G24G29G30   -0.000080135
  23419242.609 6     -3587.732 6     -2795.63347   7881749.317 6   6107470.95747
  23419236.63347        42.600          29.900  
  23609961.789 5     -4033.674 5     -3143.12147   8981880.377 5   6962218.02047
  23609958.27047        40.800          27.000  
  20664905.445 7       932.916 7       726.94748  -6172863.494 7  -4792800.98148
  20664901.77748        47.800          38.700  
  20808741.508 7     -1012.040 7      -788.60248  -1841762.620 7  -1424983.12948
  20808736.65648        48.600          36.800  
  24601776.586 3     -4107.629 3     -3200.74945   9552989.901 3   7407446.85645
  24601773.65645        36.000          14.800  
  24738575.219 5      2686.451 5      2093.33846  -3814279.650 5  -2897954.63746
  24738571.03546        39.700          20.100  
  22939430.398 5      2495.836 5      1944.80446  -5500416.285 5  -4178455.22246
  22939424.19946        40.600          22.500  
  20418746.867 7       486.487 7       379.08148  -4995022.142 7  -3870911.82648
  20418742.87948        50.000          39.300  
  20326333.758 7        21.007 7        16.37049  -3695625.509 7  -2874090.63849
  20326328.70349        48.800          43.300  
  22525323.391 6     -3571.891 6     -2783.29047   6719906.537 6   5220860.04447
  22525319.32847        44.900          32.400  
 08  1 20 20 19 20.0000000  0 10G02G05G06G10G12G16G21G24G29G30   -0.000079113
  23422657.375 5     -3588.363 5     -2796.12747   7899691.134 5   6121451.59247
  23422651.10247        42.400          31.200  
  23613799.617 5     -4034.278 5     -3143.59147   9002051.765 5   6977935.97347
  23613796.50447        41.800          26.700  
  20664019.781 7       930.670 7       725.19648  -6177516.845 7  -4796426.96348
  20664016.05548        48.400          38.600  
  20809707.258 7     -1015.478 7      -791.28148  -1836685.231 7  -1421026.72348
  20809703.14548        47.800          36.600  
  24605685.945 2     -4107.824 2     -3200.90645   9573529.021 2   7423451.38445
  24605682.73045        35.500          15.600  
  24736020.641 5      2684.806 5      2092.05746  -3827703.679 5  -2908414.92246
  24736016.75046        39.700          20.100  
  22937056.234 5      2494.964 5      1944.12946  -5512891.106 5  -4188175.86446
  22937050.24246        40.900          24.000  
  20418286.203 7       484.346 7       377.41248  -4997443.870 7  -3872798.88648
  20418281.79348        49.600          39.500  
  20326316.023 7        18.526 7        14.43649  -3695718.141 7  -2874162.81649
  20326311.07849        49.100          43.100  
  22528723.375 6     -3573.594 6     -2784.61847   6737774.507 6   5234783.13647
  22528719.50847        44.600          32.900  
 08  1 20 20 19 25.0000000  0 10G02G05G06G10G12G16G21G24G29G30   -0.000078091
  23426071.938 6     -3589.112 6     -2796.70947   7917636.695 6   6135435.13747
  23426065.76647        43.200          29.300  
  23617639.266 5     -4035.000 5     -3144.15647   9022226.762 5   6993656.75047
  23617635.53947        41.300          26.900  
  20663136.742 6       928.313 6       723.36048  -6182158.409 6  -4800043.76548
  20663132.53148        47.300          38.500  
  20810677.133 6     -1019.023 6      -794.04448  -1831590.117 6  -1417056.50348
  20810672.68048        46.500          36.600  
  24609594.086 2     -4108.132 2     -3201.14245   9594069.680 2   7439457.09345
  24609591.95745        35.400          16.900  
  24733468.648 5      2683.046 5      2090.68646  -3841118.907 5  -2918868.35246
  24733463.85246        40.100          20.100  
  22934683.516 5      2493.988 5      1943.36746  -5525361.045 5  -4197892.69946
  22934677.51646        40.600          22.300  
  20417827.375 7       482.094 7       375.65848  -4999854.341 7  -3874677.17548
  20417823.28948        50.300          39.200  
  20326300.656 7        15.944 7        12.42449  -3695797.860 7  -2874224.93849
  20326295.85549        49.100          43.200  
  22532125.070 6     -3575.411 6     -2786.03447   6755651.561 6   5248713.30647
  22532121.29347        44.800          32.800  
 08  1 20 20 19 30.0000000  0 10G02G05G06G10G12G16G21G24G29G30   -0.000077070
  23429487.297 6     -3589.786 6     -2797.23647   7935585.623 6   6149421.31447
  23429481.40647        42.600          29.800  
  23621479.227 5     -4035.628 5     -3144.64447   9042404.903 5   7009379.96847
  23621475.56347        41.600          26.600  
  20662255.195 7       926.025 7       721.57848  -6186788.536 7  -4803651.65648
  20662251.38348        47.800          38.600  
  20811650.125 7     -1022.501 7      -796.75348  -1826477.614 7  -1413072.73848
  20811645.01248        48.800          36.200  
  24613502.719 2     -4108.358 2     -3201.30645   9614611.473 2   7455463.62345
  24613500.77745        34.400          16.900  
  24730917.992 4      2681.367 4      2089.37946  -3854525.742 4  -2929315.24646
  24730912.66046        39.100          20.400  
  22932310.977 5      2493.086 5      1942.66346  -5537826.477 5  -4207606.01746
  22932305.13746        40.500          22.300  
  20417370.820 7       479.904 7       373.95048  -5002253.859 7  -3876546.92748
  20417366.53548        49.600          39.300  
  20326288.297 7        13.415 7        10.45349  -3695864.936 7  -2874277.20149
  20326283.06349        49.700          43.200  
  22535528.688 6     -3577.157 6     -2787.39447   6773537.347 6   5262650.27347
  22535525.00447        44.600          32.700  
 08  1 20 20 19 35.0000000  0 10G02G05G06G10G12G16G21G24G29G30   -0.000076048
  23432903.602 6     -3590.471 6     -2797.76947   7953537.979 6   6163410.16047
  23432897.12147        43.200          28.300  
  23625319.133 5     -4036.286 5     -3145.15847   9062586.334 5   7025105.75947
  23625315.35247        41.700          27.000  
  20661376.711 6       923.722 6       719.78348  -6191407.145 6  -4807250.56948
  20661372.80148        47.200          38.800  
  20812626.219 7     -1026.000 7      -799.48048  -1821347.616 7  -1409075.33948
  20812621.03148        49.000          36.400  
  24617412.594 2     -4108.603 2     -3201.51645   9635154.488 2   7471471.20545
  24617410.48445        34.500          16.300  
  24728367.391 5      2679.664 5      2088.04546  -3867924.061 5  -2939755.47446
  24728362.91046        40.000          21.500  
  22929940.664 5      2492.178 5      1941.95346  -5550287.366 5  -4217315.78346
  22929933.96946        40.600          22.500  
  20416916.164 7       477.709 7       372.24048  -5004642.403 7  -3878408.12548
  20416912.09048        49.400          39.100  
  20326278.008 7        10.882 7         8.48049  -3695919.346 7  -2874319.60049
  20326273.06649        49.100          43.200  
  22538934.078 6     -3578.909 6     -2788.75947   6791431.891 6   5276594.07047
  22538930.18847        44.600          32.100  
 08  1 20 20 19 40.0000000  0 10G02G05G06G10G12G16G21G24G29G30   -0.000075026
  23436320.391 5     -3591.232 5     -2798.36147   7971494.139 5   6177401.96447
  23436314.14147        42.300          28.600  
  23629160.344 5     -4037.012 5     -3145.72246   9082771.394 5   7040834.36746
  23629156.82046        41.700          25.600  
  20660500.148 7       921.344 7       717.93048  -6196013.862 7  -4810840.22248
  20660496.13348        47.900          38.700  
  20813605.547 7     -1029.571 7      -802.26348  -1816199.761 7  -1405064.02248
  20813600.47348        48.100          36.200  
  24621321.781 1     -4108.923 1     -3201.74945   9655699.105 1   7487479.94745
  24621319.93045        32.800          15.600  
  24725819.430 5      2677.880 5      2086.66446  -3881313.462 5  -2950188.79346
  24725814.98446        39.700          21.500  
  22927569.859 5      2491.181 5      1941.18146  -5562743.273 5  -4227021.68946
  22927563.86346        40.700          22.300  
  20416463.516 7       475.438 7       370.47148  -5007019.593 7  -3880260.47948
  20416459.30548        49.500          39.100  
  20326270.313 7         8.267 7         6.44149  -3695960.680 7  -2874351.80649
  20326265.01249        50.200          43.400  
  22542341.148 6     -3580.729 6     -2790.17847   6809335.535 6   5290544.96247
  22542337.10547        44.900          32.400  
 08  1 20 20 19 45.0000000  0 10G02G05G06G10G12G16G21G24G29G30   -0.000074001
  23439737.852 6     -3591.977 6     -2798.94047   7989454.022 6   6191396.66647
  23439731.93847        43.200          28.500  
  23633002.516 5     -4037.717 5     -3146.27147   9102959.978 5   7056565.72147
  23632998.34447        41.300          26.300  
  20659625.695 7       918.992 7       716.09848  -6200608.823 7  -4814420.71048
  20659622.02748        47.600          38.800  
  20814588.820 7     -1033.095 7      -805.01048  -1811034.283 7  -1401038.97448
  20814583.50848        48.700          35.700  
  24625231.844 1     -4109.213 1     -3201.97845   9676245.170 1   7503489.83545
  24625230.42645        33.200          15.600  
  24723273.313 5      2676.114 5      2085.28146  -3894694.030 5  -2960615.19746
  24723269.01246        39.800          21.300  
  22925200.031 5      2490.221 5      1940.43346  -5575194.381 5  -4236723.85646
  22925194.32846        40.400          22.300  
  20416013.719 7       473.179 7       368.71148  -5009385.486 7  -3882104.03448
  20416009.08248        49.600          38.900  
  20326264.328 7         5.679 7         4.42549  -3695989.072 7  -2874373.93149
  20326259.29749        49.000          43.300  
  22545749.984 6     -3582.529 6     -2791.58047   6827248.179 6   5304502.86347
  22545746.30547        44.100          32.100  
 08  1 20 20 19 50.0000000  0 10G02G05G06G10G12G16G21G24G29G30   -0.000072979
  23443155.938 6     -3592.682 6     -2799.49247   8007417.435 6   6205394.12847
  23443150.41847        43.500          28.200  
  23636844.703 5     -4038.387 5     -3146.79447   9123151.914 5   7072299.69247
  23636840.87947        40.600          26.500  
  20658753.563 6       916.656 6       714.27848  -6205192.102 6  -4817992.10248
  20658749.57448        47.500          38.800  
  20815574.820 7     -1036.636 7      -807.76848  -1805851.104 7  -1397000.13548
  20815569.87148        48.800          36.000  
  24629142.297 1     -4109.484 1     -3202.20345   9696792.591 1   7519500.85045
  24629140.69545        33.700          15.600  
  24720729.336 5      2674.385 5      2083.94046  -3908065.954 5  -2971034.89946
  24720724.36346        39.700          21.500  
  22922832.188 5      2489.272 5      1939.69346  -5587640.742 5  -4246422.31946
  22922826.18046        40.400          22.200  
  20415565.344 7       470.956 7       366.97848  -5011740.265 7  -3883938.92548
  20415561.08248        49.500          38.900  
  20326261.594 7         3.105 7         2.42049  -3696004.598 7  -2874386.02949
  20326256.39849        49.800          43.200  
  22549160.141 6     -3584.293 6     -2792.95447   6845169.643 6   5318467.63247
  22549156.20347        44.700          32.400  
 08  1 20 20 19 55.0000000  0 10G02G05G06G10G12G16G21G24G29G30   -0.000071957
  23446575.180 6     -3593.421 6     -2800.06447   8025384.539 6   6219394.44747
  23446569.45747        43.400          27.900  
  23640688.031 5     -4039.072 5     -3147.33146   9143347.273 5   7088036.34846
  23640683.79746        41.400          26.000  
  20657883.688 6       914.289 6       712.43248  -6209763.548 6  -4821554.26148
  20657879.55548        47.000          38.500  
  20816564.602 7     -1040.151 7      -810.50848  -1800650.348 7  -1392947.59448
  20816559.53548        48.100          35.900  
  24633052.820 2     -4109.786 2     -3202.43745   9717341.521 2   7535513.03345
  24633051.02045        34.100          15.600  
  24718185.945 5      2672.615 5      2082.55146  -3921429.029 5  -2981447.65446
  24718181.53946        40.500          21.800  
  22920464.508 5      2488.302 5      1938.93446  -5600082.253 5  -4256116.99146
  22920458.60546        41.000          22.800  
  20415119.258 7       468.710 7       365.22948  -5014083.814 7  -3885765.06848
  20415115.21148        49.200          38.500  
  20326261.039 7         0.526 7         0.40949  -3696007.227 7  -2874388.07549
  20326255.97749        49.000          43.200  
  22552572.070 6     -3586.082 6     -2794.34847   6863100.050 6   5332439.37047
  22552568.41447        45.400          31.600  
 08  1 20 20 20  0.0000000  0 10G02G05G06G10G12G16G21G24G29G30   -0.000070932
  23449995.328 6     -3594.221 6     -2800.69047   8043355.644 6   6233397.89947
  23449989.24647        43.000          27.900  
  23644531.516 5     -4039.842 5     -3147.92447   9163546.481 5   7103775.96747
  23644527.73047        41.300          27.500  
  20657016.008 6       911.872 6       710.55048  -6214322.909 6  -4825107.01148
  20657011.93848        47.500          38.500  
  20817557.695 7     -1043.778 7      -813.33348  -1795431.458 7  -1388880.92748
  20817552.57848        48.100          36.400  
  24636962.891 1     -4110.140 1     -3202.69945   9737892.219 1   7551526.52945
  24636961.65245        33.700          15.600  
  24715645.008 5      2670.783 5      2081.13346  -3934782.945 5  -2991853.31946
  24715640.19146        40.200          21.500  
  22918097.539 5      2487.261 5      1938.12546  -5612518.558 5  -4265807.61446
  22918091.70746        41.100          22.300  
  20414675.695 7       466.384 7       363.41648  -5016415.733 7  -3887582.15048
  20414671.13348        48.900          38.300  
  20326262.836 7        -2.137 7        -1.66349  -3695996.540 7  -2874379.75849
  20326258.23049        49.700          43.200  
  22555985.766 6     -3587.938 6     -2795.79547   6881039.739 6   5346418.34447
  22555982.22347        44.300          32.300  
 08  1 20 20 20  5.0000000  0 10G02G05G06G10G12G16G21G24G29G30   -0.000069910
  23453416.078 6     -3594.872 6     -2801.19747   8061330.005 6   6247403.88547
  23453409.40247        44.300          27.900  
  23648375.109 5     -4040.446 5     -3148.39946   9183748.711 5   7119517.96046
  23648371.72346        41.300          26.000  
  20656150.398 6       909.581 6       708.76348  -6218870.813 6  -4828650.82748
  20656146.88348        47.300          38.500  
  20818553.922 7     -1047.220 7      -816.01648  -1790195.356 7  -1384800.84848
  20818549.15248        48.200          36.600  
  24640873.516 2     -4110.324 2     -3202.84545   9758443.839 2   7567540.75545
  24640872.42645        33.900          13.900  
  24713105.469 5      2669.092 5      2079.81146  -3948128.406 5  -3002252.37646
  24713100.54346        40.200          21.800  
  22915732.508 5      2486.368 5      1937.42946  -5624950.398 5  -4275494.76146
  22915726.11746        40.800          23.200  
  20414234.117 7       464.217 7       361.72748  -5018736.819 7  -3889390.78548
  20414229.39148        49.700          38.200  
  20326267.602 7        -4.652 7        -3.62649  -3695973.278 7  -2874361.62849
  20326263.34049        49.600          43.500  
  22559401.383 6     -3589.641 6     -2797.12347   6898987.946 6   5360403.95647
  22559398.01647        44.200          32.600  
 08  1 20 20 20 10.0000000  0 10G02G05G06G10G12G16G21G24G29G30   -0.000068888
  23456837.125 6     -3595.443 6     -2801.64347   8079307.219 6   6261412.10247
  23456830.38347        43.100          26.700  
  23652220.922 5     -4040.985 5     -3148.82046   9203953.637 5   7135262.05846
  23652217.05146        41.300          26.200  
  20655286.914 6       907.375 6       707.04548  -6223407.688 6  -4832186.05348
  20655283.20748        47.200          38.900  
  20819553.727 7     -1050.600 7      -818.64948  -1784942.357 7  -1380707.60448
  20819549.09048        47.800          36.600  
  24644785.125 1     -4110.453 1     -3202.96145   9778996.104 1   7583555.56045
  24644783.40645        31.900          15.600  
  24710567.516 5      2667.482 5      2078.55846  -3961465.816 5  -3012645.16846
  24710562.28546        41.000          22.500  
  22913366.859 5      2485.546 5      1936.78846  -5637378.128 5  -4285178.70046
  22913361.50846        40.600          22.600  
  20413794.492 7       462.125 7       360.09848  -5021047.446 7  -3891191.27648
  20413789.48848        48.500          38.200  
  20326274.547 7        -7.095 7        -5.52749  -3695937.805 7  -2874333.99249
  20326269.71949        49.500          43.500  
  22562818.664 6     -3591.263 6     -2798.38547   6916944.264 6   5374395.88447
  22562814.89147        44.200          32.600  
 08  1 20 20 20 15.0000000  0 10G02G05G06G10G12G16G21G24G29G30   -0.000067863
  23460258.789 6     -3596.061 6     -2802.12347   8097287.525 6   6275422.71447
  23460251.77747        43.700          27.500  
  23656066.141 5     -4041.534 5     -3149.24347   9224161.306 5   7151008.27447
  23656061.93047        40.600          27.000  
  20654426.195 6       905.136 6       705.30048  -6227933.366 6  -4835712.55448
  20654421.97748        46.900          38.800  
  20820556.516 7     -1054.015 7      -821.31048  -1779672.282 7  -1376601.05548
  20820551.40648        47.700          36.400  
  24648695.961 1     -4110.601 1     -3203.06045   9799549.108 1   7599570.86045
  24648694.64845        33.000          14.800  
  24708031.250 5      2665.835 5      2077.27146  -3974794.991 5  -3023031.52146
  24708025.93046        40.600          22.300  
  22911002.773 5      2484.701 5      1936.13146  -5649801.635 5  -4294859.35746
  22910997.33646        40.400          22.900  
  20413356.570 7       459.996 7       358.43748  -5023347.425 7  -3892983.46048
  20413352.33248        48.600          38.000  
  20326283.719 7        -9.568 7        -7.45649  -3695889.963 7  -2874296.71449
  20326278.62549        49.100          43.500  
  22566236.328 6     -3592.918 6     -2799.67547   6934908.854 6   5388394.25947
  22566233.37147        44.300          32.300  
 08  1 20 20 20 20.0000000  0 10G02G05G06G10G12G16G21G24G29G30   -0.000066841
  23463680.602 6     -3596.833 6     -2802.72646   8115271.688 6   6289436.34446
  23463673.95746        43.500          25.600  
  23659912.414 5     -4042.272 5     -3149.82347   9244372.665 5   7166757.39147
  23659908.52047        40.900          27.100  
  20653567.094 7       902.713 7       703.41248  -6232446.929 7  -4839229.61548
  20653563.00848        47.900          38.800  
  20821563.063 7     -1057.612 7      -824.11348  -1774384.221 7  -1372480.48948
  20821557.87548        48.600          36.400  
  24652606.336 1     -4110.919 1     -3203.30545   9820103.704 1   7615587.38445
  24652606.32445        32.200          15.600  
  24705496.273 5      2664.005 5      2075.84846  -3988115.017 5  -3033410.76446
  24705490.49246        40.900          22.300  
  22908638.961 5      2483.674 5      1935.32646  -5662220.004 5  -4304535.98746
  22908634.33646        40.800          24.400  
  20412920.820 7       457.696 7       356.64748  -5025635.907 7  -3894766.69548
  20412916.79348        48.900          38.200  
  20326295.492 7       -12.215 7        -9.51949  -3695828.889 7  -2874249.11749
  20326290.27349        50.100          43.700  
  22569656.781 6     -3594.746 6     -2801.09947   6952882.585 6   5402399.75447
  22569653.69947        44.300          32.800  
 08  1 20 20 20 25.0000000  0 10G02G05G06G10G12G16G21G24G29G30   -0.000065817
  23467103.625 6     -3597.601 6     -2803.32447   8133259.690 6   6303452.96547
  23467097.06647        43.100          26.900  
  23663759.156 5     -4042.992 5     -3150.37947   9264587.624 5   7182509.28547
  23663754.85947        41.200          26.300  
  20652710.617 7       900.306 7       701.53648  -6236948.459 7  -4842737.29648
  20652706.41448        48.400          38.600  
  20822572.914 7     -1061.181 7      -826.89648  -1769078.314 7  -1368346.00848
  20822567.61748        48.200          36.500  
  24656519.688 1     -4111.247 1     -3203.57045   9840659.939 1   7631605.23345
  24656518.48845        32.200          14.800  
  24702963.313 5      2662.192 5      2074.43746  -4001425.976 5  -3043782.94846
  24702957.91446        40.300          21.500  
  22906277.281 5      2482.650 5      1934.53046  -5674633.255 5  -4314208.63846
  22906271.91046        39.500          24.400  
  20412487.867 7       455.406 7       354.86248  -5027912.938 7  -3896541.00548
  20412483.61348        49.200          38.200  
  20326309.594 7       -14.852 7       -11.57349  -3695754.627 7  -2874191.25449
  20326304.77049        49.500          43.700  
  22573078.945 6     -3596.571 6     -2802.52247   6970865.439 6   5416412.36247
  22573075.77347        43.900          32.600  
 08  1 20 20 20 30.0000000  0 10G02G05G06G10G12G16G21G24G29G30   -0.000064795
  23470527.078 6     -3598.308 6     -2803.87546   8151251.231 6   6317472.33946
  23470520.87546        43.500          26.200  
  23667606.242 5     -4043.660 5     -3150.90246   9284805.924 5   7198263.79546
  23667601.96546        41.600          25.000  
  20651856.133 7       897.946 7       699.69748  -6241438.188 7  -4846235.78348
  20651851.89148        47.700          38.600  
  20823586.172 6     -1064.695 6      -829.63248  -1763754.841 6  -1364197.84648
  20823580.89148        46.900          36.400  
  24660430.234 1     -4111.485 1     -3203.76045   9861217.363 1   7647624.03345
  24660430.75445        31.900          15.600  
  24700431.805 5      2660.425 5      2073.05446  -4014728.100 5  -3054148.21846
  24700426.52046        41.400          22.600  
  22903916.586 5      2481.700 5      1933.79446  -5687041.757 5  -4323877.60946
  22903910.72346        40.200          23.000  
  20412056.602 7       453.165 7       353.11548  -5030178.764 7  -3898306.58248
  20412051.85548        48.900          38.200  
  20326325.641 7       -17.438 7       -13.58749  -3695667.438 7  -2874123.31649
  20326320.99249        49.200          43.700  
  22576502.555 6     -3598.331 6     -2803.89147   6988857.094 6   5430431.81747
  22576499.22347        43.700          31.900  
 08  1 20 20 20 35.0000000  0 10G02G05G06G10G12G16G21G24G29G30   -0.000063770
  23473951.625 6     -3599.053 6     -2804.45546   8169246.495 6   6331494.61246
  23473944.75046        42.700          24.400  
  23671454.289 5     -4044.345 5     -3151.43746   9305027.647 5   7214020.97946
  23671450.14146        40.800          25.300  
  20651004.156 7       895.578 7       697.85348  -6245916.077 7  -4849725.04648
  20650999.89848        49.100          38.500  
  20824602.188 6     -1068.235 6      -832.39048  -1758413.664 6  -1360035.89448
  20824597.37548        47.400          36.300  
  24664342.242 1                                                
  24664342.71145        30.700          13.900  
  24697902.422 5      2658.635 5      2071.66546  -4028021.272 5  -3064506.54246
  24697897.01646        41.000          22.800  
  22901556.430 5      2480.699 5      1933.01046  -5699445.250 5  -4333542.66246
  22901550.77346        40.700          22.800  
  20411627.336 7       450.906 7       351.35448  -5032433.293 7  -3900063.35348
  20411622.91048        49.600          38.000  
  20326345.141 7       -20.039 7       -15.61549  -3695567.241 7  -2874045.24049
  20326340.38349        49.600          43.500  
  22579927.766 6     -3600.114 6     -2805.28447   7006857.665 6   5444458.23847
  22579924.83247        44.000          31.100  
 08  1 20 20 20 40.0000000  0 10G02G05G06G10G12G16G21G24G29G30   -0.000062746
  23477376.789 6     -3599.725 6     -2804.97846   8187245.122 6   6345519.50346
  23477369.64846        43.600          24.800  
  23675303.500 5     -4044.971 5     -3151.92446   9325252.504 5   7229780.60046
  23675299.09046        40.200          25.900  
  20650154.125 7       893.238 7       696.03048  -6250382.270 7  -4853205.19748
  20650150.03948        48.600          38.300  
  20825621.977 7     -1071.724 7      -835.11048  -1753055.046 7  -1355860.34348
  20825617.15248        47.700          36.100  
  24668253.461 1                                   9902336.21311   7679664.61755
  24668255.78145        29.600          15.600  
  24695374.438 5      2656.882 5      2070.29746  -4041305.685 5  -3074858.02646
  24695369.09446        41.400          22.600  
  22899196.781 5      2479.770 5      1932.29046  -5711844.101 5  -4343204.11346
  22899191.23846        39.900          25.300  
  20411200.602 7       448.693 7       349.63248  -5034676.760 7  -3901811.51148
  20411196.12148        49.300          38.100  
  20326366.344 7       -22.598 7       -17.61149  -3695454.252 7  -2873957.18849
  20326361.24649        49.000          43.600  
  22583354.938 6     -3601.838 6     -2806.62547   7024866.855 6   5458491.36247
  22583351.69947        44.100          31.500  
 08  1 20 20 20 45.0000000  0 10G02G05G06G10G12G16G21G24G29G30   -0.000061722
  23480802.781 6     -3600.323 6     -2805.44546   8205246.737 6   6359546.72746
  23480795.46146        42.700          24.900  
  23679152.672 5     -4045.508 5     -3152.34146   9345480.045 5   7245542.30646
  23679148.04346        40.100          25.600  
  20649306.500 7       890.981 7       694.27248  -6254837.174 7  -4856676.55748
  20649302.21548        47.700          38.200  
  20826644.781 7     -1075.131 7      -837.76548  -1747679.389 7  -1351671.51748
  20826639.87548        48.000          36.200  
  24672166.727 1                                                
  24672168.23045        28.900          13.900  
  24692847.516 5      2655.220 5      2069.00046  -4054581.783 5  -3085203.02346
  24692842.70746        42.100          22.200  
  22896837.922 5      2478.917 5      1931.62246  -5724238.683 5  -4352862.22246
  22896833.13346        41.400          22.800  
  20410775.477 7       446.574 7       347.97948  -5036909.631 7  -3903551.40648
  20410771.34048        49.800          38.000  
  20326390.547 7       -25.071 7       -19.53649  -3695328.895 7  -2873859.50849
  20326385.45349        48.800          43.700  
  22586783.570 6     -3603.466 6     -2807.89647   7042884.187 6   5472530.84047
  22586780.62947        43.900          31.600  
 08  1 20 20 20 50.0000000  0 10G02G05G06G10G12G16G21G24G29G30   -0.000060699
  23484229.148 6     -3601.004 6     -2805.97546   8223251.757 6   6373576.60246
  23484221.29746        42.800          24.100  
  23683002.828 5     -4046.126 5     -3152.82346   9365710.674 5   7261306.42146
  23682998.06346        40.200          24.300  
  20648461.070 7       888.658 7       692.46048  -6259280.463 7  -4860138.85648
  20648456.87548        49.100          37.400  
  20827670.578 6     -1078.602 6      -840.46948  -1742286.378 6  -1347469.17448
  20827666.10948        47.400          35.300  
  24676079.992 1                                   9943458.63711   7711708.06954
  24676081.32044        28.900          12.600  
  24690323.078 5      2653.484 5      2067.65346  -4067849.203 5  -3095541.29046
  24690317.99246        42.400          22.600  
  22894480.297 5      2477.978 5      1930.89046  -5736628.570 5  -4362516.67046
  22894474.86746        40.900          23.300  
  20410352.578 7       444.375 7       346.26548  -5039131.506 7  -3905282.73348
  20410348.54748        49.700          37.300  
  20326416.688 7       -27.624 7       -21.52549  -3695190.774 7  -2873751.88149
  20326411.89849        49.100          42.900  
  22590213.516 6     -3605.176 6     -2809.22747   7060910.065 6   5486576.97347
  22590211.03147        43.200          30.900  
 08  1 20 20 20 55.0000000  0 10G02G05G06G10G12G16G21G24G29G30   -0.000059675
  23487656.148 6     -3601.751 6     -2806.55346   8241260.514 6   6387609.36546
  23487648.18046        42.700          22.800  
  23686853.094 5     -4046.833 5     -3153.37546   9385944.836 5   7277073.29846
  23686848.34446        40.800          25.300  
  20647617.570 7       886.251 7       690.58548  -6263711.719 7  -4863591.78248
  20647612.81348        48.200          37.100  
  20828700.313 6     -1082.157 6      -843.24048  -1736875.591 6  -1343252.97448
  20828695.78548        47.400          34.600  
  24679992.930 1                                   9964021.79311   7727731.23055
  24679994.90245        28.900          13.900  
  24687799.984 6      2651.645 6      2066.21146  -4081107.426 6  -3105872.34746
  24687795.03546        42.500          22.000  
  22892123.930 5      2476.971 5      1930.10446  -5749013.425 5  -4372167.18846
  22892118.33646        40.900          22.300  
  20409932.211 7       442.090 7       344.48648  -5041341.958 7  -3907005.16448
  20409927.87548        49.900          37.400  
  20326445.336 7       -30.266 7       -23.58349  -3695039.443 7  -2873633.96649
  20326440.91849        48.800          42.400  
  22593645.531 6     -3606.973 6     -2810.62647   7078944.933 6   5500630.10447
  22593642.49647        44.300          29.500  
 08  1 20 20 21  0.0000000  0 10G02G05G06G10G12G16G21G24G29G30   -0.000058651
  23491083.922 6     -3602.519 6     -2807.16146   8259273.107 6   6401645.16846
  23491075.79346        44.100          22.900  
  23690703.906 5     -4047.521 5     -3153.91046   9406182.440 5   7292842.84746
  23690699.10946        39.500          23.900  
  20646776.852 7       883.828 7       688.69648  -6268130.861 7  -4867035.26248
  20646772.31348        48.900          37.000  
  20829733.328 6     -1085.734 6      -846.02748  -1731446.922 6  -1339022.84148
  20829728.92648        47.400          34.600  
  24683907.148 1                                                
                        29.600  
  24685278.922 6      2649.811 6      2064.78546  -4094356.481 6  -3116196.27146
  24685273.63346        43.100          22.000  
  22889767.945 5      2475.946 5      1929.31046  -5761393.155 5  -4381813.73646
  22889762.88746        40.300          22.300  
  20409513.695 7       439.794 7       342.69548  -5043540.929 7  -3908718.64048
  20409509.80948        49.300          37.100  
  20326476.742 7       -32.908 7       -25.64249  -3694874.903 7  -2873505.75449
  20326471.96549        49.400          42.500  
  22597079.367 6     -3608.769 6     -2812.02547   7096988.777 6   5514690.23147
  22597076.15247        43.900          29.100  
 08  1 20 20 21  5.0000000  0 10G02G05G06G10G12G16G21G24G29G30   -0.000057625
  23494512.305 6     -3603.116 6     -2807.61546   8277288.688 6   6415683.24246
  23494504.58646        43.200          22.600  
  23694554.914 5     -4048.077 5     -3154.34546   9426422.826 5   7308614.57446
  23694551.41846        40.200          24.400  
  20645937.891 6       881.580 6       686.94648  -6272538.760 6  -4870469.99448
  20645933.64148        47.300          37.400  
  20830769.648 7     -1089.128 7      -848.67248  -1726001.281 7  -1334779.48348
  20830765.12148        48.400          34.800  
  24687820.195 1                                                
                        28.900  
  24682759.508 6      2648.126 6      2063.47446  -4107597.113 6  -3126513.64446
  24682754.04346        43.400          21.500  
  22887413.500 5      2475.081 5      1928.63546  -5773768.559 5  -4391456.91446
  22887407.41046        40.400          22.000  
  20409097.281 7       437.675 7       341.04648  -5045729.306 7  -3910423.86748
  20409093.39848        49.000          37.300  
  20326510.609 7       -35.391 7       -27.57749  -3694697.950 7  -2873367.87049
  20326505.55949        49.100          42.700  
  22600514.398 6     -3610.397 6     -2813.29547   7115040.763 6   5528756.70547
  22600511.54747        43.400          29.600  
 08  1 20 20 21 10.0000000  0 10G02G05G06G10G12G16G21G24G29G30   -0.000056601
  23497941.203 6     -3603.877 6     -2808.21646   8295308.073 6   6429724.32046
  23497933.40646        44.500          22.800  
  23698407.234 5     -4048.751 5     -3154.86846   9446666.583 5   7324388.91446
  23698403.55546        40.500          23.600  
  20645101.328 7       879.146 7       685.04848  -6276934.491 7  -4873895.23448
  20645097.09848        48.000          37.100  
  20831809.656 6     -1092.697 6      -851.45148  -1720537.796 6  -1330522.23048
  20831805.00848        47.200          34.900  
  24691732.766 1                                  10025718.58711
                        29.100  
  24680241.539 6      2646.298 6      2062.05346  -4120828.602 6  -3136823.90946
  24680236.63746        43.200          20.600  
  22885058.852 5      2474.053 5      1927.83046  -5786138.822 5  -4401096.06646
  22885053.93046        40.800          22.000  
  20408683.117 7       435.381 7       339.25748  -5047906.209 7  -3912120.15448
  20408679.18448        49.900          37.200  
  20326546.398 7       -38.034 7       -29.63949  -3694507.780 7  -2873219.67749
  20326541.42249        49.400          42.500  
  22603951.328 6     -3612.191 6     -2814.69447   7133101.720 6   5542830.17747
  22603948.32047        43.500          29.300  
 08  1 20 20 21 15.0000000  0 10G02G05G06G10G12G16G21G24G29G30   -0.000055576
  23501370.484 6     -3604.691 6     -2808.85246   8313331.529 6   6443768.58046
  23501363.10946        44.400          22.000  
  23702260.086 5     -4049.525 5     -3155.47646   9466914.208 5   7340166.29446
  23702256.52046        40.400          24.700  
  20644267.367 6       876.662 6       683.11548  -6281317.804 6  -4877310.81248
  20644262.81348        47.300          36.900  
  20832853.016 7     -1096.328 7      -854.28248  -1715056.153 7  -1326250.82148
  20832847.85548        47.800          34.700  
  24695647.922 1                                  10046287.05811
                        30.700  
  24677725.180 6      2644.395 6      2060.56646  -4134050.574 6  -3147126.73846
  24677720.61346        43.600          20.600  
  22882706.555 5      2472.970 5      1926.98846  -5798503.674 5  -4410731.00646
  22882700.57046        41.000          22.000  
  20408271.172 7       433.033 7       337.42948  -5050071.376 7  -3913807.30048
  20408267.57048        49.700          37.400  
  20326585.344 7       -40.745 7       -31.74949  -3694304.058 7  -2873060.93249
  20326580.52749        49.600          42.700  
  22607390.031 6     -3614.039 6     -2816.13547   7151171.912 6   5556910.85347
  22607386.75047        44.200          29.800  
 08  1 20 20 21 20.0000000  0 10G02G05G06G10G12G16G21G24G29G30   -0.000054550
  23504801.148 6     -3605.367 6     -2809.37546   8331358.364 6   6457815.45846
  23504793.32046        44.600          22.200  
  23706113.688 5     -4050.139 5     -3155.94946   9487164.904 5   7355946.04246
  23706109.84846        40.300          23.000  
  20643435.430 7       874.335 7       681.29948  -6285689.478 7  -4880717.30648
  20643431.50048        47.700          37.300  
  20833899.086 6     -1099.796 6      -856.98348  -1709557.174 6  -1321965.90448
  20833894.25048        47.500          34.500  
  24699562.328 1                                  10066856.70311
                        29.400  
  24675211.516 6      2642.636 6      2059.19346  -4147263.756 6  -3157422.70546
  24675206.07046        44.200          20.600  
  22880353.984 5      2472.037 5      1926.26246  -5810863.856 5  -4420362.31546
  22880348.64546        41.200          22.500  
  20407861.164 7       430.825 7       335.70848  -5052225.502 7  -3915485.83948
  20407857.24648        50.000          37.300  
  20326626.289 7       -43.306 7       -33.74649  -3694087.527 7  -2872892.20449
  20326621.69949        49.100          42.500  
  22610830.055 6     -3615.741 6     -2817.45747   7169250.615 6   5570998.13847
  22610827.62547        43.400          29.300  
 08  1 20 20 21 25.0000000  0 10G02G05G06G10G12G16G21G24G29G30   -0.000053526
  23508231.438 6     -3606.120 6     -2809.96546   8349388.962 6   6471865.28246
  23508224.46146        43.900          22.200  
  23709968.453 5     -4050.815 5     -3156.47546   9507418.978 5   7371728.41746
  23709964.39846        39.700          25.300  
  20642605.617 7       871.904 7       679.40648  -6290049.000 7  -4884114.33848
  20642601.16848        49.400          37.000  
  20834948.977 6     -1103.374 6      -859.77348  -1704040.306 6  -1317667.04048
  20834944.07848        47.300          34.900  
  24703476.055 1                                  10087427.69011
                        29.400  
  24672697.906 6      2640.794 6      2057.76046  -4160467.726 6  -3167711.50346
  24672693.57846        43.600          20.600  
  22878002.836 5      2471.016 5      1925.46746  -5823218.936 5  -4429989.65046
  22877997.84046        41.800          22.300  
  20407453.180 7       428.538 7       333.92648  -5054368.192 7  -3917155.46848
  20407449.48448        49.500          37.200  
  20326669.875 7       -45.956 7       -35.80849  -3693857.749 7  -2872713.16349
  20326665.09449        49.900          42.600  
  22614272.234 6     -3617.525 6     -2818.85047   7187338.240 6   5585092.38947
  22614269.09047        43.700          28.700  
 08  1 20 20 21 30.0000000  0 10G02G05G06G10G12G16G21G24G29G30   -0.000052500
  23511663.719 6     -3606.734 6     -2810.44046   8367422.633 6   6485917.48346
  23511655.82846        44.500          22.300  
  23713822.703 5     -4051.368 5     -3156.90946   9527675.819 5   7387512.96046
  23713819.12946        39.900          22.900  
  20641778.523 7       869.611 7       677.61848  -6294397.056 7  -4887502.43048
  20641774.23048        49.600          37.400  
  20836002.008 7     -1106.792 7      -862.43448  -1698506.345 7  -1313354.86848
  20835997.13348        48.000          35.100  
  24707390.914 1                                                
                        30.300  
  24670187.500 6      2639.080 6      2056.42946  -4173663.125 6  -3177993.64646
  24670182.80946        43.700          21.100  
  22875652.477 5      2470.131 5      1924.77746  -5835569.591 5  -4439613.53346
  22875647.33646        41.200          22.600  
  20407047.398 7       426.391 7       332.25248  -5056500.146 7  -3918816.72948
  20407043.60948        50.200          37.400  
  20326716.484 7       -48.460 7       -37.76149  -3693615.448 7  -2872524.35649
  20326711.39149        50.000          42.400  
  22617715.742 6     -3619.155 6     -2820.11947   7205434.013 6   5599192.98247
  22617712.23847        43.100          28.300  
 08  1 20 20 21 35.0000000  0 10G02G05G06G10G12G16G21G24G29G30   -0.000051476
  23515096.063 6     -3607.271 6     -2810.86546   8385458.990 6   6499971.80946
  23515088.61746        45.000          22.200  
  23717678.031 4     -4051.832 4     -3157.27346   9547934.979 4   7403299.32446
  23717674.57446        39.000          22.900  
  20640953.172 7       867.410 7       675.90348  -6298734.106 7  -4890881.94648
  20640948.69148        49.900          37.300  
  20837058.250 7     -1110.130 7      -865.03648  -1692955.695 7  -1309029.68848
  20837052.88348        48.200          34.900  
  24711305.398 1                                                
                        31.000  
  24667677.828 6      2637.438 6      2055.13946  -4186850.314 6  -3188269.34346
  24667673.67646        43.500          21.300  
  22873302.586 5      2469.315 5      1924.13946  -5847916.166 5  -4449234.22846
  22873297.85246        41.400          22.900  
  20406643.781 7       424.316 7       330.63448  -5058621.728 7  -3920469.90048
  20406639.78148        49.900          37.000  
  20326765.094 7       -50.894 7       -39.65849  -3693360.979 7  -2872326.06449
  20326759.75849        50.100          42.300  
  22621160.867 6     -3620.718 6     -2821.33747   7223537.604 6   5613299.66947
  22621157.16447        42.600          28.800  
 08  1 20 20 21 40.0000000  0 10G02G05G06G10G12G16G21G24G29G30   -0.000050449
  23518529.469 6     -3608.072 6     -2811.48346   8403499.352 6   6514029.22546
  23518521.63746        44.700          22.000  
  23721533.438 5     -4052.565 5     -3157.84446   9568197.803 5   7419088.54346
  23721530.32446        39.900          24.800  
  20640130.242 7       864.929 7       673.97148  -6303058.752 7  -4894251.79948
  20640126.04748        49.700          37.000  
  20838118.273 7     -1113.730 7      -867.84048  -1687387.045 7  -1304690.48648
  20838113.18448        48.900          35.100  
  24715220.188 1                                  10149145.16911
                        30.300  
  24665170.406 6      2635.534 6      2053.66646  -4200027.986 6  -3198537.67446
  24665166.06646        43.300          20.900  
  22870954.445 5      2468.243 5      1923.30646  -5860257.380 5  -4458850.76046
  22870949.35246        41.300          22.200  
  20406242.609 7       421.977 7       328.81348  -5060731.612 7  -3922113.96748
  20406238.25848        50.100          37.200  
  20326815.664 7       -53.594 7       -41.76149  -3693093.010 7  -2872117.26049
  20326810.69149        50.000          42.300  
  22624607.953 6     -3622.544 6     -2822.76447   7241650.322 6   5627413.48847
  22624604.42647        43.400          28.900  
 08  1 20 20 21 45.0000000  0 10G02G05G06G10G12G16G21G24G29G30   -0.000049425
  23521962.742 6     -3608.723 6     -2811.99746   8421542.969 6   6528089.20946
  23521955.44546        44.500          22.000  
  23725389.883 5     -4053.130 5     -3158.28146   9588463.455 5   7434879.94746
  23725386.71946        39.800          22.300  
  20639309.523 7       862.588 7       672.14748  -6307371.693 7  -4897612.53248
  20639305.64148        49.600          37.200  
  20839181.281 7     -1117.182 7      -870.53148  -1681801.133 7  -1300337.82948
  20839175.73848        48.600          35.100  
  24719135.633 1                                  10169719.74711
                        30.300  
  24662664.258 6      2633.774 6      2052.28346  -4213196.856 6  -3208799.09046
  24662660.41046        43.200          20.400  
  22868607.086 5      2467.313 5      1922.58046  -5872593.943 5  -4468463.65846
  22868601.79346        40.900          22.300  
  20405842.859 7       419.780 7       327.10148  -5062830.515 7  -3923749.47248
  20405838.73048        49.300          37.000  
  20326869.000 7       -56.145 7       -43.74949  -3692812.285 7  -2871898.51549
  20326864.09449        50.000          42.200  
  22628055.531 6     -3624.216 6     -2824.06247   7259771.401 6   5641533.79747
  22628052.39547        43.400          28.900  
 08  1 20 20 21 50.0000000  0 10G02G05G06G10G12G16G21G24G29G30   -0.000048399
  23525397.438 6     -3609.385 6     -2812.50746   8439589.895 6   6542151.74446
  23525389.85546        45.200          22.200  
  23729247.195 5     -4053.736 5     -3158.75346   9608732.136 5   7450673.71546
  23729243.50046        40.300          22.500  
  20638491.008 7       860.256 7       670.33048  -6311672.975 7  -4900964.18348
  20638486.94948        51.000          37.200  
  20840247.438 7     -1120.662 7      -873.24248  -1676197.822 7  -1295971.61948
  20840242.00848        48.400          34.600  
  24723050.852 1     -4115.09611                  10190295.227 1
                        31.000  
  24660160.516 6      2632.003 6      2050.90746  -4226356.870 6  -3219053.62446
  24660155.64146        42.500          19.600  
  22866260.766 5      2466.379 5      1921.85646  -5884925.839 5  -4478072.93846
  22866254.79746        40.900          22.800  
  20405445.750 7       417.584 7       325.39048  -5064918.436 7  -3925376.42448
  20405441.30148        49.600          37.300  
  20326924.992 7       -58.708 7       -45.74749  -3692518.746 7  -2871669.78049
  20326920.01249        50.300          42.000  
  22631505.539 6     -3625.893 6     -2825.37347   7277900.866 6   5655660.66147
  22631502.46147        43.300          28.300  
 08  1 20 20 21 55.0000000  0 10G02G05G06G10G12G16G21G24G29G30   -0.000047373
  23528831.648 6     -3610.027 6     -2813.00846   8457640.031 6   6556216.78346
  23528824.66446        45.500          22.900  
  23733105.203 4     -4054.302 4     -3159.19446   9629003.645 4   7466469.68746
  23733100.98446        38.700          23.300  
  20637675.000 7       857.921 7       668.51148  -6315962.580 7  -4904306.73648
  20637671.04348        50.300          37.000  
  20841317.203 7     -1124.100 7      -875.92148  -1670577.323 7  -1291592.01348
  20841311.55548        48.100          34.500  
  24726967.289 1                                  10210871.57611
                        31.200  
  24657656.867 6      2630.241 6      2049.53846  -4239508.075 6  -3229301.31246
  24657652.56646        42.500          19.000  
  22863914.492 5      2465.437 5      1921.11746  -5897253.023 5  -4487678.52546
  22863908.69146        41.100          22.200  
  20405050.672 7       415.393 7       323.68448  -5066995.402 7  -3926994.84448
  20405046.41048        50.200          37.600  
  20326983.391 7       -61.261 7       -47.73549  -3692212.443 7  -2871431.10549
  20326978.38749        49.800          42.100  
  22634957.328 6     -3627.565 6     -2826.67247   7296038.692 6   5669794.02147
  22634953.74247        43.400          27.400  
 08  1 20 20 22  0.0000000  0 10G02G05G06G10G12G16G21G24G29G30   -0.000046349
  23532267.430 6     -3610.789 6     -2813.60346   8475693.976 6   6570284.79846
  23532260.77746        45.200          22.900  
  23736962.688 5     -4054.979 5     -3159.72446   9649278.539 5   7482268.30846
  23736959.27046        39.200          22.300  
  20636860.508 7       855.476 7       666.60548  -6320239.960 7  -4907639.76148
  20636856.59848        49.500          37.000  
  20842390.063 7     -1127.662 7      -878.69948  -1664939.011 7  -1287198.51948
  20842383.98848        48.900          34.800  
  24730883.117 1                                                
                        30.800  
  24655156.570 6      2628.357 6      2048.06545  -4252649.862 6  -3239541.63645
  24655152.14545        42.500          18.300  
  22861569.797 5      2464.394 5      1920.30946  -5909574.994 5  -4497280.06946
  22861563.52346        40.900          22.600  
  20404657.789 7       413.083 7       321.88348  -5069060.815 7  -3928604.25748
  20404652.78148        50.200          37.100  
  20327044.102 7       -63.937 7       -49.82149  -3691892.759 7  -2871182.00049
  20327039.15649        49.600          42.000  
  22638410.492 6     -3629.341 6     -2828.05947   7314185.397 6   5683934.31647
  22638406.94147        43.800          26.700  
 08  1 20 20 22  5.0000000  0 10G02G05G06G10G12G16G21G24G29G30   -0.000045322
  23535703.430 6     -3611.500 6     -2814.15646   8493751.478 6   6584355.57746
  23535697.80546        46.200          24.500  
  23740821.805 5     -4055.619 5     -3160.22046   9669556.634 5   7498069.40946
  23740818.18046        39.400          22.000  
  20636049.148 7       853.060 7       664.72148  -6324505.262 7  -4910963.36748
  20636045.15248        47.900          37.500  
  20843466.320 7     -1131.182 7      -881.44148  -1659283.100 7  -1282791.31448
  20843460.59448        48.500          34.800  
  24734799.172 1                                  10252028.19911
                        31.300  
  24652657.844 6      2626.529 6      2046.64345  -4265782.508 6  -3249774.85245
  24652652.94545        42.500          17.400  
  22859225.836 5      2463.404 5      1919.53446  -5921892.013 5  -4506877.74146
  22859219.90246        41.100          22.600  
  20404266.836 7       410.835 7       320.13048  -5071114.991 7  -3930204.90848
  20404262.43048        50.700          37.800  
  20327107.391 7       -66.544 7       -51.85249  -3691560.037 7  -2870922.74049
  20327102.36349        49.000          42.400  
  22641865.070 6     -3631.059 6     -2829.39347   7332340.690 6   5698081.28047
  22641861.71147        43.700          27.200  
 08  1 20 20 22 10.0000000  0 10G02G05G06G10G12G16G21G24G29G30   -0.000044296
  23539140.008 6     -3612.193 6     -2814.69546   8511812.443 6   6598429.05046
  23539135.20346        46.200          24.500  
  23744680.594 5     -4056.232 5     -3160.69846   9689837.794 5   7513872.89846
  23744677.91046        39.900          22.800  
  20635239.953 7       850.684 7       662.86948  -6328758.680 7  -4914277.71448
  20635235.58248        49.700          37.700  
  20844546.063 7     -1134.681 7      -884.16748  -1653609.694 7  -1278370.47848
  20844540.30548        50.000          35.300  
  24738715.672 1                                  10272608.09311
                        31.500  
  24650160.055 5      2624.723 5      2045.23545  -4278906.121 5  -3260001.02445
  24650155.70345        42.300          16.300  
  22856882.797 5      2462.420 5      1918.76746  -5934204.111 5  -4516471.57646
  22856877.31346        41.700          22.800  
  20403877.844 7       408.596 7       318.38548  -5073157.970 7  -3931796.83548
  20403873.81648        50.800          38.000  
  20327173.336 7       -69.143 7       -53.87749  -3691214.321 7  -2870653.35449
  20327168.46149        49.300          42.500  
  22645321.563 6     -3632.764 6     -2830.72347   7350504.509 6   5712234.89747
  22645317.87147        43.400          28.400  
 08  1 20 20 22 15.0000000  0 10G02G05G06G10G12G16G21G24G29G30   -0.000043268
  23542577.539 6     -3612.898 6     -2815.24746   8529876.934 6   6612505.28346
  23542572.96946        45.700          25.800  
  23748541.133 4     -4056.856 4     -3161.18946   9710122.076 4   7529678.84446
  23748537.72746        38.900          22.900  
  20634432.648 7       848.283 7       661.00048  -6333000.096 7  -4917582.71648
  20634428.25448        49.200          37.300  
  20845628.594 7     -1138.208 7      -886.91748  -1647918.653 7  -1273935.89448
  20845623.26648        48.300          34.700  
  24742632.258 1     -4116.23711                  10293189.277 1
                        32.300  
  24647664.938 6      2622.897 6      2043.81645  -4292020.607 6  -3270220.10445
  24647659.82845        42.500          16.900  
  22854541.227 5      2461.419 5      1917.98946  -5946511.206 5  -4526061.52146
  22854535.11346        41.800          22.600  
  20403491.211 7       406.343 7       316.63248  -5075189.684 7  -3933379.99348
  20403487.56348        50.300          37.600  
  20327241.641 7       -71.770 7       -55.92549  -3690855.470 7  -2870373.73149
  20327236.51649        48.800          42.100  
  22648779.867 6     -3634.488 6     -2832.06847   7368676.948 6   5726395.23747
  22648775.49647        43.600          27.900  
 08  1 20 20 22 20.0000000  0 10G02G05G06G10G12G16G21G24G29G30   -0.000042242
  23546015.516 6     -3613.551 6     -2815.75446   8547944.688 6   6626584.05346
  23546011.27046        45.500          26.200  
  23752401.648 5     -4057.432 5     -3161.63146   9730409.238 5   7545487.00146
  23752398.37546        40.300          22.500  
  20633627.734 7       845.923 7       659.16248  -6337229.709 7  -4920878.52448
  20633623.79348        49.400          37.300  
  20846714.891 7     -1141.673 7      -889.61548  -1642210.290 7  -1269487.81648
  20846709.21948        49.100          34.900  
  24746548.375 1     -4116.388 1                  10313771.216 1
                        32.200  
  24645170.680 5      2621.094 5      2042.41345  -4305126.080 5  -3280432.16745
  24645165.84045        42.100          18.300  
  22852200.188 5      2460.467 5      1917.24746  -5958813.540 5  -4535647.75746
  22852194.37146        41.300          23.000  
  20403106.695 7       404.136 7       314.91048  -5077210.362 7  -3934954.54548
  20403102.69948        49.800          37.600  
  20327312.227 7       -74.338 7       -57.92649  -3690483.781 7  -2870084.10449
  20327307.43449        49.400          42.100  
  22652239.477 6     -3636.157 6     -2833.36647   7386857.732 6   5740562.06947
  22652235.51247        42.800          26.700  
 08  1 20 20 22 25.0000000  0 10G02G05G06G10G12G16G21G24G29G30   -0.000041216
  23549454.336 6     -3614.342 6     -2816.36946   8566016.397 6   6640665.89646
  23549450.19946        45.000          24.600  
  23756262.758 5     -4058.136 5     -3162.18346   9750699.921 5   7561297.91546
  23756259.48846        39.900          22.200  
  20632825.375 7       843.442 7       657.22848  -6341446.918 7  -4924164.66248
  20632821.01648        50.600          37.200  
  20847804.695 7     -1145.247 7      -892.40148  -1636484.053 7  -1265025.81348
  20847798.96948        49.400          34.600  
  24750465.094 1                                  10334354.68311
                        31.800  
  24642678.391 5      2619.200 5      2040.92745  -4318222.081 5  -3290636.80045
  24642673.67645        41.300          17.800  
  22849860.539 5      2459.394 5      1916.41046  -5971110.512 5  -4545229.80546
  22849854.21146        41.500          22.000  
  20402724.578 7       401.804 7       313.09448  -5079219.381 7  -3936520.01448
  20402720.20348        50.500          37.700  
  20327385.453 7       -77.033 7       -60.02549  -3690098.614 7  -2869783.97749
  20327380.54349        49.900          42.100  
  22655701.094 6     -3637.942 6     -2834.75847   7405047.441 6   5754735.86047
  22655697.23047        42.700          27.700  
 08  1 20 20 22 30.0000000  0 10G02G05G06G10G12G16G21G24G29G30   -0.000040190
  23552894.383 6     -3615.011 6     -2816.89346   8584091.452 6   6654750.36246
  23552889.97346        44.500          23.200  
  23760124.883 5     -4058.723 5     -3162.64146   9770993.538 5   7577111.12146
  23760121.29346        39.800          22.300  
  20632025.164 7       841.068 7       655.37748  -6345652.258 7  -4927441.54748
  20632020.44948        50.300          36.800  
  20848897.594 7     -1148.733 7      -895.11748  -1630740.389 7  -1260550.22948
  20848892.40648        49.000          34.600  
  24754383.313 1     -4116.88211                  10354939.091 1
                        32.400  
  24640188.633 5      2617.389 5      2039.52645  -4331309.024 5  -3300834.43245
  24640182.85245        41.800          17.400  
  22847521.766 5      2458.425 5      1915.65546  -5983402.639 5  -4554808.08146
  22847515.40246        39.900          22.600  
  20402344.172 7       399.588 7       311.36748  -5081217.320 7  -3938076.84948
  20402339.84848        49.900          37.600  
  20327461.727 7       -79.625 7       -62.04649  -3689700.491 7  -2869473.74749
  20327456.85549        49.300          41.900  
  22659163.594 5     -3639.617 5     -2836.06347   7423245.528 5   5768916.17647
  22659160.29747        41.800          26.400  
 08  1 20 20 22 35.0000000  0 10G02G05G06G10G12G16G21G24G29G30   -0.000039162
  23556334.461 6     -3615.600 6     -2817.34846   8602169.450 6   6668837.10446
  23556329.96146        44.500          22.900  
  23763987.023 5     -4059.225 5     -3163.03146   9791289.663 5   7592926.27446
  23763983.28946        40.100          22.300  
  20631226.891 7       838.770 7       653.58648  -6349846.108 7  -4930709.47648
  20631222.53548        48.700          37.000  
  20849993.867 7     -1152.127 7      -897.76248  -1624979.752 7  -1256061.42048
  20849988.57848        47.900          34.200  
  24758300.352 1     -4116.980 1                  10375523.993 1
                        31.600  
  24637699.461 5      2615.645 5      2038.16045  -4344387.249 5  -3311025.22945
  24637693.62145        41.200          16.900  
  22845182.805 5      2457.545 5      1914.96946  -5995690.365 5  -4564382.92446
  22845176.22746        40.700          22.900  
  20401966.125 7       397.445 7       309.69848  -5083204.546 7  -3939625.33848
  20401961.75048        50.200          37.600  
  20327539.406 7       -82.137 7       -64.00349  -3689289.807 7  -2869153.73449
  20327534.67249        48.600          42.000  
  22662628.211 5     -3641.213 5     -2837.30547   7441451.592 5   5783102.70047
  22662624.43047        41.300          26.500  
 08  1 20 20 22 40.0000000  0 10G02G05G06G10G12G16G21G24G29G30   -0.000038136
  23559775.742 6     -3616.274 6     -2817.87446   8620250.820 6   6682926.47446
  23559770.68846        44.600          22.600  
  23767849.805 5     -4059.807 5     -3163.48746   9811588.697 5   7608743.70846
  23767846.49646        40.300          23.300  
  20630431.172 7       836.392 7       651.73548  -6354028.068 7  -4933968.15048
  20630426.44148        49.200          36.600  
  20851092.992 7     -1155.602 7      -900.47048  -1619201.741 7  -1251559.07248
  20851088.18048        48.800          34.400  
  24762218.383 1                                                
                        31.300  
  24635212.086 5      2613.810 5      2036.73345  -4357456.301 5  -3321208.89645
  24635207.02745        40.100          16.300  
  22842845.922 5      2456.565 5      1914.20746  -6007973.191 5  -4573953.96046
  22842839.30146        41.000          23.600  
  20401590.148 7       395.225 7       307.96848  -5085180.670 7  -3941165.17848
  20401585.68848        50.300          37.400  
  20327620.227 7       -84.721 7       -66.01649  -3688866.201 7  -2868823.65649
  20327615.41049        48.800          41.900  
  22666094.711 5     -3642.886 5     -2838.61346   7459666.022 5   5797295.76346
  22666090.49246        41.800          25.800  
 08  1 20 20 22 45.0000000  0 10G02G05G06G10G12G16G21G24G29G30   -0.000037107
  23563216.609 6     -3617.021 6     -2818.45846   8638335.923 6   6697018.76746
  23563211.89546        44.500          23.300  
  23771713.047 5     -4060.471 5     -3164.00446   9831891.052 5   7624563.73046
  23771710.08246        39.900          22.900  
  20629637.609 7       833.945 7       649.82848  -6358197.794 7  -4937217.28948
  20629633.18448        49.700          36.600  
  20852195.984 7     -1159.153 7      -903.23548  -1613405.976 7  -1247042.89748
  20852190.94148        48.000          34.400  
  24766136.336 1                                  10416697.09311
                        31.300  
  24632726.547 5      2611.911 5      2035.24745  -4370515.856 5  -3331385.13245
  24632721.70745        40.600          15.600  
  22840508.500 5      2455.521 5      1913.39146  -6020250.799 5  -4583520.91646
  22840503.09046        41.500          22.600  
  20401216.117 7       392.921 7       306.17248  -5087145.275 7  -3942696.03948
  20401211.90248        50.300          37.300  
  20327703.500 7       -87.404 7       -68.10849  -3688429.179 7  -2868483.11849
  20327699.02049        48.700          42.100  
  22669561.992 6     -3644.645 6     -2839.98146   7477889.247 6   5811495.66646
  22669558.13346        42.500          25.200  
 08  1 20 20 22 50.0000000  0 10G02G05G06G10G12G16G21G24G29G30   -0.000036079
  23566659.078 6     -3617.692 6     -2818.98046   8656424.381 6   6711113.66746
  23566654.47746        44.400          23.000  
  23775576.891 5     -4061.048 5     -3164.44946   9852196.292 5   7640385.97446
  23775573.80146        39.700          23.000  
  20628846.055 7       831.542 7       647.95648  -6362355.502 7  -4940457.06948
  20628841.75448        48.400          36.500  
  20853302.406 7     -1162.633 7      -905.94748  -1607592.812 7  -1242513.16248
  20853297.28548        48.800          34.400  
  24770054.172 1     -4117.59511                  10437285.067 1
                        32.600  
  24630243.422 5      2610.068 5      2033.82245  -4383566.195 5  -3341554.24045
  24630238.63745        40.100          16.300  
  22838173.109 5      2454.544 5      1912.63346  -6032523.520 5  -4593084.07946
  22838167.18446        42.200          22.900  
  20400844.586 7       390.689 7       304.43448  -5089098.721 7  -3944218.20748
  20400839.85548        50.800          37.300  
  20327788.781 7       -90.008 7       -70.13649  -3687979.140 7  -2868132.43849
  20327783.95349        48.600          41.900  
  22673031.570 5     -3646.317 5     -2841.28846   7496120.833 5   5825702.10746
  22673027.62146        41.900          26.200  
 08  1 20 20 22 55.0000000  0 10G02G05G06G10G12G16G21G24G29G30   -0.000035051
  23570101.609 6     -3618.340 6     -2819.48846   8674516.081 6   6725211.10446
  23570096.95746        44.800          22.800  
  23779441.438 5     -4061.594 5     -3164.87946   9872504.264 5   7656210.36946
  23779438.07446        40.900          22.900  
  20628057.430 7       829.198 7       646.12648  -6366501.490 7  -4943687.70048
  20628053.07448        48.500          36.500  
  20854411.578 7     -1166.078 7      -908.63448  -1601762.424 7  -1237969.99348
  20854406.80148        49.200          34.600  
  24773971.328 1     -4117.776 1                  10457873.949 1
                        33.100  
  24627761.320 5      2608.279 5      2032.42245  -4396607.591 5  -3351716.34845
  24627756.37545        39.800          15.600  
  22835839.039 5      2453.605 5      1911.89646  -6044791.543 5  -4602643.56246
  22835832.99646        41.400          24.300  
  20400474.867 7       388.497 7       302.72448  -5091041.206 7  -3945731.82848
  20400470.40248        50.000          37.700  
  20327876.680 7       -92.565 7       -72.12849  -3687516.315 7  -2867771.79849
  20327871.90249        48.400          41.800  
  22676502.586 5     -3647.959 5     -2842.56347   7514360.628 5   5839914.92247
  22676498.15247        41.400          26.400  
 08  1 20 20 23  0.0000000  0 10G02G05G06G10G12G16G21G24G29G30   -0.000034025
  23573545.375 6     -3619.051 6     -2820.03946   8692611.335 6   6739311.29946
  23573540.46546        44.900          22.800  
  23783306.891 5     -4062.216 5     -3165.36446   9892815.342 5   7672037.18746
  23783303.43446        40.800          24.000  
  20627270.477 7       826.758 7       644.22848  -6370635.282 7  -4946908.83948
  20627266.19148        50.500          36.500  
  20855524.500 7     -1169.599 7      -911.37648  -1595914.429 7  -1233413.11548
  20855519.67648        48.900          34.500  
  24777890.180 2     -4117.976 2                  10478463.829 2
                        34.000  
  24625282.281 5      2606.406 5      2030.96545  -4409639.618 5  -3361871.17145
  24625277.03945        39.600          14.800  
  22833505.016 5      2452.585 5      1911.10346  -6057054.468 5  -4612199.07646
  22833499.40646        41.500          22.200  
  20400107.547 7       386.227 7       300.95748  -5092972.343 7  -3947236.61248
  20400103.35948        50.500          37.600  
  20327967.586 7       -95.216 7       -74.19549  -3687040.236 7  -2867400.82449
  20327963.02049        49.600          42.000  
  22679974.703 5     -3649.676 5     -2843.90446   7532609.009 5   5854134.43946
  22679970.82846        41.500          25.700  
 08  1 20 20 23  5.0000000  0 10G02G05G06G10G12G16G21G24G29G30   -0.000032997
  23576989.094 6     -3619.704 6     -2820.55146   8710709.855 6   6753414.05246
  23576984.33646        45.500          24.500  
  23787172.750 5     -4062.785 5     -3165.80446   9913129.266 5   7687866.20946
  23787169.28546        40.200          23.500  
  20626486.320 7       824.382 7       642.37448  -6374757.190 7  -4950120.70948
  20626481.59048        47.800          36.800  
  20856640.820 7     -1173.057 7      -914.07148  -1590049.142 7  -1228842.76048
  20856635.69948        47.600          34.200  
  24781807.867 1     -4118.145 1                  10499054.555 1
                        33.300  
  24622803.781 5      2604.572 5      2029.52945  -4422662.479 5  -3372018.81745
  24622798.78545        40.000          15.600  
  22831172.336 5      2451.615 5      1910.35046  -6069312.545 5  -4621750.82546
  22831166.57446        41.100          22.900  
  20399742.039 7       384.006 7       299.22548  -5094892.372 7  -3948732.73948
  20399737.60548        50.500          37.500  
  20328060.422 7       -97.800 7       -76.20849  -3686551.238 7  -2867019.78449
  20328055.66449        48.700          42.100  
  22683448.836 5     -3651.329 5     -2845.18946   7550865.654 5   5868360.38546
  22683445.17246        41.300          24.800  
 08  1 20 20 23 10.0000000  0 10G02G05G06G10G12G16G21G24G29G30   -0.000031967
  23580434.195 6     -3620.522 6     -2821.18446   8728812.466 6   6767519.97246
  23580428.98846        44.500          22.300  
  23791038.508 5     -4063.501 5     -3166.36446   9933446.771 5   7703698.02646
  23791035.62946        40.600          24.500  
  20625704.828 7       821.841 7       640.39548  -6378866.396 7  -4953322.68648
  20625700.10948        50.000          36.700  
  20857760.320 7     -1176.686 7      -916.89748  -1584165.712 7  -1224258.27648
  20857754.84048        47.800          34.500  
  24785727.703 2     -4118.473 2                  10519646.917 2
                        34.400  
  24620327.133 5      2602.597 5      2028.01245  -4435675.466 5  -3382158.87645
  24620322.61745        39.700          15.600  
  22828840.547 5      2450.485 5      1909.46746  -6081564.970 5  -4631298.16146
  22828835.12946        41.300          23.800  
  20399378.844 7       381.634 7       297.37848  -5096800.540 7  -3950219.62848
  20399374.54348        50.900          37.700  
  20328156.234 7      -100.546 7       -78.34849  -3686048.509 7  -2866628.04549
  20328151.43049        49.300          42.100  
  22686925.539 5     -3653.151 5     -2846.60946   7569131.409 5   5882593.43046
  22686920.64146        41.200          26.200  
 08  1 20 20 23 15.0000000  0 10G02G05G06G10G12G16G21G24G29G30   -0.000030939
  23583879.070 6     -3621.208 6     -2821.72246   8746918.509 6   6781628.58146
  23583874.28946        44.300          24.700  
  23794905.469 5     -4064.081 5     -3166.81646   9953767.173 5   7719532.10746
  23794902.51646        40.600          24.200  
  20624924.969 7       819.436 7       638.52248  -6382963.575 7  -4956515.29648
  20624919.80948        49.800          36.500  
  20858883.086 6     -1180.168 6      -919.61348  -1578264.871 6  -1219660.21348
  20858877.78148        47.400          34.400  
  24789644.977 1     -4118.673 1                  10540240.284 1
                        33.200  
  24617852.695 4      2600.732 4      2026.54045  -4448679.126 4  -3392291.57545
  24617848.43045        39.000          14.800  
  22826510.063 5      2449.491 5      1908.69346  -6093812.425 5  -4640841.62746
  22826504.65246        41.900          23.600  
  20399018.289 7       379.388 7       295.62748  -5098697.479 7  -3951697.76248
  20399013.78548        51.200          37.700  
  20328254.234 7      -103.167 7       -80.39149  -3685532.674 7  -2866226.09249
  20328249.61749        48.800          42.000  
  22690402.578 5     -3654.814 5     -2847.90547   7587405.479 5   5896832.95247
  22690397.98047        41.300          26.500  
 08  1 20 20 23 20.0000000  0 10G02G05G06G10G12G16G21G24G29G30   -0.000029909
  23587325.930 6     -3621.954 6     -2822.29846   8765028.279 6   6795740.07046
  23587320.37546        44.400          23.400  
  23798772.711 5     -4064.750 5     -3167.33646   9974090.921 5   7735368.79046
  23798770.13346        40.800          25.600  
  20624147.469 7       816.955 7       636.58848  -6387048.350 7  -4959698.23648
  20624142.70348        49.100          36.200  
  20860009.578 7     -1183.751 7      -922.40348  -1572346.118 7  -1215048.20048
  20860004.40648        47.900          34.500  
  24793565.125 1     -4118.921 1                  10560834.891 1
                        33.000  
  24615379.836 5      2598.800 5      2025.03445  -4461673.127 5  -3402416.74545
  24615376.02045        39.700          14.800  
  22824179.805 5      2448.422 5      1907.85646  -6106054.535 5  -4650380.90946
  22824174.69946        41.800          22.600  
  20398659.352 7       377.071 7       293.82448  -5100582.833 7  -3953166.88048
  20398654.50848        51.100          37.500  
  20328354.992 7      -105.857 7       -82.48649  -3685003.390 7  -2865813.66249
  20328350.28149        49.200          41.800  
  22693881.906 5     -3656.569 5     -2849.27446   7605688.322 5   5911079.32446
  22693877.44946        41.200          24.800  
 08  1 20 20 23 25.0000000  0 10G02G05G06G10G12G16G21G24G29G30   -0.000028881
  23590772.602 6     -3622.628 6     -2822.82746   8783141.422 6   6809854.20546
  23590766.72346        43.800          23.300  
  23802641.242 5     -4065.312 5     -3167.77346   9994417.481 5   7751207.65546
  23802638.00846        40.500          24.700  
  20623372.586 7       814.547 7       634.71048  -6391121.083 7  -4962871.78848
  20623367.91448        49.100          36.300  
  20861139.367 7     -1187.219 7      -925.10448  -1566410.021 7  -1210422.68148
  20861134.31648        47.800          34.400  
  24797483.469 1     -4119.103 1                  10581430.403 1
                        33.100  
  24612909.477 4      2596.956 4      2023.60845  -4474657.905 4  -3412534.78745
  24612904.85545        38.700          15.600  
  22821851.852 5      2447.426 5      1907.08646  -6118291.666 5  -4659916.33946
  22821846.61746        41.100          22.800  
  20398302.852 7       374.837 7       292.07948  -5102457.019 7  -3954627.27448
  20398298.15248        50.900          37.700  
  20328458.336 7      -108.472 7       -84.52349  -3684461.031 7  -2865391.04849
  20328453.39849        48.800          41.800  
  22697362.969 5     -3658.222 5     -2850.56146   7623979.432 5   5925332.13146
  22697358.18846        41.500          25.600  
 08  1 20 20 23 30.0000000  0 10G02G05G06G10G12G16G21G24G29G30   -0.000027851
  23594220.156 6     -3623.325 6     -2823.36846   8801258.048 6   6823971.04746
  23594213.99246        43.700          23.900  
  23806509.734 5     -4065.906 5     -3168.23946  10014747.011 5   7767048.85246
  23806507.02046        40.900          23.900  
  20622599.750 7       812.121 7       632.82248  -6395181.688 7  -4966035.90048
  20622595.64848        48.400          36.200  
  20862272.422 7     -1190.705 7      -927.82448  -1560456.496 7  -1205783.56348
  20862266.74648        48.300          34.700  
  24801401.922 1     -4119.275 1                  10602026.778 1
                        32.000  
  24610439.961 4      2595.086 4      2022.13545  -4487633.336 4  -3422645.46245
  24610436.00045        38.700          15.600  
  22819523.984 5      2446.423 5      1906.30346  -6130523.781 5  -4669447.85446
  22819518.56346        40.500          22.500  
  20397947.992 7       372.582 7       290.32548  -5104319.931 7  -3956078.89948
  20397943.28948        51.300          37.900  
  20328563.914 7      -111.104 7       -86.57549  -3683905.514 7  -2864958.17449
  20328559.09049        48.800          41.800  
  22700844.461 5     -3659.902 5     -2851.87146   7642278.940 5   5939591.48346
  22700840.61746        41.600          25.300  
 08  1 20 20 23 35.0000000  0 10G02G05G06G10G12G16G21G24G29G30   -0.000026821
  23597667.969 6     -3623.988 6     -2823.88546   8819377.985 6   6838090.47546
  23597662.21946        44.000          22.800  
  23810378.664 5     -4066.468 5     -3168.67546  10035079.350 5   7782892.22546
  23810375.96546        41.400          23.400  
  20621829.719 6       809.728 6       630.95748  -6399230.327 6  -4969190.68448
  20621824.68848        47.500          36.100  
  20863408.336 7     -1194.184 7      -930.53248  -1554485.574 7  -1201130.90048
  20863403.04348        48.000          34.900  
  24805322.227 1     -4119.439 1                  10622623.975 1
                        32.200  
  24607971.734 4      2593.225 4      2020.71245  -4500599.463 4  -3432749.02145
  24607968.88745        38.100          15.600  
  22817197.633 5      2445.428 5      1905.52646  -6142750.923 5  -4678975.48346
  22817192.34846        41.200          22.600  
  20397595.742 7       370.356 7       288.58948  -5106171.712 7  -3957521.84448
  20397590.87148        50.800          37.700  
  20328672.203 7      -113.723 7       -88.61649  -3683336.898 7  -2864515.09349
  20328667.48449        48.400          41.900  
  22704328.703 5     -3661.556 5     -2853.16046   7660586.719 5   5953857.28146
  22704324.46146        40.900          24.400  
 08  1 20 20 23 40.0000000  0 10G02G05G06G10G12G16G21G24G29G30   -0.000025791
  23601116.680 6     -3624.691 6     -2824.43546   8837501.438 6   6852212.64846
  23601111.05146        42.600          22.800  
  23814248.719 5     -4067.067 5     -3169.14446  10055414.687 5   7798737.94446
  23814245.53546        41.900          24.200  
  20621061.203 7       807.287 7       629.05448  -6403266.762 7  -4972335.95448
  20621056.37148        48.100          36.100  
  20864548.086 6     -1197.685 6      -933.26248  -1548497.151 6  -1196464.58948
  20864542.97348        47.200          34.700  
  24809241.492 1                                  10643222.24011
                        31.000  
  24605506.594 4      2591.346 4      2019.21645  -4513556.192 4  -3442845.10245
  24605503.07845        37.700          14.800  
  22814871.758 5      2444.409 5      1904.73646  -6154972.967 5  -4688499.16146
  22814866.74646        40.900          23.300  
  20397245.375 7       368.086 7       286.82048  -5108012.140 7  -3958955.94448
  20397240.79748        51.400          37.500  
  20328782.828 7      -116.363 7       -90.67249  -3682755.081 7  -2864061.73049
  20328777.97749        48.200          41.700  
  22707813.570 5     -3663.238 5     -2854.46946   7678902.907 5   5968129.62646
  22707809.82446        41.100          25.600  
 08  1 20 20 23 45.0000000  0 10G02G05G06G10G12G16G21G24G29G30   -0.000024761
  23604566.109 5     -3625.321 5     -2824.91946   8855628.041 5   6866337.24346
  23604560.45746        42.200          22.600  
  23818118.148 5     -4067.583 5     -3169.54246  10075752.602 5   7814585.65646
  23818115.94546        40.700          24.700  
  20620295.383 7       804.918 7       627.20948  -6407291.351 7  -4975472.00048
  20620291.18048        49.500          36.400  
  20865690.789 6     -1201.121 6      -935.93748  -1542491.548 6  -1191784.90348
  20865685.71548        47.300          35.100  
  24813160.563 1     -4119.77511                  10663821.115 1
                        30.800  
  24603042.977 4      2589.515 4      2017.80945  -4526503.770 4  -3452934.14645
  24603039.07845        38.600          15.600  
  22812546.734 5      2443.455 5      1903.99046  -6167190.239 5  -4698019.11346
  22812541.47746        40.900          23.900  
  20396897.320 7       365.899 7       285.11648  -5109841.636 7  -3960381.52248
  20396892.90248        51.000          37.700  
  20328895.844 7      -118.947 7       -92.68649  -3682160.345 7  -2863598.30149
  20328890.88749        48.700          41.800  
  22711301.250 5     -3664.848 5     -2855.72747   7697227.148 5   5982408.25947
  22711297.46547        41.300          26.900  
 08  1 20 20 23 50.0000000  0 10G02G05G06G10G12G16G21G24G29G30   -0.000023731
  23608015.984 5     -3625.856 5     -2825.34546   8873757.321 5   6880463.96946
  23608009.81346        40.900          22.200  
  23821988.688 5     -4068.018 5     -3169.88746  10096092.692 5   7830435.09046
  23821985.72746        41.300          24.500  
  20619531.344 7       802.627 7       625.42248  -6411304.487 7  -4978599.11248
  20619527.29348        47.800          36.000  
  20866836.750 7     -1204.474 7      -938.55148  -1536469.180 7  -1187092.14848
  20866831.69948        48.500          34.900  
  24817081.617 1     -4119.796 1                  10684420.094 1
                        31.900  
  24600580.773 4      2587.782 4      2016.45345  -4539442.678 4  -3463016.41045
  24600577.10945        38.300          15.600  
  22810222.766 5      2442.590 5      1903.31246  -6179403.188 5  -4707535.67346
  22810217.02746        40.200          24.800  
  20396551.289 7       363.791 7       283.47348  -5111660.591 7  -3961798.89048
  20396546.78148        51.000          37.700  
  20329011.531 7      -121.440 7       -94.62949  -3681553.144 7  -2863125.15749
  20329006.75849        48.800          41.900  
  22714789.289 5     -3666.365 5     -2856.90646   7715558.973 5   5996692.79046
  22714785.59846        41.800          26.200  
 08  1 20 20 23 55.0000000  0 10G02G05G06G10G12G16G21G24G29G30   -0.000022703
  23611466.539 5     -3626.498 5     -2825.84246   8891889.809 5   6894593.17946
  23611459.68046        40.600          21.800  
  23825860.414 5     -4068.544 5     -3170.29346  10116435.413 5   7846286.55446
  23825857.14146        42.400          25.700  
  20618770.055 7       800.251 7       623.57248  -6415305.741 7  -4981716.97248
  20618765.97348        48.600          36.200  
  20867986.445 7     -1207.910 7      -941.22948  -1530429.631 7  -1182386.00648
  20867980.91448        48.400          35.000  
  24821000.695 1     -4119.936 1                  10705019.774 1
                        31.200  
  24598119.766 4      2585.954 4      2015.03345  -4552372.448 4  -3473091.57745
  24598116.85545        38.100          16.900  
  22807900.000 5      2441.620 5      1902.56346  -6191611.287 5  -4717048.49046
  22807894.38746        40.300          24.600  
  20396207.008 7       361.590 7       281.75848  -5113468.540 7  -3963207.68148
  20396202.64548        51.000          37.900  
  20329129.625 7      -124.017 7       -96.63749  -3680933.060 7  -2862641.97049
  20329124.93049        48.800          41.900  
  22718278.867 5     -3667.980 5     -2858.16546   7733898.871 5   6010983.61446
  22718275.71546        42.300          25.900  
 08  1 20 20 24  0.0000000  0 10G02G05G06G10G12G16G21G24G29G30   -0.000021671
  23614918.234 5     -3627.188 5     -2826.37546   8910025.747 5   6908725.05346
  23614910.57446        40.500          21.800  
  23829731.813 6     -4069.121 6     -3170.74446  10136781.018 6   7862140.27146
  23829728.61346        42.600          25.200  
  20618010.977 6       797.820 6       621.67948  -6419294.842 6  -4984825.36848
  20618006.84048        46.800          36.200  
  20869138.688 7     -1211.401 7      -943.94948  -1524372.626 7  -1177666.25948
  20869133.45748        48.300          35.000  
  24824921.406 1     -4120.120 1                  10725620.373 1
                        31.200  
  24595661.289 4      2584.055 4      2013.55145  -4565292.725 4  -3483159.33345
  24595658.11745        37.600          15.600  
  22805577.469 5      2440.610 5      1901.77546  -6203814.339 5  -4726557.36346
  22805571.73446        41.400          24.900  
  20395865.133 7       359.331 7       279.99848  -5115265.195 7  -3964607.67348
  20395861.02748        51.100          37.800  
  20329250.008 7      -126.653 7       -98.68949  -3680299.796 7  -2862148.52349
  20329244.86349        48.600          41.800  
  22721770.758 6     -3669.654 6     -2859.47146   7752247.141 6   6025280.96846
  22721767.07846        42.500          26.000  
 08  1 20 20 24  5.0000000  0 10G02G05G06G10G12G16G21G24G29G30   -0.000020641
  23618369.883 5     -3627.847 5     -2826.89546   8928164.981 5   6922859.52746
  23618362.51246        41.100          21.100  
  23833604.297 5     -4069.669 5     -3171.17046  10157129.363 5   7877996.12046
  23833600.79346        42.400          25.600  
  20617253.891 7       795.417 7       619.80348  -6423271.926 7  -4987924.38548
  20617250.30148        48.200          36.000  
  20870295.039 7     -1214.866 7      -946.64848  -1518298.298 7  -1172933.01948
  20870289.69948        49.100          35.100  
  24828842.633 1                                                
                        31.500  
  24593204.609 4      2582.178 4      2012.08845  -4578203.613 4  -3493219.77145
  24593201.16045        38.400          16.300  
  22803256.266 5      2439.614 5      1900.99046  -6216012.409 5  -4736062.31546
  22803250.76246        41.300          24.400  
  20395525.453 7       357.102 7       278.26148  -5117050.703 7  -3965998.97848
  20395521.14148        51.100          37.700  
  20329373.078 7      -129.266 7      -100.72849  -3679653.464 7  -2861644.88449
  20329368.14549        49.600          42.000  
  22725263.953 6     -3671.282 6     -2860.73947   7770603.549 6   6039584.66247
  22725260.08247        42.700          26.400  
 08  1 20 20 24 10.0000000  0 10G02G05G06G10G12G16G21G24G29G30   -0.000019611
  23621821.953 5     -3628.577 5     -2827.45946   8946307.866 5   6936996.82146
  23621814.70346        40.600          20.400  
  23837476.906 5     -4070.292 5     -3171.65546  10177480.823 5   7893854.39546
  23837474.05146        41.200          25.300  
  20616499.797 7       792.922 7       617.86248  -6427236.537 7  -4991013.69248
  20616495.79748        47.900          35.700  
  20871454.156 7     -1218.408 7      -949.40848  -1512206.260 7  -1168185.97948
  20871448.91048        48.900          35.300  
  24832763.063 1                                  10766824.09411
                        31.800  
  24590749.836 4      2580.238 4      2010.58045  -4591104.802 4  -3503272.67345
  24590745.81645        38.400          16.300  
  22800935.766 5      2438.536 5      1900.16046  -6228205.088 5  -4745563.11746
  22800930.59046        41.300          24.300  
  20395187.883 7       354.788 7       276.45848  -5118824.642 7  -3967381.26848
  20395183.39848        50.800          38.000  
  20329498.602 7      -131.958 7      -102.82449  -3678993.676 7  -2861130.76249
  20329493.54749        49.100          41.900  
  22728758.906 6     -3672.998 6     -2862.07446   7788968.536 6   6053895.03146
  22728755.39546        43.000          26.000  
 08  1 20 20 24 15.0000000  0 10G02G05G06G10G12G16G21G24G29G30   -0.000018581
  23625275.008 5     -3629.263 5     -2827.99546   8964454.183 5   6951136.79846
  23625267.66446        40.700          20.600  
  23841350.203 5     -4070.855 5     -3172.09346  10197835.097 5   7909714.85846
  23841346.82446        41.600          25.600  
  20615747.266 7       790.493 7       615.96848  -6431189.004 7  -4994093.53148
  20615743.35248        49.000          36.300  
  20872616.766 7     -1221.905 7      -952.13348  -1506096.734 7  -1163425.31348
  20872611.59848        48.800          34.900  
  24836684.156 1                                  10787427.42711
                        31.800  
  24588297.133 4      2578.350 4      2009.09945  -4603996.552 4  -3513318.16645
  24588292.68845        37.800          16.300  
  22798616.992 5      2437.532 5      1899.37646  -6240392.749 5  -4755059.99846
  22798611.33646        41.100          26.000  
  20394852.633 7       352.542 7       274.70748  -5120587.352 7  -3968754.80348
  20394848.62148        50.900          38.100  
  20329626.664 7      -134.595 7      -104.87849  -3678320.700 7  -2860606.37249
  20329621.75049        49.800          42.100  
  22732254.766 6     -3674.649 6     -2863.36146   7807341.782 6   6068211.83646
  22732251.53146        43.100          25.300  
 08  1 20 20 24 20.0000000  0 10G02G05G06G10G12G16G21G24G29G30   -0.000017550
  23628729.133 5     -3629.867 5     -2828.47046   8982603.520 5   6965279.14746
  23628721.58246        39.400          20.100  
  23845224.133 5     -4071.355 5     -3172.48546  10218191.873 5   7925577.28246
  23845221.09046        41.700          25.200  
  20614997.602 7       788.124 7       614.12348  -6435129.624 7  -4997164.14648
  20614993.58648        49.400          36.200  
  20873782.766 7     -1225.305 7      -954.78348  -1499970.208 7  -1158651.40048
  20873777.19948        49.500          35.500  
  24840606.016 1     -4120.76311                  10808031.242 1
                        32.200  
  24585844.969 4      2576.521 4      2007.69245  -4616879.155 4  -3523356.62645
  24585841.10545        38.400          16.300  
  22796298.367 5      2436.590 5      1898.64246  -6252575.697 5  -4764553.21046
  22796292.90646        39.900          24.700  
  20394519.398 7       350.359 7       273.00748  -5122339.146 7  -3970119.83748
  20394514.79348        50.800          38.200  
  20329756.938 7      -137.169 7      -106.88549  -3677634.857 7  -2860071.94649
  20329752.69149        50.000          42.300  
  22735752.945 6     -3676.230 6     -2864.59346   7825722.935 6   6082534.80346
  22735749.53946        43.200          25.200  
 08  1 20 20 24 25.0000000  0 10G02G05G06G10G12G16G21G24G29G30   -0.000016520
  23632183.219 5     -3630.513 5     -2828.96546   9000756.087 5   6979423.97146
  23632176.01246        39.400          20.100  
  23849098.141 5     -4071.883 5     -3172.89246  10238551.286 5   7941441.74346
  23849094.86346        42.400          25.800  
  20614250.203 7       785.703 7       612.23548  -6439058.138 7  -5000225.32148
  20614246.02748        48.900          36.200  
  20874951.539 7     -1228.756 7      -957.47248  -1493826.426 7  -1153864.03948
  20874946.42248        48.600          35.500  
  24844526.195 1                                  10828635.72911
                        32.200  
  24583395.281 4      2574.647 4      2006.21345  -4629752.389 4  -3533387.69245
  24583391.19945        37.800          18.300  
  22793980.914 5      2435.594 5      1897.86346  -6264753.665 5  -4774042.52346
  22793975.71146        41.800          25.400  
  20394188.070 7       348.133 7       271.27248  -5124079.810 7  -3971476.19848
  20394183.74648        50.600          38.500  
  20329890.070 7      -139.785 7      -108.92349  -3676935.933 7  -2859527.33049
  20329885.19549        49.800          42.400  
  22739252.617 6     -3677.850 6     -2865.85546   7844112.183 6   6096864.07646
  22739248.57846        42.900          24.500  
 08  1 20 20 24 30.0000000  0 10G02G05G06G10G12G16G21G24G29G30   -0.000015488
  23635637.844 4     -3631.184 4     -2829.49446   9018912.006 4   6993571.44246
  23635630.85246        38.000          19.900  
  23852972.922 5     -4072.433 5     -3173.32346  10258913.453 5   7957308.35846
  23852969.55146        41.800          25.900  
  20613504.859 7       783.283 7       610.35048  -6442974.551 7  -5003277.07148
  20613500.91848        48.100          36.600  
  20876124.211 7     -1232.242 7      -960.19048  -1487665.217 7  -1149063.08848
  20876118.76648        49.000          35.800  
  24848447.695 1     -4121.06111                  10849241.030 1
                        32.400  
  24580948.594 4      2572.754 4      2004.74545  -4642616.160 4  -3543411.41845
  24580943.49245        37.600          16.900  
  22791664.781 5      2434.594 5      1897.08346  -6276926.635 5  -4783527.93746
  22791659.27746        41.700          24.400  
  20393858.742 7       345.896 7       269.52948  -5125809.290 7  -3972823.84348
  20393854.52748        50.500          38.400  
  20330025.719 7      -142.412 7      -110.97049  -3676223.871 7  -2858972.48249
  20330020.76249        49.800          42.600  
  22742753.531 6     -3679.490 6     -2867.13547   7862509.634 6   6111199.75147
  22742749.63347        42.600          27.100  
 08  1 20 20 24 35.0000000  0 10G02G05G06G10G12G16G21G24G29G30   -0.000014458
  23639093.789 4     -3631.919 4     -2830.06346   9037071.600 4   7007721.76046
  23639086.22746        38.100          19.900  
  23856848.273 5     -4073.038 5     -3173.79546  10279278.642 5   7973177.33546
  23856844.51646        41.400          25.600  
  20612761.648 6       780.779 6       608.39948  -6446878.448 6  -5006319.06748
  20612758.05548        47.000          36.600  
  20877299.617 7     -1235.781 7      -962.94548  -1481486.313 7  -1144248.36048
  20877294.66848        48.400          35.800  
  24852367.711 1     -4121.263 1                  10869847.344 1
                        32.200  
  24578500.859 4      2570.792 4      2003.21745  -4655470.123 4  -3553427.50145
  24578497.24245        37.900          16.900  
  22789349.180 5      2433.515 5      1896.24546  -6289094.209 5  -4793009.16446
  22789343.64146        42.000          25.000  
  20393531.664 7       343.585 7       267.72948  -5127527.215 7  -3974162.48748
  20393527.57448        50.900          38.600  
  20330163.781 7      -145.114 7      -113.07649  -3675498.303 7  -2858407.10149
  20330159.25849        48.700          42.800  
  22746256.305 6     -3681.189 6     -2868.45747   7880915.581 6   6125542.03647
  22746252.43447        43.100          26.600  
 08  1 20 20 24 40.0000000  0 10G02G05G06G10G12G16G21G24G29G30   -0.000013426
  23642549.227 4     -3632.599 4     -2830.59546   9055234.594 4   7021874.73746
  23642542.93446        37.600          19.600  
  23860724.516 6     -4073.606 6     -3174.23646  10299646.672 6   7989048.51746
  23860721.02046        42.700          25.600  
  20612021.000 7       778.325 7       606.48648  -6450770.073 7  -5009351.49848
  20612017.22748        48.700          36.300  
  20878478.773 7     -1239.244 7      -965.64448  -1475290.093 7  -1139420.14048
  20878473.86348        49.600          35.700  
  24856289.016 1     -4121.434 1                  10890454.512 1
                        31.200  
  24576056.992 4      2568.879 4      2001.72145  -4668314.518 4  -3563436.10845
  24576053.02745        38.100          16.300  
  22787034.492 5      2432.486 5      1895.44146  -6301256.639 5  -4802486.36946
  22787029.20746        41.500          25.700  
  20393206.914 7       341.321 7       265.96648  -5129233.821 7  -3975492.31648
  20393203.02048        50.800          38.200  
  20330304.383 7      -147.765 7      -115.14049  -3674759.479 7  -2857831.39949
  20330299.54349        49.800          42.500  
  22749760.477 6     -3682.831 6     -2869.73747   7899329.736 6   6139890.72047
  22749756.55947        42.900          27.000  
 08  1 20 20 24 45.0000000  0 10G02G05G06G10G12G16G21G24G29G30   -0.000012394
  23646006.094 4     -3633.043 4     -2830.94346   9073399.809 4   7036029.45146
  23645999.41046        38.400          19.000  
  23864600.945 5     -4073.909 5     -3174.47247  10320016.215 5   8004920.87947
  23864597.07447        41.400          26.600  
  20611282.797 7       776.142 7       604.78648  -6454650.783 7  -5012375.42848
  20611278.94948        48.300          36.300  
  20879660.883 6     -1242.479 6      -968.16548  -1469077.698 6  -1134579.31348
  20879655.77748        46.900          35.500  
  24860209.953 1     -4121.357 1                  10911061.298 1
                        29.400  
  24573614.852 4      2567.204 4      2000.42045  -4681150.535 4  -3573438.20945
  24573610.36345        37.700          17.400  
  22784720.945 5      2431.714 5      1894.84346  -6313415.208 5  -4811960.58346
  22784715.79746        42.000          25.000  
  20392884.016 7       339.310 7       264.39748  -5130930.370 7  -3976814.30248
  20392880.08648        51.100          38.200  
  20330447.164 7      -150.161 7      -117.00949  -3674008.675 7  -2857246.35449
  20330442.53149        48.600          42.500  
  22753265.797 6     -3684.227 6     -2870.82746   7917750.870 6   6154244.85446
  22753261.68446        42.900          25.400  
 08  1 20 20 24 50.0000000  0 10G02G05G06G10G12G16G21G24G29G30   -0.000011362
  23649463.125 4     -3633.696 4     -2831.44646   9091568.289 4   7050186.68046
  23649457.21146        37.900          19.300  
  23868477.172 5     -4074.458 5     -3174.90246  10340388.507 5   8020795.38846
  23868473.74646        42.100          26.200  
  20610546.844 7       773.689 7       602.87448  -6458519.230 7  -5015389.79848
  20610542.59448        48.100          36.800  
  20880846.602 7     -1245.970 7      -970.88548  -1462847.847 7  -1129724.88948
  20880841.43848        48.300          35.300  
  24864129.789 1                                  10931668.86711
                        28.900  
  24571173.953 4      2565.315 4      1998.95245  -4693977.108 4  -3583432.96745
  24571169.94145        37.900          17.800  
  22782408.188 5      2430.692 5      1894.04646  -6325568.668 5  -4821430.81346
  22782403.10946        42.400          26.100  
  20392563.719 7       337.063 7       262.64648  -5132615.684 7  -3978127.53248
  20392559.35948        50.200          38.000  
  20330592.516 7      -152.800 7      -119.06549  -3673244.676 7  -2856651.02849
  20330587.95749        48.900          42.700  
  22756771.711 5     -3685.863 5     -2872.09946   7936180.185 5   6168605.35146
  22756768.15646        42.300          25.300  
 08  1 20 20 24 55.0000000  0 10G02G05G06G10G12G16G21G24G29G30   -0.000010332
  23652920.445 3     -3634.305 3     -2831.92546   9109739.814 3   7064346.30446
  23652915.51646        37.000          19.000  
  23872354.688 6     -4074.926 6     -3175.26546  10360763.139 6   8036671.71146
  23872351.03546        43.900          26.000  
  20609812.820 7       771.314 7       601.02348  -6462375.801 7  -5018394.91548
  20609808.90248        48.000          36.400  
  20882035.391 7     -1249.378 7      -973.54248  -1456600.956 7  -1124857.18148
  20882030.15248        49.400          35.300  
  24868052.141 1                                  10952276.73111
                        28.300  
  24568735.461 4      2563.466 4      1997.50845  -4706794.437 4  -3593420.50945
  24568730.73445        37.600          18.300  
  22780096.344 5      2429.742 5      1893.30446  -6337717.378 5  -4830897.33146
  22780091.19146        42.100          23.300  
  20392245.063 7       334.883 7       260.94948  -5134290.097 7  -3979432.27548
  20392240.80148        50.000          38.200  
  20330740.719 7      -155.372 7      -121.06949  -3672467.817 7  -2856045.68249
  20330736.04349        49.200          42.600  
  22760281.469 6     -3687.411 6     -2873.30646   7954617.238 6   6182971.88046
  22760277.43846        43.100          25.800  
 08  1 20 20 25  0.0000000  0 10G02G05G06G10G12G16G21G24G29G30   -0.000009300
  23656379.609 3     -3634.955 3     -2832.43145   9127914.588 3   7078508.46045
  23656374.15245        36.300          18.600  
  23876231.438 6     -4075.454 6     -3175.67546  10381140.407 6   8052550.08646
  23876228.52346        42.800          25.600  
  20609081.359 7       768.888 7       599.13448  -6466220.241 7  -5021390.58448
  20609077.19948        48.400          36.600  
  20883227.531 7     -1252.819 7      -976.22148  -1450336.861 7  -1119976.07548
  20883222.17248        48.300          35.100  
  24871973.266 1                                                
                        27.300  
  24566297.484 4      2561.568 4      1996.02245  -4719602.276 4  -3603400.62145
  24566293.22745        38.100          18.600  
  22777785.313 5      2428.735 5      1892.52046  -6349861.054 5  -4840359.92946
  22777780.28946        41.800          24.400  
  20391928.625 7       332.650 7       259.20748  -5135953.349 7  -3980728.31148
  20391924.22348        50.600          38.000  
  20330890.906 7      -157.994 7      -123.11349  -3671677.846 7  -2855430.11949
  20330886.15249        49.400          42.700  
  22763791.164 6     -3689.021 6     -2874.56346   7973062.341 6   6197344.69346
  22763786.95746        43.000          24.800  
 08  1 20 20 25  5.0000000  0 10G02G05G06G10G12G16G21G24G29G30   -0.000008268
  23659838.930 4     -3635.552 4     -2832.89445   9146092.350 4   7092672.93045
  23659833.37545        37.500          17.400  
  23880110.164 6     -4075.927 6     -3176.04846  10401520.042 6   8068430.32446
  23880106.86746        42.700          25.800  
  20608352.023 6       766.509 6       597.27948  -6470052.784 6  -5024376.97848
  20608348.14548        47.300          36.600  
  20884422.773 7     -1256.228 7      -978.87948  -1444055.720 7  -1115081.68048
  20884417.19148        48.700          35.200  
  24875897.000 1                                                
                        28.000  
  24563862.781 3      2559.714 3      1994.58646  -4732400.848 3  -3613373.55346
  24563858.08246        37.100          19.300  
  22775475.508 5      2427.779 5      1891.77646  -6361999.949 5  -4849818.80746
  22775470.42246        41.900          24.800  
  20391613.828 7       330.466 7       257.50548  -5137605.678 7  -3982015.83648
  20391609.63748        50.000          38.000  
  20331043.500 7      -160.574 7      -125.12249  -3670874.978 7  -2854804.50749
  20331039.08249        49.100          42.700  
  22767302.359 6     -3690.583 6     -2875.77647   7991515.256 6   6211723.57347
  22767298.65247        42.700          26.900  
 08  1 20 20 25 10.0000000  0 10G02G05G06G10G12G16G21G24G29G30   -0.000007238
  23663298.625 4     -3636.230 4     -2833.42445   9164273.500 4   7106840.04945
  23663293.42645        37.900          17.400  
  23883989.023 5     -4076.465 5     -3176.46346  10421902.366 5   8084312.64146
  23883985.36746        42.400          25.100  
  20607625.328 7       764.054 7       595.36848  -6473873.055 7  -5027353.81948
  20607620.85548        48.300          37.200  
  20885621.203 7     -1259.722 7      -981.60248  -1437757.107 7  -1110173.67148
  20885615.74248        48.700          35.700  
  24879818.797 1                                  11014103.91911
                        28.000  
  24561429.500 3      2557.782 3      1993.08146  -4745189.759 3  -3623338.95946
  24561423.70746        37.300          19.600  
  22773167.148 6      2426.740 6      1890.96446  -6374133.651 6  -4859273.62846
  22773161.35946        42.800          26.200  
  20391301.453 7       328.205 7       255.74448  -5139246.705 7  -3983294.55548
  20391297.14548        49.900          38.300  
  20331198.922 7      -163.229 7      -127.19149  -3670058.831 7  -2854168.55349
  20331194.82449        48.900          43.300  
  22770815.273 6     -3692.218 6     -2877.05446   8009976.346 6   6226108.84446
  22770811.47746        43.400          24.500  
 08  1 20 20 25 15.0000000  0 10G02G05G06G10G12G16G21G24G29G30   -0.000006207
  23666759.000 4     -3636.776 4     -2833.85345   9182457.379 4   7121009.31345
  23666753.69545        38.500          17.400  
  23887868.148 6     -4076.884 6     -3176.79147  10442286.788 6   8100196.59347
  23887864.43047        43.200          26.700  
  20606900.570 7       761.722 7       593.54948  -6477681.666 7  -5030321.56448
  20606896.19148        48.400          36.800  
  20886823.133 7     -1263.057 7      -984.20148  -1431441.820 7  -1105252.66848
  20886817.75848        47.800          35.100  
  24883740.367 1     -4121.95611                  11034713.699 1
                        28.300  
  24558997.000 4      2555.985 4      1991.67646  -4757969.682 4  -3633297.33846
  24558992.00846        37.500          19.000  
  22770858.227 6      2425.838 6      1890.26646  -6386262.841 6  -4868724.95646
  22770853.37946        43.300          24.700  
  20390991.328 7       326.070 7       254.07948  -5140877.055 7  -3984564.95248
  20390987.66848        49.600          37.500  
  20331356.648 7      -165.752 7      -129.15849  -3669230.071 7  -2853522.76449
  20331351.77049        48.900          42.800  
  22774330.023 6     -3693.712 6     -2878.21746   8028444.904 6   6240499.92846
  22774325.71946        43.200          25.300  
 08  1 20 20 25 20.0000000  0 10G02G05G06G10G12G16G21G24G29G30   -0.000005175
  23670219.250 4     -3637.460 4     -2834.38245   9200644.681 4   7135181.22445
  23670214.84845        38.200          16.900  
  23891747.297 6     -4077.429 6     -3177.21846  10462673.933 6   8116082.68446
  23891743.67246        42.600          25.800  
  20606177.906 7       759.244 7       591.61948  -6481477.887 7  -5033279.66048
  20606173.57048        48.100          36.400  
  20888027.977 7     -1266.537 7      -986.91248  -1425109.136 7  -1100318.10548
  20888022.31648        48.200          34.900  
  24887661.297 1                                  11055324.32111
                        26.400  
  24556566.297 4      2554.048 4      1990.16446  -4770739.923 4  -3643248.15646
  24556562.07446        37.400          19.000  
  22768551.359 6      2424.800 6      1889.45046  -6398386.839 6  -4878172.20546
  22768546.38746        43.500          23.900  
  20390682.938 7       323.814 7       252.32248  -5142496.125 7  -3985826.56448
  20390679.20748        49.800          37.600  
  20331516.914 7      -168.422 7      -131.23849  -3668387.961 7  -2852866.57349
  20331512.48049        49.000          42.700  
  22777845.664 6     -3695.344 6     -2879.48746   8046921.627 6   6254897.36246
  22777841.74646        43.200          23.600  
 08  1 20 20 25 25.0000000  0 10G02G05G06G10G12G16G21G24G29G30   -0.000004143
  23673681.617 3     -3637.997 3     -2834.80445   9218834.664 3   7149355.24545
  23673676.53145        37.200          18.300  
  23895627.797 6     -4077.843 6     -3177.53746  10483063.148 6   8131970.36846
  23895623.94146        43.500          24.700  
  20605457.852 7       756.927 7       589.81348  -6485262.521 7  -5036228.72748
  20605453.40248        49.400          36.600  
  20889236.016 7     -1269.897 7      -989.53048  -1418759.650 7  -1095370.45348
  20889231.05548        49.400          34.800  
  24891583.320 1                                  11075934.98711
                        27.300  
  24554137.648 4      2552.239 4      1988.75945  -4783501.116 4  -3653191.95145
  24554133.76645        37.500          18.300  
  22766245.352 6      2423.904 6      1888.76046  -6410506.360 6  -4887616.00346
  22766240.27746        43.000          25.300  
  20390377.258 7       321.680 7       250.66048  -5144104.526 7  -3987079.86248
  20390373.16448        49.300          37.800  
  20331679.617 7      -170.951 7      -133.20849  -3667533.207 7  -2852200.53449
  20331674.86749        48.700          42.600  
  22781363.570 6     -3696.844 6     -2880.66046   8065405.848 6   6269300.66046
  22781359.48046        42.700          24.800  
 08  1 20 20 25 30.0000000  0 10G02G05G06G10G12G16G21G24G29G30   -0.000003111
  23677142.258 3     -3638.614 3     -2835.27545   9237027.732 3   7163531.62145
  23677138.50045        37.000          17.800  
  23899508.102 6     -4078.325 6     -3177.91446  10503454.771 6   8147859.93846
  23899503.91446        43.400          25.700  
  20604739.930 7       754.518 7       587.93648  -6489035.109 7  -5039168.40448
  20604735.49248        48.100          36.500  
  20890447.711 7     -1273.314 7      -992.19348  -1412393.081 7  -1090409.48648
  20890442.77748        49.900          35.000  
  24895504.414 1     -4122.23811                  11096546.177 1
                        27.300  
  24551712.344 4      2550.346 4      1987.28445  -4796252.848 4  -3663128.37045
  24551707.10545        37.900          18.600  
  22763939.719 6      2422.918 6      1887.98746  -6422620.951 6  -4897055.93846
  22763934.85946        42.800          25.200  
  20390072.867 7       319.478 7       248.94348  -5145701.915 7  -3988324.57648
  20390069.04748        49.200          37.500  
  20331844.578 7      -173.557 7      -135.24049  -3666665.421 7  -2851524.33249
  20331840.17649        48.200          42.800  
  22784882.586 6     -3698.400 6     -2881.86646   8083897.847 6   6283709.99146
  22784878.44146        43.100          24.200  
 08  1 20 20 25 35.0000000  0 10G02G05G06G10G12G16G21G24G29G30   -0.000002079
  23680605.961 3     -3639.343 3     -2835.84845   9255224.448 3   7177710.86245
  23680601.41845        36.600          16.300  
  23903389.234 6     -4078.897 6     -3178.35947  10523849.259 6   8163751.73547
  23903385.03947        43.300          26.400  
  20604024.500 7       752.004 7       585.97648  -6492795.127 7  -5042098.28548
  20604020.13748        49.000          36.800  
  20891662.477 7     -1276.816 7      -994.92248  -1406009.003 7  -1085434.87748
  20891657.19548        47.900          35.100  
  24899427.063 1     -4122.395 1                  11117158.149 1
                        26.800  
  24549286.859 3      2548.372 3      1985.74245  -4808994.705 3  -3673057.07845
  24549282.63745        37.200          18.300  
  22761635.023 6      2421.832 6      1887.14046  -6434730.111 6  -4906491.64046
  22761630.18046        43.000          24.500  
  20389771.281 7       317.177 7       247.15248  -5147287.800 7  -3989560.33648
  20389767.50848        49.500          37.400  
  20332012.445 7      -176.262 7      -137.34649  -3665784.112 7  -2850837.60249
  20332008.00049        48.900          42.800  
  22788403.156 6     -3700.063 6     -2883.16446   8102398.162 6   6298125.81146
  22788398.48846        42.800          25.000  
 08  1 20 20 25 40.0000000  0 10G02G05G06G10G12G16G21G24G29G30   -0.000001047
  23684068.688 2     -3639.954 2     -2836.33045   9273424.218 2   7191892.51045
  23684064.89145        34.200          15.600  
  23907270.461 6     -4079.370 6     -3178.73046  10544246.108 6   8179645.38546
  23907266.68446        43.600          24.700  
  20603311.172 7       749.587 7       584.09348  -6496543.061 7  -5045018.74848
  20603307.07048        49.200          36.600  
  20892880.844 7     -1280.229 7      -997.58048  -1399607.855 7  -1080446.97648
  20892875.87148        48.900          35.100  
  24903351.039 1                                  11137770.66511
                        24.600  
  24546863.336 4      2546.487 4      1984.27046  -4821727.140 4  -3682978.43046
  24546859.19146        37.800          19.000  
  22759332.094 6      2420.852 6      1886.37846  -6446834.371 6  -4915923.52846
  22759326.93046        43.500          25.200  
  20389471.531 7       314.975 7       245.43448  -5148862.674 7  -3990787.50448
  20389467.35948        49.700          37.400  
  20332182.594 7      -178.861 7      -139.37249  -3664889.810 7  -2850140.73949
  20332178.14549        49.100          42.700  
  22791924.914 6     -3701.622 6     -2884.38247   8120906.270 6   6312547.71947
  22791920.79347        42.500          26.400  
 08  1 20 20 25 45.0000000  0  9G02G05G06G10G16G21G24G29G30   -0.000000015
  23687532.547 2                                   9291627.158 2   7206076.57145
  23687528.90245        34.200          15.600  
  23911152.305 6     -4079.874 6     -3179.12146  10564645.479 6   8195540.98946
  23911148.55546        43.700          26.200  
  20602600.523 7       747.147 7       582.19448  -6500278.798 7  -5047929.71948
  20602595.84048        48.500          37.000  
  20894102.336 7                     -1000.27048  -1393189.452 7  -1075445.62648
  20894097.32848        48.800          35.700  
  24544443.203 4      2544.560 4      1982.77246  -4834449.939 4  -3692892.29046
  24544438.85546        37.900          19.000  
  22757029.594 6      2419.833 6      1885.58446  -6458933.534 6  -4925351.44846
  22757024.79346        43.100          26.200  
  20389173.906 7                                  -5150426.386 7  -3992005.97848
  20389170.30548        49.800          38.000  
  20332355.242 7      -181.493 7      -141.42349  -3663982.343 7  -2849433.62449
  20332350.76249        49.000          43.000  
  22795448.180 6     -3703.212 6     -2885.61646   8139422.331 6   6326975.79946
  22795444.23046        43.600          25.300  
 08  1 20 20 25 50.0000000  0  9G02G05G06G10G16G21G24G29G30    0.000001019
  23690997.047 1     -3641.252 1     -2837.33445   9309833.418 1   7220263.24045
  23690993.25045        33.400          15.600  
  23915034.656 6     -4080.387 6     -3179.52046  10585047.413 6   8211438.59146
  23915031.05946        43.000          24.200  
  20601891.867 7       744.696 7       580.28148  -6504002.278 7  -5050831.12448
  20601887.43448        48.600          36.600  
  20895326.867 6     -1287.133 6     -1002.96148  -1386753.786 6  -1070430.82148
  20895321.91448        46.700          35.300  
  24542023.484 4      2542.645 4      1981.28446  -4847163.162 4  -3702798.70846
  24542018.94946        38.700          19.600  
  22754728.453 6      2418.815 6      1884.79146  -6471027.611 6  -4934775.40446
  22754723.68046        43.400          25.100  
  20388878.453 7       310.494 7       241.94448  -5151978.854 7  -3993215.69648
  20388874.56648        49.900          37.600  
  20332530.203 7      -184.138 7      -143.48449  -3663061.650 7  -2848716.20649
  20332525.85549        48.300          42.500  
  22798973.117 6     -3704.799 6     -2886.85646   8157946.328 6   6341410.07946
  22798969.55946        43.600          25.500  
 08  1 20 20 25 55.0000000  0  9G02G05G06G10G16G21G24G29G30    0.000002050
  23694463.047 1     -3641.883 1     -2837.82845   9328042.833 1   7234452.37945
  23694458.60245        33.400          16.300  
  23918917.234 6     -4080.870 6     -3179.89846  10605451.765 6   8227338.08146
  23918914.10946        42.800          26.200  
  20601185.672 7       742.260 7       578.38448  -6507713.577 7  -5053723.04448
  20601181.19548        48.000          36.700  
  20896554.563 6     -1290.568 6     -1005.63948  -1380300.946 6  -1065402.62748
  20896549.77048        47.400          35.300  
  24539605.875 4      2540.718 4      1979.78046  -4859866.750 4  -3712697.60646
  24539601.45746        39.000          20.600  
  22752428.078 6      2417.807 6      1884.00546  -6483116.645 6  -4944195.43046
  22752423.05946        43.200          25.400  
  20388585.266 7       308.268 7       240.20848  -5153520.193 7  -3994416.73648
  20388581.46948        49.700          37.500  
  20332707.961 7      -186.770 7      -145.53649  -3662127.801 7  -2847988.52749
  20332703.58649        48.800          42.500  
  22802500.203 5     -3706.379 5     -2888.08746   8176478.224 5   6355850.51646
  22802496.10246        42.100          25.600  
 08  1 20 20 26  0.0000000  0  9G02G05G06G10G16G21G24G29G30    0.000003084
  23697929.359 1     -3642.439 1     -2838.26845   9346255.027 1   7248643.72045
  23697924.69945        33.800          16.900  
  23922800.500 6     -4081.284 6     -3180.21746  10625858.185 6   8243239.16646
  23922796.50846        42.900          24.700  
  20600481.742 7       739.898 7       576.54448  -6511413.066 7  -5056605.76348
  20600477.28948        47.600          36.500  
  20897785.859 7     -1293.939 7     -1008.26348  -1373831.253 7  -1060361.31348
  20897780.98048        48.100          35.500  
  24537190.648 5      2538.866 5      1978.33746  -4872561.079 5  -3722589.29246
  24537186.00446        39.200          20.100  
  22750128.367 6      2416.869 6      1883.27746  -6495200.989 6  -4953611.81346
  22750123.31346        44.200          24.800  
  20388293.883 7       306.111 7       238.52748  -5155050.750 7  -3995609.37148
  20388290.11748        50.100          37.700  
  20332888.258 7      -189.321 7      -147.52349  -3661181.195 7  -2847250.91049
  20332883.88349        48.500          42.500  
  22806027.805 6     -3707.876 6     -2889.25046   8195017.604 6   6370296.76446
  22806023.56346        43.300          25.400  
 08  1 20 20 26  5.0000000  0  9G02G05G06G10G16G21G24G29G30    0.000004116
  23701395.563 2     -3643.118 2     -2838.78145   9364470.618 2   7262837.62345
  23701391.36745        34.100          15.600  
  23926684.320 6     -4081.840 6     -3180.65546  10646267.384 6   8259142.44146
  23926680.92646        42.600          26.000  
  20599779.773 7       737.380 7       574.58348  -6515099.965 7  -5059478.67648
  20599775.80548        48.200          36.200  
  20899020.180 7     -1297.437 7     -1010.99148  -1367344.066 7  -1055306.35648
  20899015.77048        48.900          35.100  
  24534777.086 5      2536.876 5      1976.78446  -4885245.458 5  -3732473.21446
  24534771.96946        39.800          20.100  
  22747829.797 6      2415.793 6      1882.43446  -6507279.954 6  -4963023.98346
  22747824.71546        44.600          25.600  
  20388004.742 7       303.820 7       236.74348  -5156569.848 7  -3996793.08848
  20388001.44148        49.300          37.500  
  20333070.781 7      -192.023 7      -149.62849  -3660221.082 7  -2846502.77249
  20333066.32849        49.200          42.600  
  22809557.742 6     -3709.505 6     -2890.52446   8213565.129 6   6384749.38246
  22809553.59846        42.800          24.800  
 08  1 20 20 26 10.0000000  0  9G02G05G06G10G16G21G24G29G30    0.000005150
  23704863.102 1     -3643.849 1     -2839.37545   9382689.864 1   7277034.50045
  23704857.78545        33.600          15.600  
  23930568.328 6     -4082.398 6     -3181.08646  10666679.375 6   8275047.87346
  23930565.03146        42.600          24.500  
  20599080.523 7       734.863 7       572.61948  -6518774.279 7  -5062341.77048
  20599076.21148        49.700          36.300  
  20900257.805 7     -1300.955 7     -1013.73048  -1360839.290 7  -1050237.70648
  20900253.44148        48.500          35.200  
  24532365.539 5      2534.869 5      1975.22846  -4897919.802 5  -3742349.35346
  24532360.12146        40.200          19.600  
  22745532.234 6      2414.701 6      1881.58746  -6519353.460 6  -4972431.91946
  22745527.46146        43.700          25.700  
  20387717.844 7       301.512 7       234.94248  -5158077.405 7  -3997967.79748
  20387714.42648        48.900          37.700  
  20333256.188 7      -194.735 7      -151.74249  -3659247.408 7  -2845744.06349
  20333251.41849        48.700          42.500  
  22813088.633 6     -3711.156 6     -2891.80747   8232120.906 6   6399208.41847
  22813084.70347        43.500          27.300  
 08  1 20 20 26 15.0000000  0  9G02G05G06G10G16G21G24G29G30    0.000006184
  23708330.555 1     -3644.389 1     -2839.77845   9400911.811 1   7291233.39245
  23708325.55945        33.300          15.600  
  23934453.172 6     -4082.804 6     -3181.40546  10687093.397 6   8290954.89946
  23934450.16046        43.200          25.400  
  20598383.672 7       732.495 7       570.77748  -6522436.755 7  -5065195.65448
  20598379.48848        47.900          36.700  
  20901499.203 7     -1304.302 7     -1016.33948  -1354317.777 7  -1045156.01048
  20901494.36348        49.800          35.600  
  24529955.133 5      2533.016 5      1973.77946  -4910584.884 5  -3752218.24746
  24529950.42246        40.500          19.900  
  22743235.406 6      2413.772 6      1880.86047  -6531422.319 6  -4981836.21847
  22743231.13347        44.000          26.500  
  20387433.328 7       299.367 7       233.27348  -5159574.241 7  -3999134.16148
  20387429.38348        49.600          37.600  
  20333443.828 7      -197.290 7      -153.73349  -3658260.958 7  -2844975.39849
  20333439.05549        48.600          42.500  
  22816620.914 6     -3712.645 6     -2892.96947   8250684.131 6   6413673.26147
  22816617.20747        43.400          26.500  
 08  1 20 20 26 20.0000000  0 10G02G05G06G10G16G21G24G26G29G30    0.000007219
  23711798.070 2                                   9419136.891 2   7305434.72445
  23711793.69145        34.000          15.600  
  23938338.609 6                                  10707509.771 6   8306863.74846
  23938335.21946        42.900          24.300  
  20597689.273 7                                  -6526087.056 7  -5068040.04748
  20597684.52748        48.300          36.600  
  20902743.656 7                                  -1347779.130 7  -1040060.96248
  20902738.80948        48.700          35.600  
  24527547.211 5                                  -4923240.355 5  -3762079.66346
  24527542.07046        40.900          19.600  
  22740939.492 6      2412.779 6      1880.08546  -6543486.212 6  -4991236.64346
  22740935.00046        44.300          26.200  
  20387150.547 7                       231.54148  -5161059.961 7  -4000291.86848
  20387146.42248        49.100          37.500  
  24910344.563 4                                  -1695687.51914  -1277035.33155
  24910341.78145        37.700          18.300  
  20333634.008 7                                  -3657261.379 7  -2844196.50549
  20333629.30549        48.500          42.600  
  22820155.289 6                                   8269255.083 6   6428144.12246
  22820151.07046        43.700          25.800  
 08  1 20 20 26 25.0000000  0 10G02G05G06G10G16G21G24G26G29G30    0.000008253
  23715267.305 1     -3645.649 1     -2840.77145   9437365.134 1   7319638.58145
  23715261.71545        33.400          16.300  
  23942223.891 6     -4083.751 6     -3182.14346  10727928.525 6   8322774.46346
  23942220.66846        42.900          25.600  
  20596997.133 6       727.607 6       566.96848  -6529725.093 6  -5070874.88848
  20596992.14548        47.300          37.000  
  20903990.867 7     -1311.151 7     -1021.67448  -1341223.375 7  -1034952.59248
  20903985.85548        49.000          35.400  
  24525140.875 5      2529.147 5      1970.76746  -4935886.093 5  -3771933.49746
  24525135.86346        40.900          19.900  
  22738645.195 6      2411.761 6      1879.29347  -6555545.016 6  -5000633.10647
  22738640.09847        44.700          27.300  
  20386869.758 7       294.913 7       229.80148  -5162534.526 7  -4001440.87248
  20386866.00448        49.600          37.900  
  24907003.766 4      3511.07414      2735.89955  -1713242.889 4  -1290714.82645
  24907001.13345        38.200          16.900  
  20333826.578 7      -202.561 7      -157.83949  -3656248.575 7  -2843407.30849
  20333822.07049        48.400          42.700  
  22823690.672 6     -3715.756 6     -2895.39647   8287833.861 6   6442621.10047
  22823686.60547        43.400          26.800  
 08  1 20 20 26 30.0000000  0 10G02G05G06G10G16G21G24G26G29G30    0.000009287
  23718736.227 1     -3646.212 1     -2841.19245   9455596.192 1   7333844.54345
  23718730.79345        33.300          15.600  
  23946109.586 6     -4084.144 6     -3182.45146  10748349.246 6   8338686.71946
  23946106.78146        42.500          23.800  
  20596306.859 7       725.246 7       565.12748  -6533351.321 7  -5073700.52148
  20596302.58248        47.900          37.200  
  20905241.617 7     -1314.512 7     -1024.29648  -1334650.813 7  -1029831.11048
  20905236.76248        49.000          35.900  
  24522736.031 5      2527.285 5      1969.31046  -4948522.519 5  -3781780.04846
  24522730.88346        41.100          20.600  
  22736351.063 6      2410.818 6      1878.56147  -6567599.105 6  -5010025.91247
  22736346.53947        45.300          27.300  
  20386590.984 7       292.760 7       228.12548  -5163998.327 7  -4002581.49548
  20386587.53148        49.700          38.100  
  24903663.211 4      3510.986 4      2735.82446  -1730797.816 4  -1304393.94546
  24903660.34046        39.000          19.000  
  20334022.000 7      -205.119 7      -159.83349  -3655222.979 7  -2842608.14149
  20334017.37549        48.800          42.800  
  22827227.141 6     -3717.235 6     -2896.54547   8306420.037 6   6457103.82347
  22827223.32047        43.500          27.000  
 08  1 20 20 26 35.0000000  0 10G02G05G06G10G16G21G24G26G29G30    0.000010319
  23722206.477 2     -3646.811 2     -2841.67245   9473830.246 2   7348052.90145
  23722200.49245        34.200          15.600  
  23949996.125 5     -4084.590 5     -3182.79646  10768772.198 5   8354600.69746
  23949992.88746        42.100          24.400  
  20595619.336 7       722.821 7       563.23748  -6536965.427 7  -5076516.70548
  20595614.62948        48.300          37.200  
  20906495.383 7     -1317.910 7     -1026.94348  -1328061.262 7  -1024696.39648
  20906490.05948        49.300          35.300  
  24520332.852 5      2525.389 5      1967.83846  -4961149.462 5  -3791619.23846
  24520328.78546        40.500          22.000  
  22734058.469 6      2409.836 6      1877.79347  -6579648.285 6  -5019414.87647
  22734053.99247        44.900          28.000  
  20386314.828 7       290.566 7       226.41548  -5165451.159 7  -4003713.57248
  20386311.31648        49.800          38.000  
  24900322.266 5      3510.862 5      2735.74146  -1748352.124 5  -1318072.65246
  24900320.63746        39.400          19.000  
  20334219.602 7      -207.727 7      -161.86649  -3654184.344 7  -2841798.81249
  20334215.52749        48.900          42.600  
  22830765.266 6     -3718.763 6     -2897.73647   8325013.854 6   6471592.50547
  22830761.36747        44.300          27.700  
 08  1 20 20 26 40.0000000  0 10G02G05G06G10G16G21G24G26G29G30    0.000011353
  23725677.781 2     -3647.437 2     -2842.15645   9492067.430 2   7362263.68145
  23725670.85945        34.800          16.300  
  23953882.758 5     -4085.073 5     -3183.16946  10789197.561 5   8370516.54546
  23953879.75846        42.300          25.100  
  20594933.828 7       720.357 7       561.31848  -6540567.210 7  -5079323.29348
  20594929.19548        48.900          36.900  
  20907752.750 7     -1321.327 7     -1029.60448  -1321454.628 7  -1019548.37448
  20907747.62948        49.700          35.500  
  24517932.805 5      2523.436 5      1966.31446  -4973766.644 5  -3801450.80846
  24517927.96546        40.200          22.000  
  22731766.477 6      2408.806 6      1876.99047  -6591692.317 6  -5028799.82847
  22731761.39547        44.500          28.200  
  20386040.477 7       288.331 7       224.67348  -5166892.816 7  -4004836.93848
  20386036.73448        49.600          37.900  
  24896981.789 5      3510.679 5      2735.58546  -1765905.521 5  -1331750.57746
  24896980.08246        39.300          19.300  
  20334419.727 7      -210.375 7      -163.92749  -3653132.469 7  -2840979.17849
  20334415.24649        49.200          42.600  
  22834305.898 6     -3720.325 6     -2898.95547   8343615.479 6   6486087.27847
  22834301.30147        43.900          27.100  
 08  1 20 20 26 45.0000000  0 10G02G05G06G10G16G21G24G26G29G30    0.000012388
  23729147.852 2     -3648.231 2     -2842.77845   9510308.583 2   7376477.57045
  23729141.99645        33.900          16.900  
  23957770.211 5     -4085.704 5     -3183.66546  10809626.078 5   8386434.87046
  23957767.37946        41.100          24.800  
  20594250.820 7       717.744 7       559.28148  -6544155.932 7  -5082119.69748
  20594246.26248        49.200          36.700  
  20909013.289 7     -1324.928 7     -1032.41248  -1314829.985 7  -1014386.31548
  20909008.21948        49.100          35.100  
  24515533.383 5      2521.325 5      1964.66546  -4986373.268 5  -3811274.13446
  24515528.31346        41.000          22.800  
  22729475.875 6      2407.625 6      1876.07247  -6603730.445 6  -5038180.18947
  22729470.71547        44.700          27.400  
  20385768.258 7       285.947 7       222.81548  -5168322.553 7  -4005951.01548
  20385764.38748        49.700          37.600  
  24893641.211 5      3510.341 5      2735.32646  -1783457.227 5  -1345427.20646
  24893639.68846        40.000          19.300  
  20334622.344 7      -213.176 7      -166.11349  -3652066.588 7  -2840148.61549
  20334618.04349        49.200          42.400  
  22837847.266 6     -3722.033 6     -2900.28347   8362225.645 6   6500588.69347
  22837843.09447        44.500          28.400  
 08  1 20 20 26 50.0000000  0 10G02G05G06G10G16G21G24G26G29G30    0.000013422
  23732620.211 1     -3648.842 1     -2843.25345   9528552.792 1   7390693.83745
  23732613.52345        33.700          15.600  
  23961657.961 5     -4086.161 5     -3184.02146  10830056.884 5   8402354.97346
  23961655.06646        42.100          25.800  
  20593570.391 7       715.290 7       557.36948  -6547732.383 7  -5084906.54148
  20593566.06648        49.100          36.800  
  20910277.211 7     -1328.339 7     -1035.07048  -1308188.288 7  -1009210.96648
  20910272.00848        48.800          35.300  
  24513136.250 5      2519.367 5      1963.15046  -4998970.104 5  -3821089.88646
  24513131.16846        40.900          22.900  
  22727186.195 6      2406.611 6      1875.28347  -6615763.499 6  -5047556.60547
  22727181.01647        44.300          27.000  
  20385498.422 7       283.724 7       221.08448  -5169741.172 7  -4007056.43448
  20385495.00048        49.900          37.800  
  24890301.641 5      3510.169 5      2735.19446  -1801008.074 5  -1359103.17546
  24890299.45746        40.000          19.600  
  20334828.094 7      -215.811 7      -168.16549  -3650987.532 7  -2839307.79249
  20334823.32449        48.900          42.300  
  22841389.836 6     -3723.570 6     -2901.48447   8380843.495 6   6515096.11247
  22841385.72747        44.300          26.800  
 08  1 20 20 26 55.0000000  0 10G02G05G06G10G16G21G24G26G29G30    0.000014458
  23736091.930 2     -3649.433 2     -2843.71245   9546799.959 2   7404912.39745
  23736085.46545        34.800          16.300  
  23965546.469 5     -4086.591 5     -3184.35346  10850489.838 5   8418276.73646
  23965543.17246        42.200          26.100  
  20592891.883 7       712.881 7       555.49148  -6551296.786 7  -5087683.99848
  20592887.39148        48.100          37.100  
  20911544.383 7     -1331.737 7     -1037.71648  -1301529.604 7  -1004022.38448
  20911539.14148        47.600          34.900  
  24510740.523 5      2517.458 5      1961.65046  -5011557.391 5  -3830898.13846
  24510736.22346        39.300          25.600  
  22724897.531 6      2405.631 6      1874.51547  -6627791.654 6  -5056929.18147
  22724892.18047        44.300          27.500  
  20385230.438 7       281.532 7       219.37548  -5171148.832 7  -4008153.30748
  20385226.71948        50.000          37.700  
  24886962.000 5      3510.017 5      2735.07646  -1818558.159 5  -1372778.55746
  24886960.02346        40.800          19.300  
  20335035.852 7      -218.417 7      -170.19449  -3649895.447 7  -2838456.82149
  20335030.90249        48.500          42.400  
  22844933.969 6     -3725.083 6     -2902.66147   8399468.909 6   6529609.41647
  22844930.07447        43.700          26.400  
 08  1 20 20 27  0.0000000  0 10G02G05G06G10G16G21G24G26G29G30    0.000015491
  23739564.625 2     -3650.030 2     -2844.18245   9565050.110 2   7419133.30645
  23739558.31645        34.000          15.600  
  23969434.695 6     -4087.033 6     -3184.70146  10870925.002 6   8434200.24346
  23969431.96946        42.500          24.200  
  20592216.102 7       710.438 7       553.58948  -6554848.978 7  -5090451.94048
  20592211.23448        49.300          37.000  
  20912814.563 7     -1335.143 7     -1040.37248  -1294853.889 7   -998820.52448
  20912809.63348        48.000          34.900  
  24508347.672 5      2515.528 5      1960.15246  -5024135.030 5  -3840698.89746
  24508342.80546        40.500          24.700  
  22722609.328 6      2404.625 6      1873.73647  -6639814.776 6  -5066297.86147
  22722604.41047        44.300          27.400  
  20384964.875 7       279.318 7       217.65048  -5172545.420 7  -4009241.55948
  20384961.25448        49.500          37.500  
  24883622.727 5      3509.856 5      2734.95046  -1836107.439 5  -1386453.30846
  24883620.56346        40.200          19.600  
  20335246.297 7      -221.037 7      -172.23749  -3648790.264 7  -2837595.63649
  20335241.56649        49.200          42.400  
  22848479.648 6     -3726.598 6     -2903.84347   8418101.899 6   6544128.63047
  22848475.99647        44.100          27.100  
 08  1 20 20 27  5.0000000  0 10G02G05G06G10G16G21G24G26G29G30    0.000016527
  23743038.156 2     -3650.742 2     -2844.73845   9583303.818 2   7433356.99745
  23743031.94545        34.900          16.300  
  23973324.555 6     -4087.564 6     -3185.11346  10891362.822 6   8450125.80846
  23973320.68446        42.700          25.100  
  20591542.781 7       707.890 7       551.60248  -6558388.429 7  -5093209.95048
  20591538.14548        48.100          37.100  
  20914088.555 7     -1338.645 7     -1043.10048  -1288160.663 7   -993605.02248
  20914083.46548        48.300          34.900  
  24505956.000 5      2513.486 5      1958.55646  -5036702.460 5  -3850491.68046
  24505951.54746        41.200          22.800  
  22720322.477 6      2403.522 6      1872.87347  -6651832.386 6  -5075662.22647
  22720317.66047        45.000          28.200  
  20384701.086 7       277.009 7       215.85248  -5173930.467 7  -4010320.81848
  20384697.44548        49.600          37.700  
  24880283.203 5      3509.597 5      2734.74946  -1853655.424 5  -1400127.05046
  24880280.65246        40.700          19.300  
  20335459.164 7      -223.763 7      -174.36049  -3647671.446 7  -2836723.83449
  20335454.23849        49.500          42.400  
  22852026.758 6     -3728.215 6     -2905.10147   8436742.977 6   6558654.13747
  22852023.44547        44.400          27.900  
 08  1 20 20 27 10.0000000  0 10G02G05G06G10G16G21G24G26G29G30    0.000017561
  23746512.836 2     -3651.372 2     -2845.22245   9601560.679 2   7447583.10945
  23746506.03145        35.300          17.800  
  23977213.609 6     -4088.038 6     -3185.48446  10911803.011 6   8466053.22646
  23977210.72346        42.600          23.900  
  20590871.219 7       705.424 7       549.68148  -6561915.549 7  -5095958.35748
  20590866.84848        48.100          37.400  
  20915365.266 6     -1342.063 6     -1045.76348  -1281450.347 6   -988376.20748
  20915360.35248        47.500          34.800  
  24503566.273 5      2511.518 5      1957.02846  -5049260.051 5  -3860276.82146
  24503561.61746        42.000          23.800  
  22718036.391 6      2402.482 6      1872.06347  -6663844.795 6  -5085022.53947
  22718031.10547        44.800          27.700  
  20384439.750 7       274.774 7       214.10948  -5175304.339 7  -4011391.36148
  20384435.98848        49.800          37.600  
  24876944.594 5      3509.390 5      2734.58846  -1871202.375 5  -1413799.98846
  24876942.00446        40.600          19.000  
  20335674.555 7      -226.412 7      -176.42449  -3646539.389 7  -2835841.71349
  20335669.52749        48.800          42.200  
  22855575.430 6     -3729.762 6     -2906.30647   8455391.785 6   6573185.66947
  22855571.84447        44.600          27.800  
 08  1 20 20 27 15.0000000  0 10G02G05G06G10G16G21G24G26G29G30    0.000018597
  23749987.773 3     -3652.116 3     -2845.80345   9619821.257 3   7461812.12445
  23749981.13745        36.500          17.800  
  23981103.836 5     -4088.609 5     -3185.92846  10932246.057 5   8481982.86846
  23981101.03146        42.400          22.500  
  20590203.297 7       702.839 7       547.66848  -6565429.742 7  -5098696.69848
  20590197.96548        47.800          37.500  
  20916645.406 6     -1345.620 6     -1048.53548  -1274722.246 6   -983133.53448
  20916640.43048        47.100          35.100  
  24501178.375 5      2509.421 5      1955.39346  -5061807.156 5  -3870053.78846
  24501174.19946        41.400          22.800  
  22715751.852 6      2401.342 6      1871.17447  -6675851.506 6  -5094378.41147
  22715746.83247        44.800          27.700  
  20384180.375 7       272.417 7       212.27248  -5176666.423 7  -4012452.72448
  20384176.82448        50.000          38.000  
  24873605.852 5      3509.073 5      2734.34146  -1888747.741 5  -1427471.69246
  24873602.96146        42.000          19.000  
  20335892.648 7      -229.188 7      -178.58849  -3645393.450 7  -2834948.77249
  20335887.43849        48.600          42.400  
  22859125.766 6     -3731.428 6     -2907.60847   8474048.926 6   6587723.70847
  22859122.03547        44.700          27.200  
 08  1 20 20 27 20.0000000  0 10G02G05G06G10G16G21G24G26G29G30    0.000019634
  23753462.859 2     -3652.803 2     -2846.33345   9638085.273 2   7476043.79045
  23753456.50845        35.600          17.400  
  23984994.328 5     -4089.127 5     -3186.33246  10952691.692 5   8497914.52646
  23984991.86346        42.100          22.500  
  20589536.438 7       700.323 7       545.70648  -6568931.359 7  -5101425.22848
  20589532.01648        49.100          37.300  
  20917929.141 7     -1349.098 7     -1051.24548  -1267976.755 7   -977877.30848
  20917924.27748        48.000          34.900  
  24498793.250 5      2507.398 5      1953.81646  -5074344.147 5  -3879822.86946
  24498788.53946        41.400          24.700  
  22713468.180 6      2400.248 6      1870.32347  -6687852.747 6  -5103730.02747
  22713463.15247        45.400          27.800  
  20383923.734 7       270.125 7       210.48848  -5178017.049 7  -4013505.16148
  20383919.91048        50.000          37.800  
  24870267.469 5      3508.794 5      2734.12346  -1906291.714 5  -1441142.30846
  24870263.98046        41.700          19.900  
  20336113.289 7      -231.900 7      -180.70149  -3644233.952 7  -2834045.26949
  20336108.50449        49.100          42.100  
  22862677.797 6     -3733.022 6     -2908.84747   8492714.036 6   6602267.94447
  22862674.22747        44.900          27.600  
 08  1 20 20 27 25.0000000  0 10G02G05G06G10G16G21G24G26G29G30    0.000020670
  23756939.023 2     -3653.419 2     -2846.82245   9656352.370 2   7490277.89745
  23756933.25445        35.500          16.300  
  23988885.586 6     -4089.580 6     -3186.68446  10973139.593 6   8513847.94646
  23988882.96546        42.600          21.800  
  20588872.281 7       697.848 7       543.77948  -6572420.602 7  -5104144.12248
  20588867.83248        49.600          37.600  
  20919216.297 7     -1352.512 7     -1053.90648  -1261214.195 7   -972607.77548
  20919211.54348        47.900          34.700  
  24496409.586 5      2505.426 5      1952.28146  -5086871.275 5  -3889584.27546
  24496404.44946        41.800          24.000  
  22711185.336 6      2399.226 6      1869.52747  -6699848.878 6  -5113077.66047
  22711179.89147        45.300          28.100  
  20383668.641 7       267.893 7       208.74648  -5179356.513 7  -4014548.88948
  20383665.31648        49.600          38.000  
  24866929.219 5      3508.595 5      2733.96446  -1923834.689 5  -1454812.12946
  24866925.43846        41.900          19.900  
  20336336.477 7      -234.552 7      -182.76849  -3643061.191 7  -2833131.43149
  20336331.26649        49.100          42.100  
  22866231.078 6     -3734.551 6     -2910.03947   8511386.793 6   6616818.14047
  22866227.41847        45.000          27.900  
 08  1 20 20 27 30.0000000  0 10G02G05G06G10G16G21G24G26G29G30    0.000021708
  23760415.688 2     -3654.156 2     -2847.39345   9674623.148 2   7504514.86145
  23760410.05945        35.500          16.300  
  23992777.492 5     -4090.133 5     -3187.11446  10993590.258 5   8529783.51746
  23992774.89546        42.000          22.900  
  20588211.047 7       695.264 7       541.76448  -6575896.924 7  -5106852.94448
  20588206.62948        48.300          37.800  
  20920506.367 7     -1356.038 7     -1056.65148  -1254434.007 7   -967324.51948
  20920501.76648        48.600          34.700  
  24494027.805 5      2503.344 5      1950.65646  -5099387.995 5  -3899337.55546
  24494022.15646        41.700          22.800  
  22708903.859 6      2398.086 6      1868.63947  -6711839.311 6  -5122420.85547
  22708898.60247        45.900          27.900  
  20383415.867 7       265.551 7       206.92348  -5180684.266 7  -4015583.50548
  20383412.69548        50.100          38.000  
  24863591.352 5      3508.288 5      2733.72746  -1941376.129 5  -1468480.76446
  24863587.62946        42.300          21.100  
  20336562.141 7      -237.301 7      -184.91149  -3641874.686 7  -2832206.87849
  20336557.06649        48.800          42.100  
  22869786.148 6     -3736.189 6     -2911.31647   8530067.737 6   6631374.71847
  22869782.38747        45.800          28.400  
 08  1 20 20 27 35.0000000  0 10G02G05G06G10G16G21G24G26G29G30    0.000022745
  23763893.430 2     -3654.851 2     -2847.92645   9692897.401 2   7518754.48945
  23763887.23045        35.400          16.300  
  23996669.820 6     -4090.667 6     -3187.53246  11014043.594 6   8545721.17646
  23996667.12946        42.600          23.000  
  20587551.883 7       692.706 7       539.77248  -6579360.453 7  -5109551.80548
  20587547.64548        47.700          37.500  
  20921799.836 6     -1359.531 6     -1059.37548  -1247636.354 6   -962027.64348
  20921794.80148        47.400          34.600  
  24491647.617 5      2501.302 5      1949.06846  -5111894.503 5  -3909082.89346
  24491642.84046        40.900          22.800  
  22706622.883 6      2396.982 6      1867.78047  -6723824.219 6  -5131759.75347
  22706617.61747        45.000          27.100  
  20383165.867 7       263.245 7       205.12648  -5182000.491 7  -4016609.13548
  20383162.09048        49.900          38.200  
  24860253.383 5      3507.988 5      2733.49746  -1958916.069 5  -1482148.24846
  24860249.88746        42.000          20.600  
  20336790.789 7      -240.033 7      -187.03749  -3640674.521 7  -2831271.69349
  20336785.70349        48.500          42.100  
  22873342.508 6     -3737.784 6     -2912.55547   8548756.657 6   6645937.49547
  22873339.13747        45.500          27.900  
 08  1 20 20 27 40.0000000  0 10G02G05G06G10G16G21G24G26G29G30    0.000023783
  23767371.578 2     -3655.549 2     -2848.47745   9711175.146 2   7532996.87445
  23767365.38745        34.300          16.300  
  24000562.063 5     -4091.170 5     -3187.92146  11034499.443 5   8561660.78346
  24000559.29746        42.400          22.900  
  20586895.391 7       690.183 7       537.80548  -6582811.369 7  -5112240.83048
  20586891.07848        48.800          37.900  
  20923096.797 7     -1363.007 7     -1062.08348  -1240821.320 7   -956717.22848
  20923091.78148        47.900          35.000  
  24489269.719 5      2499.263 5      1947.47346  -5124390.817 5  -3918820.25946
  24489265.01646        39.500          22.800  
  22704343.625 6      2395.891 6      1866.92447  -6735803.672 6  -5141094.37447
  22704337.78147        45.300          28.400  
  20382916.711 7       260.948 7       203.33548  -5183305.229 7  -4017625.81048
  20382913.75848        50.200          38.200  
  24856916.258 6      3507.715 6      2733.27646  -1976454.643 6  -1495814.62646
  24856912.49646        43.100          21.700  
  20337021.633 7      -242.743 7      -189.15149  -3639460.805 7  -2830325.93749
  20337016.62949        48.900          42.100  
  22876900.445 6     -3739.369 6     -2913.79547   8567453.504 6   6660506.47247
  22876896.78947        45.600          28.000  
 08  1 20 20 27 45.0000000  0 10G02G05G06G10G16G21G24G26G29G30    0.000024820
  23770850.664 2     -3655.991 2     -2848.83245   9729455.103 2   7547241.03145
  23770843.82045        34.500          16.300  
  24004454.844 5     -4091.449 5     -3188.14446  11054956.687 5   8577601.50546
  24004452.27746        42.200          22.600  
  20586240.992 7       687.865 7       535.99848  -6586250.692 7  -5114920.81848
  20586236.21948        49.000          37.700  
  20924396.984 7     -1366.261 7     -1064.61948  -1233990.014 7   -951394.13348
  20924391.80548        47.800          34.600  
  24486893.430 5      2497.445 5      1946.05946  -5136878.044 5  -3928550.55646
  24486888.47746        39.900          23.800  
  22702064.758 6      2395.013 6      1866.24647  -6747778.735 6  -5150425.60447
  22702059.41847        45.500          28.600  
  20382670.992 7       258.879 7       201.72448  -5184599.625 7  -4018634.43048
  20382667.40648        50.100          38.200  
  24853579.250 6      3507.653 6      2733.23046  -1993992.906 6  -1509480.77746
  24853575.21946        43.200          21.100  
  20337254.953 7      -245.245 7      -191.09949  -3638234.580 7  -2829370.44149
  20337249.99249        48.900          42.200  
  22880459.195 6     -3740.732 6     -2914.85547   8586157.164 6   6675080.74547
  22880455.52347        45.400          28.300  
 08  1 20 20 27 50.0000000  0 10G02G05G06G10G16G21G24G26G29G30    0.000025858
  23774330.180 2     -3656.701 2     -2849.36145   9747738.605 2   7561487.83445
  23774323.47745        34.100          16.300  
  24008348.664 5     -4091.988 5     -3188.55846  11075416.626 5   8593544.29746
  24008345.83246        42.100          22.900  
  20585588.648 7       685.290 7       533.99248  -6589677.141 7  -5117590.77848
  20585583.60948        48.100          37.600  
  20925700.016 7     -1369.775 7     -1067.35848  -1227141.139 7   -946057.34448
  20925695.08648        48.200          35.000  
  24484519.727 5      2495.365 5      1944.44246  -5149354.868 5  -3938272.76846
  24484514.30946        40.500          22.800  
  22699786.977 6      2393.880 6      1865.36247  -6759748.135 6  -5159752.41147
  22699781.67647        46.000          28.300  
  20382426.852 7       256.550 7       199.90948  -5185882.375 7  -4019633.97648
  20382423.24648        50.700          37.900  
  24850242.047 6      3507.349 6      2732.99446  -2011529.650 6  -1523145.74546
  24850237.43846        43.500          20.900  
  20337491.008 7      -247.993 7      -193.24249  -3636994.615 7  -2828404.23349
  20337486.01649        48.500          42.000  
  22884020.070 6     -3742.339 6     -2916.10747   8604868.857 6   6689661.28247
  22884016.25447        45.300          27.100  
 08  1 20 20 27 55.0000000  0 10G02G05G06G10G16G21G24G26G29G30    0.000026896
  23777810.609 2     -3657.388 2     -2849.90845   9766025.548 2   7575737.37545
  23777802.97745        34.500          15.600  
  24012242.250 5     -4092.501 5     -3188.96146  11095879.134 5   8609489.10346
  24012239.63746        42.000          22.600  
  20584939.289 7       682.738 7       532.00548  -6593090.833 7  -5120250.80648
  20584934.64548        48.500          37.500  
  20927006.727 7     -1373.263 7     -1070.07448  -1220274.822 7   -940706.97348
  20927001.62548        48.300          35.100  
  24482146.914 5      2493.304 5      1942.83146  -5161821.390 5  -3947986.92546
  24482142.00846        41.400          23.000  
  22697510.430 6      2392.769 6      1864.49447  -6771711.980 6  -5169074.88147
  22697504.52747        46.000          27.800  
  20382185.047 7       254.244 7       198.11148  -5187153.593 7  -4020624.52848
  20382181.64848        50.400          38.300  
  24846904.938 6      3507.051 6      2732.76446  -2029064.906 6  -1536809.56446
  24846900.14846        43.600          21.300  
  20337729.227 7      -250.721 7      -195.36749  -3635741.009 7  -2827427.39949
  20337724.45749        48.400          42.200  
  22887582.484 6     -3743.928 6     -2917.34547   8623588.496 6   6704248.00947
  22887578.58647        45.300          28.000  
 08  1 20 20 28  0.0000000  0 10G02G05G06G10G16G21G24G26G29G30    0.000027935
  23781290.414 2     -3658.051 2     -2850.43245   9784315.801 2   7589989.53445
  23781284.07045        35.400          16.300  
  24016136.586 5     -4092.983 5     -3189.33846  11116344.048 5   8625435.79246
  24016133.53546        41.700          23.000  
  20584292.016 7       680.226 7       530.04648  -6596491.964 7  -5122901.03648
  20584287.28548        48.300          37.700  
  20928316.523 7     -1376.728 7     -1072.77648  -1213391.183 7   -935343.09348
  20928311.32048        47.800          35.300  
  24479776.945 5      2491.261 5      1941.24046  -5174277.693 5  -3957693.12346
  24479771.82046        41.300          22.900  
  22695234.500 6      2391.691 6      1863.65647  -6783670.437 6  -5178393.16347
  22695229.32447        44.800          28.300  
  20381945.000 7       251.964 7       196.33648  -5188413.411 7  -4021606.20848
  20381941.31348        49.600          38.500  
  24843568.125 6      3506.765 6      2732.53846  -2046598.732 6  -1550472.25646
  24843564.00846        43.400          21.100  
  20337970.234 7      -253.421 7      -197.47249  -3634473.901 7  -2826440.03949
  20337965.59849        48.600          42.400  
  22891145.898 6     -3745.494 6     -2918.56847   8642315.965 6   6718840.84747
  22891142.09447        45.600          27.600  
 08  1 20 20 28  5.0000000  0 10G02G05G06G10G16G21G24G26G29G30    0.000028973
  23784771.242 3     -3658.600 3     -2850.86345   9802608.800 3   7604243.84745
  23784764.72345        36.700          16.900  
  24020031.359 5     -4093.367 5     -3189.63746  11136810.884 5   8641383.97946
  24020028.38746        42.400          22.600  
  20583646.820 7       677.779 7       528.14048  -6599880.861 7  -5125541.73748
  20583642.34448        47.900          38.000  
  20929629.578 7     -1380.088 7     -1075.39448  -1206490.742 7   -929966.12348
  20929624.26648        48.300          35.300  
  24477407.617 5      2489.315 5      1939.72246  -5186724.271 5  -3967391.73146
  24477403.34446        40.400          22.500  
  22692960.461 6      2390.704 6      1862.88447  -6795623.956 6  -5187707.58147
  22692954.71147        45.700          28.100  
  20381707.383 7       249.778 7       194.63148  -5189662.299 7  -4022579.36448
  20381703.69548        50.500          38.600  
  24840231.813 6      3506.601 6      2732.41146  -2064131.735 6  -1564134.31346
  24840227.48446        42.700          21.100  
  20338214.148 7      -256.026 7      -199.50049  -3633193.771 7  -2825442.53849
  20338209.39149        48.200          42.700  
  22894711.180 6     -3746.952 6     -2919.70247   8661050.725 6   6733439.35647
  22894707.25847        45.000          27.600  
