     2.11           OBSERVATION DATA    GPS(GPS)            RINEX VERSION / TYPE
convertToRinex 1.14 convertToRINEX OPR  21-Jan-08 20:42 UTC PGM / RUN BY / DATE 
----------------------------------------------------------- COMMENT             
rover                                                       MARKER NAME         
                                                            MARKER NUMBER       
GNSS Observer       Trimble                                 OBSERVER / AGENCY   
4651126518          R8 Model 2          Version 3.25        REC # / TYPE / VERS 
                    TRM_R8_GNSS                             ANT # / TYPE        
 -1641692.0585 -3663535.3054  4940994.8287                  APPROX POSITION XYZ 
        0.0000        0.0000        0.0000                  ANTENNA: DELTA H/E/N
     1     1     0                                          WAVELENGTH FACT L1/2
     8    C1    D1    D2    L1    L2    P2    S1    S2      # / TYPES OF OBSERV 
  2008     1    20    20    17   15.0000000     GPS         TIME OF FIRST OBS   
  2008     1    20    21    24   50.0000000     GPS         TIME OF LAST OBS    
     0                                                      RCV CLOCK OFFS APPL 
    14                                                      LEAP SECONDS        
    13                                                      # OF SATELLITES     
   G02   493   416   307   485   355   356   493   356      PRN / # OF OBS      
   G05   230   221   191   228   194   194   230   194      PRN / # OF OBS      
   G06   812   736   736   812   810   810   812   810      PRN / # OF OBS      
   G10   812   719   719   812   812   812   812   812      PRN / # OF OBS      
   G12   135   105     5   120     6     6   135     6      PRN / # OF OBS      
   G15   659   568   512   647   568   569   659   569      PRN / # OF OBS      
   G16   740   697   539   729   556   556   740   556      PRN / # OF OBS      
   G18   326   282   212   313   226   227   326   227      PRN / # OF OBS      
   G21   812   808   805   811   809   810   812   810      PRN / # OF OBS      
   G24   812   719   719   812   812   812   812   812      PRN / # OF OBS      
   G26   703   680   625   697   646   652   703   652      PRN / # OF OBS      
   G29   812   749   748   812   812   812   812   812      PRN / # OF OBS      
   G30   561   471   297   539   320   321   561   321      PRN / # OF OBS      
                                                            END OF HEADER       
 08  1 20 20 17 20.0000000  0 10G02G05G06G10G12G16G21G24G29G30    0.000078243
  23395433.156 6     -2271.55916     -1770.05156    270458.367 6    185066.08246
  23395425.79746        42.500          22.000  
  23576388.680 5     -2717.76015     -2117.73256    229612.836 5    163072.07446
  23576384.51646        41.500          22.600  
  20740391.445 7      2285.38817      1780.82358   -297965.059 7   -209506.52348
  20740387.10548        48.800          38.900  
  20841970.492 7       368.58617       287.21558    -60321.809 7    -41714.08648
  20841965.44548        48.600          36.400  
  24566489.227 5     -2801.21715     -2182.75355    237076.738 5    164548.57845
  24566489.49645        40.500          15.600  
  24852277.461 3      4024.75113      3136.16755   -352092.258 3    -69158.14145
  24852271.84845        36.700          17.800  
  23048784.055 5      3816.64115      2974.01256   -383936.895 5   -253556.16846
  23048779.28146        41.100          21.100  
  20484445.234 7      1837.05317      1431.47258   -225754.465 7   -150466.81348
  20484440.56348        50.300          36.600  
  20381925.602 7      1379.01617      1074.55759   -103103.391 7    -77787.90249
  20381921.14549        50.500          41.700  
  22502114.805 6     -2230.70216     -1738.20257    263774.281 6    188899.87547
  22502111.73847        45.200          33.200  
 08  1 20 20 17 25.0000000  0 10G02G05G06G10G12G16G21G24G29G30    0.000075151
  23397599.297 5     -2275.988 5     -1773.48146    281838.309 5    193933.48846
  23397591.92246        42.300          23.400  
  23578978.172 6     -2722.258 6     -2121.22346    243224.125 6    173678.19146
  23578974.37946        42.700          24.400  
  20738222.688 7      2279.377 7      1776.14848   -309361.945 7   -218387.26648
  20738218.05548        48.500          39.900  
  20841627.039 7       361.355 7       281.58648    -62128.586 7    -43122.01648
  20841621.93048        49.300          37.300  
  24569157.711 5     -2805.290 5     -2185.91445    251103.188 5    175478.14845
  24569157.98445        40.900          15.600  
  24848453.453 3      4019.378 3      3131.99746   -372189.148 3    -84818.12546
  24848447.41446        36.900          19.600  
  23045157.883 5      3811.962 5      2970.37546   -402996.707 5   -268408.04346
  23045152.60246        40.000          21.700  
  20482702.742 7      1831.116 7      1426.85548   -234910.043 7   -157601.09048
  20482698.76248        49.900          37.300  
  20380619.703 7      1372.757 7      1069.69449   -109967.176 7    -83136.37149
  20380615.27749        50.900          43.300  
  22504243.078 6     -2236.292 6     -1742.55448    274955.742 6    197612.64548
  22504239.48048        46.400          34.600  
 08  1 20 20 17 30.0000000  0 10G02G05G06G10G12G16G21G24G29G30    0.000072069
  23399769.172 6     -2280.243 6     -1776.81346    293239.523 6    202817.55546
  23399761.60546        42.600          24.400  
  23581572.898 6     -2726.478 6     -2124.53446    256856.516 6    184300.85946
  23581569.29746        42.900          25.900  
  20736059.516 7      2273.568 7      1771.61048   -320729.785 7   -227245.31648
  20736055.14848        48.500          40.800  
  20841289.523 7       354.314 7       276.08748    -63900.156 7    -44502.44948
  20841284.74248        49.100          37.700  
  24571830.031 5     -2809.081 5     -2188.90245    265148.594 5    186422.66045
  24571831.40645        40.300          16.300  
  24844634.156 4      4014.173 4      3127.92346   -392260.012 4   -100457.74246
  24844627.81646        37.500          20.600  
  23041534.477 5      3807.563 5      2966.92646   -422034.523 5   -283242.67246
  23041529.37546        40.100          22.300  
  20480965.938 7      1825.387 7      1422.37748   -244036.977 7   -164712.97348
  20480961.79748        50.200          37.400  
  20379319.383 7      1366.716 7      1064.97049   -116800.754 7    -88461.22349
  20379314.77349        49.400          43.300  
  22506375.148 6     -2241.620 6     -1746.71748    286163.840 6    206346.23048
  22506372.30148        45.400          34.100  
 08  1 20 20 17 35.0000000  0 10G02G05G06G10G12G16G21G24G29G30    0.000069000
  23401942.086 6     -2284.494 6     -1780.12646    304661.992 6    211718.18446
  23401934.93846        42.500          22.600  
  23584170.180 5     -2730.732 5     -2127.85246    270510.176 5    194940.12146
  23584166.61346        40.100          22.900  
  20733901.117 6      2267.717 6      1767.04548   -332068.371 6   -236080.54348
  20733897.44148        47.400          38.800  
  20840958.680 7       347.235 7       270.56548    -65636.332 7    -45855.27348
  20840954.08648        47.700          36.200  
  24574507.492 5     -2812.947 5     -2191.90745    279213.328 5    197382.19545
  24574506.94945        40.800          15.600  
  24840819.227 2      4008.925 2      3123.82346   -412304.637 2   -116076.85946
  24840814.49246        34.900          19.600  
  23037915.891 5      3803.091 5      2963.43346   -441049.977 5   -298059.83646
  23037911.15246        41.400          22.300  
  20479234.578 7      1819.621 7      1417.87748   -253135.082 7   -171802.35948
  20479230.52748        50.300          35.300  
  20378024.555 7      1360.633 7      1060.22649   -123603.918 7    -93762.35249
  20378020.04349        50.000          42.100  
  22508513.016 6     -2246.984 6     -1750.90847    297398.762 6    215100.77047
  22508509.75447        43.900          31.600  
 08  1 20 20 17 40.0000000  0 10G02G05G06G10G12G16G21G24G29G30    0.000065941
  23404119.484 6     -2288.366 6     -1783.14046    316103.820 6    220633.88346
  23404112.53946        42.600          23.000  
  23586772.508 5     -2734.595 5     -2130.85246    284183.152 5    205594.38346
  23586768.22346        41.000          22.200  
  20731749.086 7      2262.341 7      1762.85948   -343380.074 7   -244894.84048
  20731745.00048        48.100          37.800  
  20840635.102 6       340.582 6       265.38648    -67339.242 6    -47182.20348
  20840629.87148        47.200          34.500  
  24577186.758 5     -2816.395 5     -2194.57845    293295.301 5    208355.08645
  24577186.62145        40.100          13.900  
  24837009.656 3      4004.202 3      3120.14145   -432325.645 3   -131677.56345
  24837004.14545        37.300          17.400  
  23034301.047 5      3799.079 5      2960.32246   -460045.371 5   -312861.44546
  23034296.47346        41.300          21.500  
  20477508.336 7      1814.308 7      1413.74548   -262206.621 7   -178871.08648
  20477504.34448        50.100          35.100  
  20376735.000 7      1355.008 7      1055.84848   -130378.957 7    -99041.59048
  20376730.63748        50.500          40.600  
  22510656.094 6     -2251.940 6     -1754.75647    308658.461 6    223874.55147
  22510652.22347        44.200          30.000  
 08  1 20 20 17 45.0000000  0 10G02G05G06G10G12G16G21G24G29G30    0.000062891
  23406300.797 6     -2292.380 6     -1786.27346    327565.719 6    229565.25046
  23406294.24246        42.800          22.600  
  23589378.531 5     -2738.605 5     -2133.98146    297876.180 5    216264.28946
  23589374.25046        39.900          22.000  
  20729601.672 7      2256.770 7      1758.52348   -354663.922 7   -253687.45748
  20729597.61348        48.300          37.700  
  20840317.094 6       333.772 6       260.08448    -69008.102 6    -48482.62148
  20840312.53948        47.200          34.600  
  24579869.891 5     -2819.986 5                    307395.230 5
                        39.800  
  24833203.523 4      3999.260 4      3116.32345   -452321.945 4   -147259.18045
  24833198.99245        38.000          16.300  
  23030690.977 5      3794.883 5      2957.05046   -479019.785 5   -327646.69546
  23030685.84046        41.200          20.400  
  20475787.406 7      1808.804 7      1409.45748   -271250.641 7   -185918.37148
  20475783.48048        50.700          35.100  
  20375451.211 7      1349.191 7      1051.31848   -137124.910 7   -104298.18048
  20375447.28148        50.800          40.400  
  22512802.609 6     -2257.045 6     -1758.73647    319943.688 6    232668.23047
  22512799.90247        43.500          28.700  
 08  1 20 20 17 50.0000000  0 10G02G05G06G10G12G16G21G24G29G30    0.000059853
  23408486.203 6     -2296.452 6     -1789.43846    339047.977 6    238512.43846
  23408479.35946        42.600          23.300  
  23591988.133 5     -2742.683 5     -2137.15246    311589.594 5    226950.05146
  23591983.97346        40.500          21.800  
  20727459.570 7      2251.124 7      1754.12248   -365919.539 7   -262458.06648
  20727455.86348        47.900          37.700  
  20840006.383 7       326.897 7       254.72648    -70642.586 7    -49756.25048
  20840001.30548        47.700          34.300  
  24582556.320 5     -2823.636 5                    321513.410 5
                        39.200  
  24829402.813 4      3994.234 4      3112.37445   -472293.113 4   -162821.05145
  24829398.69145        37.700          16.300  
  23027084.305 5      3790.613 5      2953.72746   -497972.852 5   -342415.32846
  23027078.93046        41.500          20.100  
  20474071.508 7      1803.237 7      1405.12048   -280266.824 7   -192943.96948
  20474067.40648        50.900          35.500  
  20374173.492 7      1343.297 7      1046.72748   -143841.395 7   -109531.81348
  20374169.12148        49.500          40.900  
  22514955.930 6     -2262.216 6     -1762.76647    331254.770 6    241482.05947
  22514952.02047        44.600          28.700  
 08  1 20 20 17 55.0000000  0 10G02G05G06G10G12G16G21G24G29G30    0.000056824
  23410674.586 6     -2300.248 6     -1792.39846    350549.215 6    247474.43046
  23410668.13746        43.500          22.000  
  23594600.531 5     -2746.458 5     -2140.09946    325321.887 5    237650.54746
  23594596.65646        41.700          21.100  
  20725322.852 7      2245.765 7      1749.94848   -377148.363 7   -271207.80548
  20725319.01648        48.700          37.600  
  20839701.430 7       320.282 7       249.57048    -72243.996 7    -51004.09848
  20839696.54748        48.300          34.100  
  24585246.414 5     -2827.025 5                    335648.535 5
                        39.500  
  24825607.141 4      3989.509 4      3108.70745   -492240.656 4   -178364.58645
  24825602.98445        37.800          16.300  
  23023481.516 5      3786.619 5      2950.60946   -516905.945 5   -357168.37546
  23023475.98046        41.400          19.600  
  20472360.664 7      1797.950 7      1400.99948   -289256.574 7   -199948.96548
  20472356.86348        51.000          35.300  
  20372900.766 7      1337.688 7      1042.35548   -150529.836 7   -114743.58648
  20372896.52348        50.800          40.700  
  22517112.219 6     -2267.107 6     -1766.57747    342590.305 6    250314.94147
  22517109.38747        45.300          27.900  
 08  1 20 20 18  0.0000000  0 10G02G05G06G10G12G16G21G24G29G30    0.000053802
  23412866.633 6     -2303.751 6     -1795.13046    362067.973 6    256450.08246
  23412860.14546        42.500          22.600  
  23597217.172 5     -2749.975 5     -2142.83646    339071.762 5    248364.72746
  23597213.49246        40.400          21.500  
  20723191.031 7      2240.680 7      1745.98448   -388351.766 7   -279937.72748
  20723187.00448        48.300          37.900  
  20839402.789 7       313.980 7       244.66048    -73813.898 7    -52227.39848
  20839397.79748        47.900          34.600  
  24587939.328 5     -2830.106 5                    349799.066 5
                        39.400  
  24821815.828 4      3985.036 4      3105.21245   -512165.836 4   -193890.64545
  24821811.22345        38.400          16.900  
  23019882.875 5      3782.923 5      2947.73846   -535820.563 5   -371907.06346
  23019876.56646        40.800          19.000  
  20470654.305 7      1792.951 7      1397.10448   -298221.328 7   -206934.48448
  20470650.77048        50.900          35.700  
  20371633.102 7      1332.369 7      1038.20948   -157191.680 7   -119934.63348
  20371628.68848        50.700          41.200  
  22519274.055 6     -2271.708 6     -1770.16047    353948.844 6    259165.74247
  22519270.62147        44.000          28.900  
 08  1 20 20 18  5.0000000  0 10G02G05G06G10G12G16G21G24G29G30    0.000050793
  23415061.750 6     -2307.307 6     -1797.90546    373604.508 6    265439.60546
  23415055.86346        43.300          23.600  
  23599837.500 5     -2753.527 5     -2145.60446    352839.395 5    259092.74646
  23599833.62946        41.100          20.900  
  20721064.141 7      2235.570 7      1742.00248   -399529.613 7   -288647.73848
  20721059.84448        49.000          37.400  
  20839110.078 7       307.617 7       239.70248    -75351.984 7    -53425.90648
  20839105.05548        48.800          34.400  
  24590634.336 5     -2833.257 5                    363965.352 5
                        39.900  
  24818028.711 4      3980.551 4      3101.74545   -532068.590 4   -209399.37145
  24818023.96145        38.600          17.800  
  23016286.953 5      3779.186 5      2944.82546   -554716.492 5   -386631.18846
  23016280.85546        40.300          19.300  
  20468953.695 7      1787.910 7      1393.17648   -307160.879 7   -213900.36348
  20468950.28548        50.200          35.600  
  20370370.648 7      1327.020 7      1034.03948   -163826.777 7   -125104.82848
  20370366.22748        50.800          41.200  
  22521440.219 6     -2276.355 6     -1773.78147    365330.617 6    268034.64547
  22521436.16047        43.700          29.300  
 08  1 20 20 18 10.0000000  0 10G02G05G06G10G12G16G21G24G29G30    0.000047789
  23417260.625 5     -2310.707 5     -1800.54146    385158.043 5    274442.30946
  23417254.77346        42.300          24.200  
  23602459.813 5     -2756.908 5     -2148.24346    366623.934 5    269833.96146
  23602456.58646        40.300          20.900  
  20718941.633 7      2230.585 7      1738.11748   -410682.539 7   -297338.32448
  20718937.71948        47.900          37.500  
  20838823.438 7       301.419 7       234.87148    -76859.078 7    -54600.26248
  20838818.69148        48.700          34.600  
  24593332.945 5     -2836.209 5                    378146.398 5
                        39.200  
  24814244.586 4      3976.158 4      3098.29445   -551949.379 4   -224890.84045
  24814240.82845        38.600          16.300  
  23012694.352 5      3775.559 5      2941.99346   -573594.285 5   -401341.15246
  23012687.91846        40.000          19.000  
  20467257.016 7      1783.002 7      1389.35248   -316075.887 7   -220847.12148
  20467253.44948        50.700          36.000  
  20369112.953 7      1321.783 7      1029.96048   -170435.691 7   -130254.62948
  20369108.22748        50.300          41.200  
  22523610.813 6     -2280.837 6     -1777.27347    376734.805 6    276921.00847
  22523606.68447        43.800          28.900  
 08  1 20 20 18 15.0000000  0 10G02G05G06G10G12G16G21G24G29G30    0.000044796
  23419463.227 6     -2314.055 6     -1803.15846    396728.316 6    283458.09846
  23419456.06646        42.800          22.300  
  23605086.500 5     -2760.247 5     -2150.84146    380425.168 5    280588.16846
  23605082.96546        40.600          19.900  
  20716824.117 7      2225.680 7      1734.29648   -421810.938 7   -306009.80548
  20716819.32848        48.700          36.200  
  20838542.570 7       295.273 7       230.08248    -78335.445 7    -55750.67248
  20838537.27748        49.100          34.300  
  24596034.938 4     -2839.144 4                    392342.117 4
                        38.500  
  24810465.820 4      3971.890 4      3094.97645   -571808.828 4   -240365.71945
  24810461.34445        38.700          16.900  
  23009104.734 5      3772.035 5      2939.24645   -592454.461 5   -416037.38345
  23009098.81345        39.900          18.300  
  20465565.555 7      1778.176 7      1385.59148   -324966.766 7   -227775.07848
  20465561.66848        51.300          35.700  
  20367860.164 7      1316.630 7      1025.94648   -177018.840 7   -135384.35948
  20367855.55548        50.300          40.600  
  22525785.086 6     -2285.273 6     -1780.73347    388161.168 6    285824.67247
  22525781.03547        44.100          27.900  
 08  1 20 20 18 20.0000000  0 10G02G05G06G10G12G16G21G24G29G30    0.000041811
  23421667.352 5     -2317.482 5     -1805.82946    408315.727 5    292487.24246
  23421661.19546        42.100          22.000  
  23607715.500 5     -2763.692 5     -2153.52246    394243.629 5    291355.77746
  23607712.35246        40.700          19.600  
  20714710.859 7      2220.663 7      1730.38748   -432914.254 7   -314661.73848
  20714706.98048        47.800          36.700  
  20838267.203 7       289.053 7       225.23948    -79780.711 7    -56876.86748
  20838262.62148        48.900          35.600  
  24598738.336 4     -2842.163 4                    406552.934 4
                        38.000  
  24806691.234 5      3967.492 5      3091.55045   -591646.289 5   -255823.46945
  24806686.55945        39.300          16.900  
  23005519.047 5      3768.387 5      2936.40445   -611296.395 5   -430719.40245
  23005513.90645        39.400          17.800  
  20463877.930 7      1773.235 7      1381.74248   -333832.941 7   -234683.78948
  20463874.44148        50.900          35.900  
  20366612.344 7      1311.373 7      1021.84948   -183575.703 7   -140493.60548
  20366607.74648        49.900          40.600  
  22527963.203 6     -2289.813 6     -1784.26747    399610.234 6    294746.00847
  22527959.18847        43.800          28.000  
 08  1 20 20 18 25.0000000  0 10G02G05G06G10G12G16G21G24G29G30    0.000038834
  23423875.484 6     -2320.739 6     -1808.36846    419919.422 6    301529.08246
  23423869.56346        42.700          21.800  
  23610348.664 5     -2766.898 5     -2156.02446    408078.117 5    302135.89846
  23610344.99646        41.000          20.100  
  20712603.047 7      2215.845 7      1726.63248   -443993.480 7   -323294.89848
  20712598.83648        48.100          37.100  
  20837998.227 7       282.995 7       220.51648    -81195.688 7    -57979.44948
  20837993.44548        48.700          35.800  
  24601446.047 4     -2844.955 4                    420777.707 4
                        37.900  
  24802920.086 4      3963.274 4      3088.26645   -611462.660 4   -271264.79745
  24802915.64145        38.600          17.400  
  23001937.430 4      3764.959 4      2933.73446   -630121.191 4   -445388.07046
  23001931.57846        38.600          19.000  
  20462195.211 7      1768.503 7      1378.05248   -342675.457 7   -241574.05148
  20462192.08648        51.400          36.100  
  20365369.352 7      1306.309 7      1017.90249   -190107.246 7   -145583.11349
  20365364.99249        50.900          41.300  
  22530146.023 6     -2294.121 6     -1787.62647    411080.840 6    303684.13747
  22530141.91447        44.200          28.200  
 08  1 20 20 18 30.0000000  0 10G02G05G06G10G12G16G21G24G29G30    0.000035864
  23426086.672 5     -2323.805 5     -1810.75746    431538.445 5    310582.86746
  23426080.26646        41.800          22.300  
  23612983.938 4     -2769.932 4     -2158.37746    421927.777 4    312927.78546
  23612980.70746        38.800          19.900  
  20710498.852 7      2211.198 7      1723.01248   -455049.473 7   -331909.96148
  20710494.80148        48.000          36.600  
  20837734.508 7       277.131 7       215.94248    -82581.344 7    -59059.16048
  20837729.72348        48.700          34.800  
  24604155.102 4     -2847.589 4                    435015.652 4
                        38.000  
  24799153.281 5      3959.248 5      3085.12645   -631258.898 5   -286690.42645
  24799148.34845        39.800          16.300  
  22998357.578 4      3761.700 4      2931.18946   -648929.691 4   -460044.01646
  22998352.17246        37.900          19.000  
  20460516.938 7      1763.941 7      1374.49948   -351495.164 7   -248446.54748
  20460513.54748        50.100          35.900  
  20364131.156 7      1301.425 7      1014.09648   -196614.371 7   -150653.59448
  20364126.63348        50.400          40.700  
  22532333.141 6     -2298.259 6     -1790.85247    422572.133 6    312638.39847
  22532328.68447        44.500          28.900  
 08  1 20 20 18 35.0000000  0 10G02G05G06G10G12G16G21G24G29G30    0.000032902
  23428300.617 5     -2326.915 5     -1813.17746    443173.020 5    319648.75046
  23428294.02346        42.200          21.700  
  23615621.297 4     -2773.064 4     -2160.83546    435793.098 4    323731.96146
  23615618.86346        38.700          19.900  
  20708399.313 7      2206.477 7      1719.33148   -466081.855 7   -340506.61748
  20708395.02348        48.000          36.100  
  20837476.438 7       271.211 7       211.33748    -83937.398 7    -60115.84448
  20837471.52748        49.100          35.700  
  24606866.617 4     -2850.302 4                    449267.164 4
                        38.100  
  24795390.086 5      3955.156 5      3081.93545   -651034.676 5   -302100.10245
  24795384.94945        39.800          16.900  
  22994781.609 4      3758.336 4      2928.57745   -667721.371 4   -474686.89845
  22994776.27345        38.700          18.300  
  20458842.883 7      1759.314 7      1370.89548   -360291.734 7   -255301.02048
  20458839.77748        50.400          36.000  
  20362897.789 7      1296.473 7      1010.24048   -203096.738 7   -155704.79348
  20362892.79348        50.800          40.900  
  22534523.859 6     -2302.490 6     -1794.14647    434084.582 6    321609.12947
  22534519.93847        45.000          28.700  
 08  1 20 20 18 40.0000000  0 10G02G05G06G10G12G16G21G24G29G30    0.000029945
  23430516.992 6     -2329.733 6     -1815.38146    454821.684 6    328725.65646
  23430510.62546        42.600          21.700  
  23618263.445 5     -2775.844 5     -2162.98946    449672.320 5    334546.90646
  23618260.34046        39.800          19.300  
  20706304.297 6      2202.097 6      1715.92048   -477092.340 6   -349086.21548
  20706299.66848        47.000          36.000  
  20837223.500 7       265.599 7       206.95948    -85265.395 7    -61150.64148
  20837218.92248        49.100          35.500  
  24609581.609 4     -2852.663 4                    463530.477 4
                        38.300  
  24791630.789 4      3951.377 4      3078.99345   -670791.563 4   -317495.06645
  24791626.00845        38.800          17.400  
  22991208.609 4      3755.352 4      2926.24246   -686498.133 4   -489318.10946
  22991203.59046        37.700          19.300  
  20457173.063 7      1755.012 7      1367.54148   -369066.797 7   -262138.72748
  20457169.86748        51.100          36.100  
  20361668.828 7      1291.852 7      1006.63848   -209556.000 7   -160737.98448
  20361663.85548        50.000          41.100  
  22536717.781 6     -2306.362 6     -1797.16247    445616.391 6    330594.94147
  22536713.98847        44.800          28.300  
 08  1 20 20 18 45.0000000  0 10G02G05G06G10G12G16G21G24G29G30    0.000026999
  23432736.336 6     -2332.833 6     -1817.79146    466485.852 6    337814.61346
  23432729.79346        42.500          21.800  
  23620907.063 5     -2778.930 5     -2165.40646    463566.973 5    345373.93846
  23620904.39146        39.600          19.300  
  20704213.602 6      2197.392 6      1712.25448   -488079.301 6   -357647.48448
  20704209.47748        47.100          36.400  
  20836976.484 7       259.694 7       202.35948    -86563.863 7    -62162.43448
  20836971.94548        48.400          35.200  
  24612297.766 4     -2855.346 4                    477807.207 4
                        38.300  
  24787874.977 4      3947.281 4      3075.81245   -690527.969 4   -332874.12545
  24787870.48045        38.900          16.300  
  22987638.594 4      3752.014 4      2923.65145   -705258.203 4   -503936.36345
  22987633.73845        38.300          18.600  
  20455507.984 7      1750.402 7      1363.95148   -377818.805 7   -268958.48048
  20455504.65248        50.500          35.900  
  20360444.141 7      1286.906 7      1002.78548   -215990.531 7   -165751.91048
  20360439.21548        49.800          41.000  
  22538916.594 6     -2310.558 6     -1800.43547    457169.180 6    339597.11747
  22538912.61347        44.600          28.600  
 08  1 20 20 18 50.0000000  0 10G02G05G06G10G12G16G21G24G29G30    0.000024057
  23434959.164 5     -2335.583 5     -1819.93246    478163.770 5    346914.27346
  23434951.90246        41.900          22.000  
  23623554.203 5     -2781.659 5     -2167.52146    477475.270 5    356211.54346
  23623551.06646        40.400          19.600  
  20702126.781 6      2193.061 6      1708.88048   -499044.605 6   -366191.88748
  20702122.09848        47.200          36.000  
  20836734.945 7       254.136 7       198.02948    -87834.543 7    -63152.57848
  20836729.60248        48.000          34.700  
  24615017.250 4     -2857.665 4                    492095.531 4
                        37.900  
  24784122.477 5      3943.552 5      3072.88545   -710245.730 5   -348238.55145
  24784117.77345        39.300          15.600  
  22984071.820 5      3749.076 5      2921.35645   -724003.582 5   -518543.14545
  22984066.49645        39.300          18.300  
  20453846.453 7      1746.159 7      1360.64248   -386549.602 7   -275761.69148
  20453842.57848        51.200          36.000  
  20359223.984 7      1282.333 7       999.21948   -222402.195 7   -170748.00448
  20359219.14148        50.500          40.900  
  22541118.742 6     -2314.378 6     -1803.41247    468741.070 6    348614.17647
  22541114.53147        45.700          27.700  
 08  1 20 20 18 55.0000000  0 10G02G05G06G10G12G16G21G24G29G30    0.000021124
  23437184.055 5     -2338.344 5     -1822.08746    489855.488 5    356024.70746
  23437176.43846        42.200          22.000  
  23626202.984 4     -2784.393 4     -2169.65946    491397.234 4    367059.84046
  23626200.49246        39.000          19.300  
  20700044.172 6      2188.698 6      1705.47748   -509988.098 6   -374719.27048
  20700040.06648        47.400          35.100  
  20836498.266 7       248.570 7       193.69248    -89077.391 7    -64121.03948
  20836493.23048        49.200          34.900  
  24617738.086 4     -2859.975 4                    506395.406 4
                        37.800  
  24780373.422 5      3939.817 5      3069.99445   -729944.816 5   -363588.52045
  24780369.02045        39.200          15.600  
  22980507.344 5      3746.092 5      2919.02845   -742734.043 5   -533138.28545
  22980502.35945        39.500          18.300  
  20452188.938 7      1741.898 7      1357.32348   -395259.090 7   -282548.30548
  20452185.36348        50.700          35.900  
  20358008.461 7      1277.739 7       995.64148   -228790.891 7   -175726.21148
  20358003.50848        50.800          40.500  
  22543324.211 6     -2318.215 6     -1806.39947    480332.145 6    357646.17247
  22543320.17647        44.000          27.400  
 08  1 20 20 19  0.0000000  0 10G02G05G06G10G12G16G21G24G29G30    0.000018194
  23439411.586 6     -2341.047 6     -1824.19146    501560.723 6    365145.66446
  23439404.00446        42.800          21.500  
  23628854.805 5     -2787.076 5     -2171.74246    505332.613 5    377918.55146
  23628852.00046        39.500          19.000  
  20697965.977 6      2184.395 6      1702.12748   -520910.074 6   -383229.90248
  20697961.41048        47.200          35.000  
  20836267.023 7       243.064 7       189.40048    -90292.711 7    -65068.03948
  20836261.81648        49.500          35.100  
  24620462.000 4     -2862.262 4                    520706.719 4
                        38.100  
  24776629.070 5      3936.131 5      3067.11945   -749625.473 5   -378924.11345
  24776623.47745        39.200          16.300  
  22976945.313 5      3743.175 5      2916.76145   -761449.918 5   -547722.09045
  22976940.57845        39.800          18.300  
  20450535.727 7      1737.684 7      1354.04048   -403947.508 7   -289318.50448
  20450532.20348        51.000          36.300  
  20356796.883 7      1273.188 7       992.09548   -235156.828 7   -180686.68448
  20356792.32048        51.000          41.200  
  22545533.539 6     -2322.005 6     -1809.35347    491942.168 6    366692.93847
  22545529.76247        44.600          27.000  
 08  1 20 20 19  5.0000000  0 10G02G05G06G10G12G16G21G24G29G30    0.000015274
  23441640.680 5     -2343.882 5     -1826.40246    513280.133 5    374277.67246
  23441633.82446        41.500          21.300  
  23631508.922 4     -2789.887 4     -2173.93745    519282.051 4    388788.23445
  23631506.40245        38.300          18.300  
  20695891.711 7      2179.963 7      1698.67148   -531809.891 7   -391723.25848
  20695887.68448        48.000          35.300  
  20836041.016 7       237.429 7       185.01048    -91479.855 7    -65993.09048
  20836035.82048        49.600          35.100  
  24623187.070 3     -2864.659 3                    535030.012 3
                        36.900  
  24772887.086 4      3932.312 4      3064.13445   -769287.031 4   -394244.78545
  24772882.54745        38.600          16.300  
  22973387.188 5      3740.120 5      2914.38045   -780150.520 5   -562293.98845
  22973382.07845        40.700          18.600  
  20448886.203 7      1733.346 7      1350.65948   -412614.238 7   -296071.79748
  20448882.66848        50.600          36.100  
  20355590.016 7      1268.517 7       988.45448   -241499.414 7   -185628.95348
  20355585.30548        51.400          41.000  
  22547746.750 6     -2325.921 6     -1812.40446    503571.773 6    375754.95746
  22547742.64846        44.100          26.200  
 08  1 20 20 19 10.0000000  0 10G02G05G06G10G12G16G21G24G29G30    0.000012358
  23443873.531 5     -2346.344 5     -1828.32146    525011.855 5    383419.27746
  23443866.60246        41.100          21.100  
  23634166.438 4     -2792.302 4     -2175.82345    533243.563 4    399667.35245
  23634163.20345        39.100          17.400  
  20693821.164 7      2175.906 7      1695.51148   -542689.422 7   -400200.81348
  20693817.09448        47.800          35.400  
  20835820.406 7       232.152 7       180.89848    -92640.613 7    -66897.57848
  20835814.95348        48.500          34.800  
  24625914.117 4     -2866.662 4                    549363.320 4
                        37.500  
  24769149.672 4      3928.855 4      3061.45745   -788931.305 4   -409552.07045
  24769144.39145        38.300          15.600  
  22969831.008 5      3737.456 5      2912.30645   -798837.801 5   -576855.52045
  22969825.63345        40.600          18.600  
  20447241.102 7      1729.390 7      1347.57648   -421261.188 7   -302809.67648
  20447237.36748        50.800          36.200  
  20354386.648 7      1264.232 7       985.11648   -247820.574 7   -190554.53148
  20354382.13748        51.000          40.500  
  22549963.336 6     -2329.434 6     -1815.14147    515218.941 6    384830.66447
  22549958.70347        44.700          27.000  
 08  1 20 20 19 15.0000000  0 10G02G05G06G10G12G16G21G24G29G30    0.000009447
  23446108.156 5     -2348.657 5     -1830.12146    536755.141 5    392569.88346
  23446101.08646        42.200          21.300  
  23636825.039 4     -2794.616 4     -2177.62345    547216.641 4    410555.46545
  23636822.24245        38.400          16.900  
  20691754.797 6      2171.976 6      1692.44848   -553549.301 6   -408663.05548
  20691750.55148        46.500          35.300  
  20835604.531 7       227.045 7       176.91948    -93775.836 7    -67782.17248
  20835599.20348        49.300          34.700  
  24628643.641 4     -2868.566 4                    563706.148 4
                        37.400  
  24765414.438 4      3925.527 4      3058.83545   -808558.941 4   -424846.24645
  24765408.93445        38.300          16.900  
  22966277.352 5      3734.905 5      2910.30646   -817512.324 5   -591407.05146
  22966272.25446        41.800          20.400  
  20445599.289 7      1725.554 7      1344.58848   -429888.957 7   -309532.61348
  20445595.25448        51.800          36.600  
  20353188.297 7      1260.061 7       981.86648   -254120.879 7   -195463.86348
  20353183.11748        51.500          40.400  
  22552182.398 6     -2332.836 6     -1817.79247    526883.121 6    393919.62547
  22552178.27347        44.500          26.600  
 08  1 20 20 19 20.0000000  0 10G02G05G06G10G12G16G21G24G29G30    0.000006542
  23448345.578 5     -2351.281 5     -1832.17046    548511.547 5    401730.73446
  23448338.15646        42.100          21.500  
  23639485.977 4     -2797.185 4     -2179.62945    561202.566 4    421453.60945
  23639483.35245        38.400          15.600  
  20689692.250 6      2167.763 6      1689.16648   -564388.117 6   -417108.88748
  20689688.02048        47.300          34.800  
  20835393.664 7       221.627 7       172.69848    -94883.969 7    -68645.66048
  20835388.57448        48.700          34.100  
  24631375.930 4     -2870.722 4                    578059.758 4
                        37.800  
  24761682.508 4      3921.908 4      3056.04145   -828168.480 4   -440126.44945
  24761677.55145        38.400          16.900  
  22962726.938 5      3732.081 5      2908.12446   -836172.727 5   -605947.66846
  22962721.19146        41.100          19.300  
  20443961.297 7      1721.446 7      1341.38748   -438496.188 7   -316239.55148
  20443957.73048        51.100          36.400  
  20351993.586 7      1255.614 7       978.40248   -260398.949 7   -200355.87548
  20351988.73448        51.100          40.500  
  22554404.992 6     -2336.493 6     -1820.64347    538565.586 6    403022.84047
  22554401.57447        43.900          27.000  
 08  1 20 20 19 25.0000000  0 10G02G05G06G10G12G16G21G24G29G30    0.000003643
  23450585.367 5     -2353.613 5     -1833.98446    560279.609 5    410900.65246
  23450577.50846        41.900          22.000  
  23642150.203 4     -2799.473 4     -2181.39945    575199.930 4    432360.60545
  23642147.11745        38.000          15.600  
  20687633.000 6      2163.816 6      1686.09148   -575207.195 6   -425539.34448
  20687628.95348        45.600          35.100  
  20835187.500 7       216.491 7       168.69348    -95966.426 7    -69489.12548
  20835182.37948        47.900          34.700  
  24634108.555 3     -2872.616 3                    592422.840 3
                        37.300  
  24757954.523 4      3918.561 4      3053.41745   -847761.285 4   -455393.53145
  24757948.97345        37.600          17.400  
  22959177.570 5      3729.523 5      2906.11946   -854820.340 5   -620478.26246
  22959172.84046        40.900          19.900  
  20442327.242 7      1717.607 7      1338.39548   -447084.223 7   -322931.52348
  20442323.37948        51.800          36.400  
  20350802.664 7      1251.444 7       975.15049   -266656.168 7   -205231.62549
  20350797.69949        50.300          41.300  
  22556632.156 6     -2339.895 6     -1823.29446    550265.059 6    412139.30946
  22556628.25446        45.800          26.200  
 08  1 20 20 19 30.0000000  0 10G02G05G06G10G12G16G21G24G29G30    0.000000750
  23452826.984 5     -2356.034 5     -1835.86646    572059.777 5    420079.98446
  23452819.40646        41.300          22.200  
  23644816.133 4     -2801.892 4     -2183.29745    589209.391 4    443277.09045
  23644813.27745        38.800          15.600  
  20685578.336 6      2159.759 6      1682.92748   -586005.992 6   -433953.97748
  20685574.07848        46.400          35.400  
  20834986.430 7       211.266 7       164.62648    -97022.758 7    -70312.25448
  20834981.21148        49.500          34.800  
  24636844.195 3     -2874.621 3                    606795.945 3
                        36.600  
  24754229.445 4      3915.123 4      3050.75245   -867336.898 4   -470647.29345
  24754223.75045        37.900          16.900  
  22955631.680 5      3726.832 5      2904.02246   -873454.500 5   -634998.37146
  22955627.00846        41.600          20.100  
  20440696.563 7      1713.648 7      1335.31048   -455652.465 7   -329608.07448
  20440692.35548        51.600          36.500  
  20349616.422 7      1247.153 7       971.80948   -272891.934 7   -210090.66848
  20349611.46948        51.400          40.900  
  22558861.539 6     -2343.425 6     -1826.04546    561982.184 6    421269.53146
  22558857.61346        44.900          25.400  
 08  1 20 20 19 35.0000000  0 10G02G05G06G10G12G16G21G24G29G30   -0.000002138
  23455070.461 5     -2358.359 5     -1837.68746    583851.574 5    429268.41846
  23455063.06346        42.000          22.200  
  23647483.742 4     -2804.154 4     -2185.05245    603230.159 4    454202.34745
  23647480.93845        38.100          16.900  
  20683527.234 6      2155.842 6      1679.87848   -596785.203 6   -442353.36748
  20683522.77048        46.000          34.400  
  20834790.766 7       206.130 7       160.62048    -98053.406 7    -71115.35548
  20834785.10248        50.200          34.500  
  24639581.375 3     -2876.470 3                    621178.297 3
                        36.300  
  24750507.109 4      3911.792 4      3048.14245   -886895.855 4   -485888.00445
  24750501.55545        37.900          17.400  
  22952088.852 6      3724.308 6      2902.05846   -892076.039 6   -649508.66046
  22952083.50446        42.500          19.900  
  20439069.742 7      1709.841 7      1332.34448   -464201.668 7   -336269.79348
  20439065.99648        51.400          36.200  
  20348433.453 7      1242.999 7       968.57048   -279106.930 7   -214933.52048
  20348428.46148        50.900          41.200  
  22561094.773 6     -2346.782 6     -1828.65947    573716.094 6    430412.82447
  22561090.47747        44.200          27.100  
 08  1 20 20 19 40.0000000  0 10G02G05G06G10G12G16G21G24G29G30   -0.000005022
  23457317.008 5     -2360.540 5     -1839.37846    595654.273 5    438465.30946
  23457309.19546        41.600          22.300  
  23650153.984 4     -2806.345 4     -2186.77145    617261.883 4    465136.19945
  23650151.56645        37.400          15.600  
  20681479.813 6      2152.029 6      1676.90748   -607545.348 6   -450737.90248
  20681474.93448        45.800          34.400  
  20834599.313 7       201.134 7       156.72748    -99059.078 7    -71898.99248
  20834593.71148        49.700          34.800  
  24642319.195 2     -2878.251 2                    635569.555 2
                        34.900  
  24746788.352 4      3908.595 4      3045.65645   -906438.832 4   -501116.28145
  24746782.79745        37.700          17.400  
  22948547.984 6      3721.883 6      2900.17146   -910685.453 6   -664009.51646
  22948542.07046        42.600          20.400  
  20437446.383 7      1706.126 7      1329.44848   -472732.297 7   -342917.03548
  20437442.39848        51.600          36.100  
  20347254.672 7      1238.951 7       965.41648   -285301.684 7   -219760.59848
  20347249.89848        52.300          41.100  
  22563330.266 6     -2350.055 6     -1831.21347    585466.371 6    439568.88747
  22563326.96547        44.100          27.900  
 08  1 20 20 19 45.0000000  0 10G02G05G06G10G12G16G21G24G29G30   -0.000007898
  23459565.117 5     -2363.069 5     -1841.34846    607469.617 5    447672.05146
  23459557.96146        42.400          21.800  
  23652826.828 4     -2808.799 4     -2188.66645    631305.879 4    476079.52745
  23652823.71545        38.400          14.800  
  20679436.297 6      2147.895 6      1673.68348   -618284.820 6   -459106.31648
  20679431.73848        45.700          34.400  
  20834412.617 7       195.826 7       152.59348   -100038.207 7    -72661.95748
  20834407.60548        49.800          34.600  
  24645059.617 3     -2880.313 3                    649971.117 3
                        36.100  
  24743071.641 4      3905.019 4      3042.87045   -925963.926 4   -516330.62945
  24743067.08645        37.500          16.300  
  22945008.625 5      3719.130 5      2898.02046   -929281.105 5   -678499.61346
  22945003.64146        41.800          19.900  
  20435827.422 7      1702.088 7      1326.30348   -481242.738 7   -349548.55148
  20435823.48048        51.600          36.500  
  20346080.398 7      1234.571 7       962.00548   -291474.539 7   -224570.62148
  20346075.34048        51.200          40.300  
  22565569.781 6     -2353.616 6     -1833.98546    597234.449 6    448738.81346
  22565566.34446        44.500          26.100  
 08  1 20 20 19 50.0000000  0 10G02G05G06G10G12G16G21G24G29G30   -0.000010773
  23461815.344 6     -2365.218 6     -1843.02846    619295.707 6    456887.19146
  23461808.47746        42.500          22.300  
  23655500.625 3     -2810.923 3     -2190.33345    645360.492 3    487031.19145
  23655498.18845        37.200          15.600  
  20677396.258 6      2144.126 6      1670.74848   -629005.453 6   -467460.05948
  20677391.35548        45.300          34.000  
  20834230.859 7       190.850 7       148.71248   -100992.457 7    -73405.52048
  20834226.18848        49.500          34.500  
  24647802.844 3     -2882.000 3                    664381.117 3
                        36.300  
  24739359.039 3      3901.874 3      3040.42045   -945473.293 3   -531532.73045
  24739354.42245        36.700          16.300  
  22941472.000 5      3716.763 5      2896.18246   -947864.922 5   -692980.52346
  22941466.84446        41.800          20.900  
  20434211.406 7      1698.435 7      1323.45648   -489734.914 7   -356165.83248
  20434207.02748        52.000          37.100  
  20344909.336 7      1230.579 7       958.89248   -297627.434 7   -229365.08248
  20344904.50048        51.200          40.500  
  22567812.250 6     -2356.823 6     -1836.48047    609018.563 6    457921.21547
  22567808.78947        45.100          27.500  
 08  1 20 20 19 55.0000000  0 10G02G05G06G10G12G16G21G24G29G30   -0.000013641
  23464067.461 5     -2367.316 5     -1844.65946    631132.285 5    466110.48446
  23464061.44946        42.100          22.600  
  23658177.445 4     -2812.980 4     -2191.92945    659425.395 4    497990.83645
  23658174.39845        38.300          16.300  
  20675359.383 6      2140.391 6      1667.83848   -639707.410 6   -475799.24648
  20675354.85248        45.500          34.200  
  20834054.102 7       185.957 7       144.90148   -101922.242 7    -74130.02348
  20834049.23448        49.300          34.500  
  24650546.078 3     -2883.692 3                    678799.578 3
                        36.200  
  24735649.945 3      3898.727 3      3037.96045   -964966.930 3   -546722.53145
  24735645.14845        37.300          16.300  
  22937938.453 5      3714.406 5      2894.34346   -966436.953 5   -707452.23846
  22937933.03146        41.800          20.900  
  20432598.469 7      1694.810 7      1320.63148   -498208.965 7   -362768.98848
  20432594.89148        51.800          36.400  
  20343742.430 7      1226.620 7       955.80948   -303760.531 7   -234144.12548
  20343737.15648        50.700          40.100  
  22570057.766 6     -2359.988 6     -1838.95147    620818.500 6    467115.96947
  22570054.33647        45.400          27.900  
 08  1 20 20 20  0.0000000  0 10G02G05G06G10G12G16G21G24G29G30   -0.000016504
  23466322.797 5     -2369.642 5     -1846.47446    642980.496 5    475342.85546
  23466315.89146        41.900          23.300  
  23660856.992 4     -2815.262 4     -2193.70745    673501.703 4    508959.37145
  23660853.38745        38.600          14.800  
  20673326.414 6      2136.441 6      1664.75948   -650389.613 6   -484123.04348
  20673321.86348        45.900          34.600  
  20833882.469 7       180.822 7       140.90248   -102826.352 7    -74834.53548
  20833877.32848        49.300          34.200  
  24653291.570 3     -2885.564 3                    693227.398 3
                        36.000  
  24731944.172 3      3895.374 3      3035.35145   -984443.801 3   -561899.28545
  24731938.91445        36.400          15.600  
  22934406.922 5      3711.850 5      2892.35046   -984996.203 5   -721913.98846
  22934401.60246        41.300          20.600  
  20430989.852 7      1690.969 7      1317.63748   -506663.813 7   -369357.17648
  20430985.71548        52.000          36.700  
  20342579.063 7      1222.435 7       952.54648   -309872.707 7   -238906.85548
  20342573.71148        51.000          40.100  
  22572306.109 6     -2363.363 6     -1841.57847    632635.316 6    476323.85947
  22572302.78547        45.200          26.700  
 08  1 20 20 20  5.0000000  0 10G02G05G06G10G12G16G21G24G29G30   -0.000019363
  23468579.055 6     -2371.747 6     -1848.11346    654839.230 6    484583.42246
  23468573.05146        43.000          24.200  
  23663536.320 3     -2817.326 3     -2195.31745    687588.332 3    519935.95745
  23663534.44145        37.300          16.300  
  20671297.742 6      2132.702 6      1661.84448   -661053.125 6   -492432.26648
  20671292.94548        45.900          34.100  
  20833714.563 7       175.909 7       137.07247   -103705.895 7    -75519.89547
  20833709.88347        49.100          33.400  
  24656039.414 3     -2887.205 3                    707663.422 3
                        36.800  
  24728241.234 3      3892.235 3      3032.91045  -1003904.977 3   -577063.83645
  24728235.93045        36.800          16.300  
  22930877.063 5      3709.498 5      2890.51846  -1003543.691 5   -736366.57846
  22930872.03546        40.600          21.500  
  20429384.273 7      1687.345 7      1314.81648   -515100.539 7   -375931.25448
  20429380.03148        52.000          36.400  
  20341419.828 7      1218.462 7       949.45148   -315965.016 7   -243654.10948
  20341414.65648        50.300          39.600  
  22574558.164 6     -2366.524 6     -1844.04646    644467.938 6    485544.09046
  22574554.81346        44.800          26.000  
 08  1 20 20 20 10.0000000  0 10G02G05G06G10G12G16G21G24G29G30   -0.000022217
  23470837.586 6     -2373.932 6     -1849.81646    666708.891 6    493832.50046
  23470831.41446        43.200          24.700  
  23666219.305 4     -2819.465 4     -2196.99545    701685.656 4    530920.93445
  23666216.52345        38.600          16.300  
  20669271.891 6      2128.883 6      1658.87048   -671697.539 6   -500726.61748
  20669267.09048        46.600          34.400  
  20833552.164 7       170.932 7       133.19147   -104560.555 7    -76185.85247
  20833547.32447        48.300          33.700  
  24658788.938 3     -2888.930 3                    722108.074 3
                        35.700  
  24724540.031 4      3889.001 4      3030.39845  -1023349.980 4   -592215.82845
  24724535.89545        37.400          16.300  
  22927349.484 5      3707.074 5      2888.62946  -1022079.063 5   -750809.72346
  22927344.71546        40.900          22.300  
  20427782.328 7      1683.640 7      1311.92748   -523518.738 7   -382490.89148
  20427778.16048        51.300          36.800  
  20340264.445 7      1214.414 7       946.29748   -322037.086 7   -248385.59448
  20340259.05548        50.200          39.500  
  22576812.961 6     -2369.751 6     -1846.55447    656316.695 6    494776.85947
  22576809.43047        44.300          26.900  
 08  1 20 20 20 15.0000000  0 10G02G05G06G10G12G16G21G24G29G30   -0.000025066
  23473098.469 6     -2375.873 6     -1851.32746    678588.254 6    503089.13746
  23473092.39546        43.400          25.500  
  23668903.914 4     -2821.349 4     -2198.44745    715792.402 4    541913.16845
  23668902.00845        39.100          14.800  
  20667249.906 6      2125.326 6      1656.10048   -682324.168 6   -509007.11748
  20667245.12548        45.600          35.200  
  20833393.898 7       166.187 7       129.49848   -105391.488 7    -76833.34048
  20833389.02348        48.400          34.400  
  24661538.227 3     -2890.415 3                    736560.148 3
                        36.200  
  24720842.781 3      3886.038 3      3028.07445  -1042780.168 3   -607356.19945
  24720838.07445        36.700          16.300  
  22923824.031 5      3704.904 5      2886.93346  -1040603.582 5   -765244.38746
  22923819.75846        41.200          21.700  
  20426183.828 7      1680.198 7      1309.24548   -531919.727 7   -389037.11748
  20426179.60248        51.300          36.900  
  20339112.250 7      1210.620 7       943.34148   -328090.188 7   -253102.30148
  20339107.52748        50.200          39.800  
  22579070.742 6     -2372.724 6     -1848.87446    668180.316 6    504021.23046
  22579067.02346        45.200          25.900  
 08  1 20 20 20 20.0000000  0 10G02G05G06G10G12G16G21G24G29G30   -0.000027912
  23475361.500 6     -2377.983 6     -1852.97246    690478.168 6    512353.99646
  23475355.06346        43.200          25.200  
  23671589.953 4     -2823.417 4     -2200.06845    729909.488 4    552913.50845
  23671588.50845        38.600          15.600  
  20665231.602 7      2121.558 7      1653.16248   -692931.957 7   -517272.92648
  20665226.43448        47.600          34.500  
  20833240.398 7       161.258 7       125.65548   -106197.777 7    -77461.61748
  20833235.35548        49.100          34.400  
  24664289.352 3     -2892.059 3                    751020.441 3
                        35.700  
  24717147.914 4      3882.872 4      3025.61645  -1062194.527 4   -622484.28145
  24717143.71545        37.700          15.600  
  22920301.984 5      3702.541 5      2885.09846  -1059116.285 5   -779669.87546
  22920296.83646        41.800          20.400  
  20424588.656 7      1676.551 7      1306.40248   -540302.480 7   -395569.12948
  20424584.70348        51.200          36.400  
  20337963.883 7      1206.630 7       940.23148   -334123.340 7   -257803.45748
  20337959.23048        51.200          39.200  
  22581331.125 6     -2375.899 6     -1851.34846    680059.813 6    513277.97346
  22581327.68046        45.000          26.200  
 08  1 20 20 20 25.0000000  0 10G02G05G06G10G12G16G21G24G29G30   -0.000030752
  23477626.273 6     -2379.963 6     -1854.51646    702377.984 6    521626.57446
  23477619.93446        43.600          25.400  
  23674278.406 5     -2825.353 5     -2201.56645    744036.254 5    563921.33645
  23674276.50445        39.500          16.300  
  20663216.359 7      2117.934 7      1650.33848   -703521.625 7   -525524.61348
  20663211.59048        48.000          35.000  
  20833091.578 7       156.470 7       121.92548   -106980.129 7    -78071.24248
  20833086.77348        48.300          34.800  
  24667042.766 2     -2893.604 2                    765488.461 2
                        34.300  
  24713457.320 3      3879.815 3      3023.23445  -1081593.602 3   -637600.45345
  24713451.86745        37.300          16.300  
  22916781.219 5      3700.298 5      2883.34846  -1077617.773 5   -794086.61346
  22916776.09046        41.300          21.100  
  20422996.406 7      1673.041 7      1303.67048   -548667.684 7   -402087.47748
  20422992.53548        50.300          36.900  
  20336819.688 7      1202.777 7       937.22948   -340137.227 7   -262489.60248
  20336814.75448        50.700          39.900  
  22583594.352 6     -2378.937 6     -1853.71347    691954.496 6    522546.53947
  22583591.12947        44.500          27.000  
 08  1 20 20 20 30.0000000  0 10G02G05G06G10G12G16G21G24G29G30   -0.000033590
  23479892.086 6     -2381.780 6     -1855.93147    714286.883 6    530906.23047
  23479886.12547        44.500          27.000  
  23676968.820 5     -2827.134 5     -2202.96645    758171.926 5    574936.16445
  23676966.68845        39.800          17.800  
  20661204.680 6      2114.475 6      1647.64248   -714094.000 6   -533762.82448
  20661199.51648        47.200          35.700  
  20832947.211 7       151.849 7       118.32448   -107739.375 7    -78662.86348
  20832942.84448        47.600          36.000  
  24669797.875 2     -2894.952 2                    779963.219 2
                        35.400  
  24709768.359 4      3876.979 4      3021.02045  -1100978.496 4   -652705.55545
  24709762.92645        38.100          16.900  
  22913262.555 6      3698.235 6      2881.73946  -1096108.949 6   -808495.30946
  22913257.17246        42.500          22.000  
  20421407.586 7      1669.698 7      1301.06548   -557016.176 7   -408592.80148
  20421403.80148        50.500          37.300  
  20335678.852 7      1199.089 7       934.35548   -346132.672 7   -267161.37948
  20335673.96948        48.900          40.800  
  22585860.477 6     -2381.808 6     -1855.94847    703863.535 6    531826.28147
  22585857.25447        43.700          27.000  
 08  1 20 20 20 35.0000000  0 10G02G05G06G10G12G16G21G24G29G30   -0.000036423
  23482160.094 6     -2383.730 6     -1857.45246    726205.531 6    540193.48846
  23482154.47346        44.000          26.100  
  23679660.453 5     -2829.034 5     -2204.43745    772317.094 5    585958.34845
  23679658.41445        39.700          16.900  
  20659196.508 7      2110.885 7      1644.84548   -724648.426 7   -541987.05148
  20659191.22348        48.300          36.200  
  20832807.219 6       147.094 6       114.61748   -108474.844 6    -79235.94948
  20832802.89548        47.500          36.100  
  24672553.117 2     -2896.466 2                    794445.551 2
                        34.600  
  24706082.578 4      3873.948 4      3018.66345  -1120348.234 4   -667798.86745
  24706077.15645        38.200          17.400  
  22909745.461 6      3696.029 6      2880.02546  -1114589.094 6   -822895.43446
  22909740.44146        42.600          21.700  
  20419822.391 7      1666.226 7      1298.35748   -565347.305 7   -415084.58648
  20419818.50448        50.800          37.300  
  20334541.539 7      1195.266 7       931.37748   -352109.000 7   -271818.26648
  20334537.14848        50.500          40.500  
  22588129.766 6     -2384.805 6     -1858.29047    715787.559 6    541117.73047
  22588126.85547        45.600          27.600  
 08  1 20 20 20 40.0000000  0 10G02G05G06G10G12G16G21G24G29G30   -0.000039253
  23484429.797 6     -2385.813 6     -1859.07147    738134.598 6    549488.84447
  23484424.81347        44.100          26.400  
  23682354.195 5     -2831.038 5     -2206.00245    786472.281 5    596988.35945
  23682351.59845        40.000          16.900  
  20657191.203 7      2107.167 7      1641.94748   -735184.258 7   -550196.78548
  20657186.10248        48.200          36.600  
  20832671.719 7       142.212 7       110.81648   -109185.906 7    -79790.03148
  20832667.17648        48.100          36.200  
  24675310.758 1                                    808935.82811
                        33.800  
  24702399.922 4      3870.826 4      3016.22845  -1139702.363 4   -682880.00845
  24702394.00445        38.400          16.900  
  22906231.789 5      3693.715 5      2878.21646  -1133057.668 5   -837286.51646
  22906226.03946        42.200          21.800  
  20418240.734 7      1662.629 7      1295.55548   -573660.449 7   -421562.36348
  20418236.47348        51.200          37.400  
  20333408.086 7      1191.325 7       928.30448   -358065.625 7   -276459.78548
  20333403.51648        50.300          40.700  
  22590401.938 6     -2387.904 6     -1860.70247    727727.078 6    550421.23847
  22590398.43847        45.200          29.000  
 08  1 20 20 20 45.0000000  0 10G02G05G06G10G12G16G21G24G29G30   -0.000042076
  23486702.719 6     -2387.739 6     -1860.57146    750073.293 6    558791.69946
  23486696.25046        43.900          25.700  
  23685049.898 5     -2832.976 5     -2207.51145    800637.160 5    608025.91445
  23685047.48845        41.500          17.400  
  20655190.047 7      2103.523 7      1639.11248   -745701.871 7   -558392.34448
  20655184.87548        47.600          36.600  
  20832541.023 7       137.454 7       107.10948   -109873.176 7    -80325.57848
  20832536.71948        49.500          37.600  
  24678070.406 1     -2899.59911                    823433.824 1
                        33.400  
  24698719.234 4      3867.788 4      3013.86345  -1159041.305 4   -697949.32045
  24698714.02045        38.500          15.600  
  22902719.344 6      3691.447 6      2876.45646  -1151514.902 6   -851668.79746
  22902713.78946        44.000          22.800  
  20416662.117 7      1659.116 7      1292.82148   -581956.031 7   -428026.46948
  20416658.22748        50.200          37.000  
  20332277.602 7      1187.473 7       925.30548   -364002.988 7   -281086.30948
  20332273.35948        49.000          41.000  
  22592677.242 6     -2390.951 6     -1863.07347    739681.832 6    559736.60247
  22592673.52747        44.500          28.100  
 08  1 20 20 20 50.0000000  0 10G02G05G06G10G12G16G21G24G29G30   -0.000044899
  23488975.945 6     -2389.583 6     -1862.01447    762021.211 6    568101.77047
  23488970.05147        43.800          26.800  
  23687747.031 5     -2834.710 5     -2208.86845    814810.711 5    619070.25445
  23687744.28145        40.700          18.300  
  20653191.523 7      2100.087 7      1636.43248   -756202.309 7   -566574.50448
  20653186.84448        48.800          36.700  
  20832414.734 7       132.830 7       103.50448   -110537.324 7    -80843.09848
  20832410.21948        48.500          37.200  
  24680831.344 1     -2900.938 1                    837938.516 1
                        32.900  
  24695041.008 5      3864.934 5      3011.63945  -1178365.973 5   -713007.51645
  24695036.10945        39.300          15.600  
  22899208.492 6      3689.424 6      2874.87446  -1169962.023 6   -866043.16846
  22899203.10546        43.800          22.200  
  20415086.664 7      1655.812 7      1290.24548   -590235.090 7   -434477.69148
  20415082.13348        50.900          37.400  
  20331151.680 7      1183.797 7       922.44148   -369921.973 7   -285698.51648
  20331147.32048        49.600          40.700  
  22594954.609 6     -2393.750 6     -1865.25847    751650.582 6    569062.89147
  22594950.86747        44.700          28.200  
 08  1 20 20 20 55.0000000  0 10G02G05G06G10G12G16G21G24G29G30   -0.000047714
  23491251.461 6     -2391.495 6     -1863.50046    773978.684 6    577419.27046
  23491245.32046        43.600          26.200  
  23690445.766 5     -2836.570 5     -2210.30945    828993.559 5    630121.80145
  23690443.18445        40.200          17.800  
  20651197.172 7      2096.507 7      1633.64248   -766684.844 7   -574742.71548
  20651191.85548        47.800          36.200  
  20832293.117 7       128.115 7        99.83048   -111177.898 7    -81342.24648
  20832288.15248        48.000          36.800  
  24683593.445 1     -2902.362 1                    852450.324 1
                        32.800  
  24691367.086 5      3861.917 5      3009.28145  -1197675.555 5   -728053.91845
  24691361.63345        39.900          16.900  
  22895700.813 6      3687.240 6      2873.17346  -1188398.223 6   -880409.03146
  22895695.03146        44.900          22.500  
  20413514.469 7      1652.351 7      1287.54548   -598496.844 7   -440915.41848
  20413510.20348        50.400          36.800  
  20330029.016 7      1179.990 7       919.47348   -375821.922 7   -290295.87948
  20330024.74648        49.300          40.800  
  22597235.141 6     -2396.716 6     -1867.57047    763634.160 6    578400.74247
  22597231.65647        45.000          28.700  
 08  1 20 20 21  0.0000000  0 10G02G05G06G10G12G16G21G24G29G30   -0.000050528
  23493529.164 6     -2393.337 6     -1864.93746    785945.367 6    586743.95346
  23493522.77046        44.400          25.300  
  23693146.352 5     -2838.354 5     -2211.70045    843185.328 5    641180.30145
  23693143.44545        39.600          17.400  
  20649205.164 7      2093.010 7      1630.91648   -777149.895 7   -582897.29348
  20649200.14548        49.000          35.300  
  20832175.227 7       123.462 7        96.20348   -111795.207 7    -81823.26248
  20832170.52348        48.100          36.300  
  24686355.328 1     -2903.768 1                    866969.164 1
                        33.100  
  24687694.914 5      3859.019 5      3007.02645  -1216970.648 5   -743089.04745
  24687690.02345        39.700          18.300  
  22892194.469 6      3685.140 6      2871.53746  -1206823.922 6   -894766.71546
  22892189.20746        43.800          22.600  
  20411945.359 7      1648.984 7      1284.92248   -606741.766 7   -447340.02748
  20411941.06348        50.700          36.000  
  20328909.727 7      1176.269 7       916.57248   -381703.266 7   -294878.73848
  20328905.46548        49.800          39.800  
  22599518.008 6     -2399.585 6     -1869.80947    775632.086 6    587749.78547
  22599514.37947        45.000          27.000  
 08  1 20 20 21  5.0000000  0 10G02G05G06G10G12G16G21G24G29G30   -0.000053337
  23495807.250 6     -2395.128 6     -1866.32946    797921.008 6    596075.59846
  23495801.39846        43.300          26.200  
  23695848.539 5     -2840.078 5     -2213.05245    857385.719 5    652245.55945
  23695845.73845        40.200          18.300  
  20647217.234 6      2089.555 6      1628.22348   -787597.672 6   -591038.41048
  20647212.74648        47.000          35.800  
  20832062.539 7       118.877 7        92.63248   -112389.594 7    -82286.42248
  20832057.66448        48.800          35.900  
  24689117.867 1     -2905.054 1                    881494.434 1
                        32.600  
  24684025.898 5      3856.105 5      3004.76545  -1236251.172 5   -758112.87145
  24684021.46145        40.000          18.300  
  22888690.031 6      3683.068 6      2869.92346  -1225239.262 6   -909116.32846
  22888684.50446        44.500          22.300  
  20410379.906 7      1645.660 7      1282.33348   -614970.066 7   -453751.69148
  20410375.52048        49.600          35.600  
  20327794.102 7      1172.585 7       913.70248   -387566.191 7   -299447.24648
  20327789.74248        48.200          39.700  
  22601803.961 6     -2402.419 6     -1872.00946    787644.184 6    597109.82846
  22601800.89146        43.900          25.800  
 08  1 20 20 21 10.0000000  0 10G02G05G06G10G12G16G21G24G29G30   -0.000056145
  23498087.125 6     -2396.778 6     -1867.62046    809904.898 6    605413.69546
  23498081.73046        43.400          24.900  
  23698552.789 5     -2841.677 5     -2214.28945    871594.102 5    663317.00445
  23698549.50445        40.600          18.600  
  20645232.172 7      2086.234 7      1625.63748   -798028.844 7   -599166.59848
  20645227.69548        48.000          35.500  
  20831953.695 7       114.413 7        89.15248   -112961.660 7    -82732.18448
  20831949.07048        48.300          36.000  
  24691884.734 1     -2906.301 1                    896025.938 1
                        32.600  
  24680359.984 5      3853.404 5      3002.64845  -1255518.191 5   -773126.11345
  24680354.83645        39.800          18.600  
  22885187.156 6      3681.152 6      2868.42746  -1243645.020 6   -923458.46546
  22885182.27046        44.500          22.200  
  20408816.758 7      1642.474 7      1279.85048   -623182.438 7   -460150.94148
  20408812.55948        50.700          35.500  
  20326681.555 7      1169.052 7       910.94948   -393411.453 7   -304001.99248
  20326677.28548        48.800          39.300  
  22604091.516 6     -2405.112 6     -1874.11547    799669.742 6    606480.40247
  22604088.70747        43.800          26.500  
 08  1 20 20 21 15.0000000  0 10G02G05G06G10G12G16G21G24G29G30   -0.000058947
  23500369.672 6     -2398.563 6     -1869.00646    821897.711 6    614758.72746
  23500363.76246        42.800          24.100  
  23701257.461 5     -2843.388 5     -2215.62246    885811.043 5    674395.11346
  23701254.76246        41.000          19.300  
  20643250.805 6      2082.795 6      1622.95548   -808442.820 6   -607281.37548
  20643246.28948        47.500          35.600  
  20831848.867 7       109.820 7        85.57348   -113510.758 7    -83160.05148
  20831843.98448        48.800          35.700  
  24694650.453 1     -2907.567 1                    910563.773 1
                        31.800  
  24676696.484 5      3850.537 5      3000.41845  -1274770.875 5   -788128.20345
  24676691.50845        39.500          18.300  
  22881687.266 6      3679.115 6      2866.84046  -1262040.594 6   -937792.66446
  22881681.44546        45.200          22.800  
  20407257.109 7      1639.170 7      1277.27548   -631378.285 7   -466537.31648
  20407253.26648        51.200          35.400  
  20325573.039 7      1165.384 7       908.09048   -399238.371 7   -308542.44148
  20325568.72348        48.400          39.300  
  22606383.047 6     -2407.905 6     -1876.28747    811709.266 6    615861.84047
  22606380.16447        44.900          26.500  
 08  1 20 20 21 20.0000000  0 10G02G05G06G10G12G16G21G24G29G30   -0.000061747
  23502653.656 6     -2400.476 6     -1870.49846    833900.090 6    624111.21546
  23502647.40646        42.800          24.600  
  23703965.602 5     -2845.228 5     -2217.06246    900037.184 5    685480.42246
  23703962.03546        42.000          19.000  
  20641272.141 7      2079.230 7      1620.18048   -818838.973 7   -615382.27348
  20641267.89148        47.800          36.200  
  20831748.883 7       105.115 7        81.90848   -114036.332 7    -83569.59048
  20831744.03148        48.500          35.500  
  24697415.836 1                                    925108.76611
                        30.500  
  24673036.156 5      3847.541 5      2998.07746  -1294008.578 5   -803118.59046
  24673030.52046        40.000          19.900  
  22878188.414 6      3676.951 6      2865.15446  -1280425.348 6   -952118.43446
  22878183.04346        45.300          22.500  
  20405700.891 7      1635.731 7      1274.59548   -639556.941 7   -472910.29348
  20405697.38748        50.700          35.600  
  20324467.375 7      1161.589 7       905.13648   -405046.316 7   -313068.12148
  20324463.39548        48.400          39.200  
  22608677.266 6     -2410.838 6     -1878.57346    823763.457 6    625254.70346
  22608673.72346        44.900          25.800  
 08  1 20 20 21 25.0000000  0 10G02G05G06G10G12G16G21G24G29G30   -0.000064541
  23504939.367 5     -2402.221 5     -1871.85946    845911.195 5    633470.51246
  23504933.55946        42.000          23.600  
  23706673.883 5     -2846.927 5     -2218.38345    914271.820 5    696572.33645
  23706670.95745        41.300          18.600  
  20639297.313 7      2075.801 7      1617.50548   -829217.977 7   -623469.80148
  20639293.13748        49.500          36.400  
  20831653.203 7       100.542 7        78.34348   -114539.043 7    -83961.30548
  20831648.72348        48.100          35.700  
  24700185.133 1                                                
                        29.400  
  24669377.047 5      3844.703 5      2995.87746  -1313232.094 5   -818097.97746
  24669372.54346        39.200          20.100  
  22874691.313 6      3674.927 6      2863.58346  -1298799.984 6   -966436.35246
  22874686.50846        45.100          22.300  
  20404147.867 7      1632.445 7      1272.03548   -647719.164 7   -479270.46948
  20404144.01248        50.600          36.200  
  20323365.742 7      1157.938 7       902.29048   -410836.004 7   -317579.57048
  20323361.66048        49.700          40.200  
  22610973.867 6     -2413.629 6     -1880.74947    835831.602 6    634658.44947
  22610970.57847        45.000          26.800  
 08  1 20 20 21 30.0000000  0 10G02G05G06G10G12G16G21G24G29G30   -0.000067335
  23507224.359 5     -2403.520 5     -1872.86946    857928.797 5    642834.85546
  23507220.16446        41.600          25.100  
  23709384.664 6     -2848.284 6     -2219.44946    928513.242 6    707669.58246
  23709380.68846        42.600          19.600  
  20637324.492 7      2072.708 7      1615.10048   -839581.520 7   -631545.30148
  20637320.21948        49.900          38.000  
  20831561.484 7        96.387 7        75.11148   -115020.980 7    -84336.85948
  20831556.71148        49.400          36.600  
  24702956.586 1                                                
                        32.600  
  24665722.172 5      3842.212 5      2993.93446  -1332443.152 5   -833067.64546
  24665716.84446        40.500          20.100  
  22871196.805 6      3673.188 6      2862.22146  -1317165.922 6   -980747.45746
  22871191.34446        43.200          22.800  
  20402597.336 7      1629.492 7      1269.73548   -655866.625 7   -485619.14548
  20402593.23448        50.800          36.100  
  20322268.047 7      1154.651 7       899.73048   -416609.258 7   -322078.21948
  20322262.73048        51.500          40.800  
  22613272.758 6     -2416.109 6     -1882.68447    847912.148 6    644071.87147
  22613269.04347        44.300          26.600  
 08  1 20 20 21 35.0000000  0 10G02G05G06G10G12G16G21G24G29G30   -0.000070124
  23509514.961 5     -2405.114 5     -1874.12846    869954.367 5    652205.49646
  23509508.64846        40.400          22.200  
  23712096.180 5     -2850.733 5     -2221.31846    942766.906 5    718776.17246
  23712093.40246        39.500          19.900  
  20635355.852 7      2069.247 7      1612.40448   -849927.754 7   -639607.32048
  20635351.69548        50.000          37.800  
  20831474.383 7        91.887 7        71.59848   -115480.414 7    -84694.84848
  20831469.36748        49.100          36.900  
  24705729.852 2                                                
                        35.100  
  24662068.750 5      3839.758 5      2992.00746  -1351641.941 5   -848027.68046
  24662063.41846        40.600          20.900  
  22867703.461 6      3670.852 6      2860.40246  -1335520.180 6   -995049.46546
  22867698.53546        42.500          22.200  
  20401050.203 7      1626.080 7      1267.07348   -663997.023 7   -491954.50848
  20401046.32048        50.000          36.200  
  20321172.375 7      1150.909 7       896.81848   -422363.805 7   -326562.30948
  20321167.53948        51.200          40.900  
  22615574.820 5     -2419.499 5     -1885.33147    860009.641 5    653498.52747
  22615571.07447        42.300          27.500  
 08  1 20 20 21 40.0000000  0 10G02G05G06G10G12G16G21G24G29G30   -0.000072910
  23511804.961 5     -2406.839 5     -1875.43547    881988.563 5    661582.67247
  23511798.93447        40.300          27.200  
  23714809.617 3     -2851.508 3     -2221.97045    957024.445 3    729886.02345
  23714806.93445        36.600          17.800  
  20633390.438 7      2065.997 7      1609.86348   -860257.738 7   -647656.63748
  20633385.86348        49.400          38.300  
  20831391.141 7        87.429 7        68.12848   -115917.559 7    -85035.48848
  20831385.75448        49.100          37.000  
  24708501.250 1                                    983351.62911
                        31.800  
  24658417.523 3      3836.689 3      2989.65246  -1370825.387 3   -862975.94146
  24658413.08246        37.300          20.400  
  22864212.930 5      3669.279 5      2859.19046  -1353866.574 5  -1009345.41446
  22864207.11346        40.200          20.900  
  20399505.805 7      1623.060 7      1264.71948   -672112.324 7   -498278.10248
  20399501.96148        50.000          36.700  
  20320080.938 7      1147.484 7       894.14249   -428101.227 7   -331033.02049
  20320076.09049        49.900          41.800  
  22617878.578 6     -2421.509 6     -1886.87747    872117.184 6    662932.91047
  22617875.19547        43.300          29.800  
 08  1 20 20 21 45.0000000  0 10G02G05G06G10G12G16G21G24G29G30   -0.000075695
  23514096.039 5     -2408.503 5     -1876.76046    894031.078 5    670966.47346
  23514091.14846        40.000          25.700  
  23717523.516 3     -2852.927 3     -2223.06145    971289.082 3    741001.32845
  23717521.00045        37.000          17.400  
  20631427.680 7      2062.809 7      1607.38548   -870571.781 7   -655693.56348
  20631423.87148        50.200          37.900  
  20831311.719 7        83.059 7        64.72148   -116332.852 7    -85359.09448
  20831306.89148        48.700          36.700  
  24711274.234 1                                    997925.04711
                        32.000  
  24654770.477 3      3833.994 3      2987.52046  -1389995.355 3   -877913.54346
  24654765.60946        36.100          19.600  
  22860723.281 5      3667.545 5      2857.82746  -1372204.301 5  -1023634.54746
  22860717.85946        40.400          20.900  
  20397964.406 7      1620.007 7      1262.34548   -680212.359 7   -504589.82848
  20397960.87548        50.500          36.500  
  20318992.109 7      1144.070 7       891.48449   -433821.578 7   -335490.43849
  20318987.55549        50.700          41.300  
  22620186.305 6     -2424.001 6     -1888.83247    884237.191 6    672377.07047
  22620181.73047        43.400          29.800  
 08  1 20 20 21 50.0000000  0 10G02G05G06G10G12G16G21G24G29G30   -0.000078474
  23516389.859 5     -2410.314 5     -1878.16547    906082.648 5    680357.29747
  23516384.70347        40.500          26.700  
  23720240.469 4     -2854.656 4     -2224.40345    985562.359 4    752123.34445
  23720236.79345        37.600          16.300  
  20629468.289 7      2059.330 7      1604.67148   -880868.430 7   -663716.91848
  20629463.89148        50.000          37.300  
  20831236.922 7        78.425 7        61.11148   -116724.977 7    -85664.64848
  20831231.89848        47.600          35.800  
  24714049.680 1     -2916.03311                   1012505.211 1
                        32.200  
  24651125.727 3      3831.098 3      2985.26546  -1409150.844 3   -892839.86746
  24651120.13346        36.100          19.300  
  22857234.523 5      3665.459 5      2856.19846  -1390531.598 5  -1037915.53546
  22857230.42646        39.400          20.100  
  20396426.117 7      1616.660 7      1259.73448   -688295.660 7   -510888.49648
  20396422.40248        50.900          36.300  
  20317907.383 7      1140.360 7       888.59149   -439523.379 7   -339933.39549
  20317902.42249        50.700          41.500  
  22622494.539 6     -2426.823 6     -1891.03147    896371.309 6    681832.22347
  22622490.68047        43.200          29.500  
 08  1 20 20 21 55.0000000  0 10G02G05G06G10G12G16G21G24G29G30   -0.000081253
  23518683.961 5     -2411.662 5     -1879.21546    918140.957 5    689753.37146
  23518679.15646        39.700          26.200  
  23722957.000 3     -2855.938 3     -2225.40645    999842.051 3    763250.37145
  23722954.24645        36.900          16.300  
  20627512.195 7      2056.270 7      1602.28748   -891149.777 7   -671728.35548
  20627507.48448        48.600          37.600  
  20831166.203 6        74.280 6        57.88348   -117096.379 6    -85954.06348
  20831160.98848        47.200          35.700  
  24716824.367 1     -2916.892 1                   1027089.672 1
                        30.500  
  24647482.844 4      3828.606 4      2983.33346  -1428293.875 4   -907756.53146
  24647477.09046        37.700          19.600  
  22853749.195 5      3663.807 5      2854.91646  -1408850.633 5  -1052190.11346
  22853744.41046        39.400          20.900  
  20394890.883 7      1613.753 7      1257.47148   -696364.426 7   -517175.85248
  20394887.40648        50.300          36.700  
  20316824.992 7      1137.094 7       886.04649   -445208.848 7   -344363.62549
  20316820.32849        50.000          41.300  
  22624806.063 5     -2429.212 5     -1892.89347    908517.371 5    691296.68847
  22624801.50847        42.300          29.200  
 08  1 20 20 22  0.0000000  0 10G02G05G06G10G12G16G21G24G29G30   -0.000084026
  23520980.242 5     -2413.357 5     -1880.54546    930207.742 5    699156.09446
  23520975.32846        39.400          25.200  
  23725675.266 4     -2857.566 4     -2226.67645   1014129.883 4    774383.75045
  23725672.68445        38.100          15.600  
  20625558.766 7      2052.902 7      1599.66548   -901414.289 7   -679726.68048
  20625554.33648        49.000          37.800  
  20831099.813 7        69.778 7        54.37348   -117445.270 7    -86225.93048
  20831094.86748        48.900          36.400  
  24719598.031 1                                                
                        29.600  
  24643843.023 4      3825.791 4      2981.13246  -1447422.828 4   -922662.19146
  24643837.00446        38.800          20.900  
  22850264.938 5      3661.823 5      2853.37046  -1427159.746 5  -1066456.96546
  22850260.31646        40.000          20.600  
  20393358.695 7      1610.517 7      1254.95048   -704417.012 7   -523450.60248
  20393354.84448        50.800          36.500  
  20315746.797 7      1133.481 7       883.23248   -450876.254 7   -348779.78548
  20315742.24248        49.600          40.800  
  22627119.883 6     -2431.923 6     -1895.00247    920676.984 6    700771.69547
  22627115.58247        43.000          27.600  
 08  1 20 20 22  5.0000000  0 10G02G05G06G10G12G16G21G24G29G30   -0.000086800
  23523277.281 4     -2414.727 4     -1881.60646    942281.375 4    708564.12546
  23523273.02346        38.300          24.300  
  23728395.852 3     -2858.886 3     -2227.69845   1028424.313 3    785522.24245
  23728392.81345        36.200          16.300  
  20623607.828 6      2049.806 6      1597.25348   -911663.320 6   -687712.94548
  20623603.64148        47.200          37.600  
  20831037.344 7        65.596 7        51.11248   -117773.250 7    -86481.49248
  20831032.82448        48.100          37.400  
  24722378.008 1                                                
                        28.900  
  24640204.898 3      3823.298 3      2979.19546  -1466539.316 3   -937558.16846
  24640199.00446        37.300          21.100  
  22846782.617 4      3660.148 4      2852.06446  -1445460.484 4  -1080717.28546
  22846777.65646        38.900          20.400  
  20391829.055 7      1607.585 7      1252.66648   -712454.938 7   -529713.93048
  20391825.04348        50.800          36.300  
  20314671.164 7      1130.206 7       880.67948   -456527.285 7   -353183.18048
  20314666.74248        48.300          41.200  
  22629436.102 6     -2434.325 6     -1896.87647    932848.609 6    710256.07447
  22629432.08247        42.700          28.300  
 08  1 20 20 22 10.0000000  0 10G02G05G06G10G12G16G21G24G29G30   -0.000089569
  23525576.703 5     -2416.325 5     -1882.84846    954363.000 5    717978.36746
  23525571.63346        39.800          24.400  
  23731117.672 3     -2860.345 3     -2228.83545   1042726.039 3    796666.41845
  23731114.33245        37.200          17.400  
  20621661.344 7      2046.534 7      1594.70148   -921895.988 7   -695686.44948
  20621656.46148        49.000          37.900  
  20830979.023 7        61.194 7        47.68448   -118079.219 7    -86719.91448
  20830975.00048        48.000          37.100  
  24725156.492 1                                   1070876.18011
                        28.900  
  24636570.141 5      3820.568 5      2977.06746  -1485642.156 5   -952443.50446
  24636563.90646        39.900          21.800  
  22843302.398 5      3658.295 5      2850.61946  -1463751.961 5  -1094970.37946
  22843296.72346        40.500          20.900  
  20390302.234 7      1604.464 7      1250.23148   -720477.258 7   -535965.08648
  20390298.85248        50.200          36.400  
  20313599.125 7      1126.706 7       877.95249   -462160.816 7   -357572.93849
  20313594.81649        50.000          41.500  
  22631753.781 5     -2436.891 5     -1898.87447    945033.063 5    719750.44547
  22631750.50847        41.800          27.400  
 08  1 20 20 22 15.0000000  0 10G02G05G06G10G12G16G21G24G29G30   -0.000092335
  23527878.000 5     -2417.855 5     -1884.04146    966452.277 5    727398.57446
  23527871.97746        41.600          24.800  
  23733839.945 3     -2861.834 3     -2230.00145   1057035.211 3    807816.42245
  23733837.44145        36.800          16.900  
  20619717.266 7      2043.310 7      1592.19248   -932112.539 7   -703647.41048
  20619712.35948        48.000          38.200  
  20830925.086 7        56.853 7        44.30148   -118363.484 7    -86941.41848
  20830920.89848        47.800          38.200  
  24727933.500 1                                                
                        26.400  
  24632937.875 5      3817.938 5      2975.01246  -1504731.844 5   -967318.56646
  24632931.50046        40.300          22.800  
  22839823.711 5      3656.458 5      2849.19146  -1482034.250 5  -1109216.33646
  22839817.80146        40.600          21.700  
  20388778.539 7      1601.377 7      1247.82748   -728484.141 7   -542204.21948
  20388774.86748        50.000          36.600  
  20312529.883 7      1123.261 7       875.27049   -467777.121 7   -361949.28549
  20312526.30149        48.000          42.000  
  22634075.273 5     -2439.466 5     -1900.87747    957230.395 5    729254.83247
  22634072.01647        41.400          27.700  
 08  1 20 20 22 20.0000000  0  9G02G05G06G10G16G21G24G29G30   -0.000095098
  23530178.648 6                                    978548.367 6    736824.07846
  23530173.44946        42.600          24.700  
  23736564.875 4     -2863.061 4     -2230.95845   1071350.516 4    818971.21145
  23736561.26645        38.500          17.400  
  20617775.570 7                                   -942313.941 7   -711596.55948
  20617771.12548        49.200          38.400  
  20830874.711 7                                   -118626.934 7    -87146.70748
  20830870.71548        49.200          37.400  
  24629306.359 5                                  -1523809.156 5   -982183.97346
  24629301.16846        41.100          22.800  
  22836346.469 5      3654.848 5      2847.93346  -1500308.492 5  -1123456.00046
  22836340.16846        40.700          20.900  
  20387257.953 7                                   -736476.660 7   -548432.16048
  20387253.86348        50.700          37.000  
  20311464.563 7                                   -473377.230 7   -366313.01249
  20311460.37949        49.300          41.700  
  22636398.016 5                                    969439.316 5    738768.28147
  22636394.73447        41.000          27.100  
 08  1 20 20 22 25.0000000  0  9G02G05G06G10G16G21G24G29G30   -0.000097860
  23532482.453 6     -2420.648 6     -1886.21047    990651.605 6    746255.12947
  23532476.71547        43.700          27.600  
  23739289.469 4     -2864.426 4     -2232.02445   1085672.645 4    830131.33245
  23739287.13345        37.900          18.300  
  20615837.719 7      2037.136 7      1587.37948   -952499.621 7   -719533.45348
  20615833.10948        49.600          38.400  
  20830829.063 7        48.462 7        37.76348   -118869.242 7    -87335.52048
  20830824.49248        48.600          37.300  
  24625678.680 5      3812.908 5      2971.09646  -1542873.695 5   -997039.45346
  24625673.52746        41.300          22.300  
  22832871.078 5      3653.105 5      2846.57346  -1518574.020 5  -1137688.86746
  22832864.20746        41.500          21.100  
  20385739.758 7      1595.508 7      1243.25148   -744454.199 7   -554648.41448
  20385735.66448        50.900          37.000  
  20310402.625 7      1116.655 7       870.12049   -478960.504 7   -370663.61349
  20310398.30949        49.600          42.000  
  22638724.414 5     -2444.236 5     -1904.60347    981660.496 5    748291.29747
  22638720.18447        40.200          27.200  
 08  1 20 20 22 30.0000000  0  9G02G05G06G10G16G21G24G29G30   -0.000100620
  23534786.773 6     -2422.052 6     -1887.31247   1002761.863 6    755691.68847
  23534781.47347        43.200          27.900  
  23742016.289 3     -2865.749 3     -2233.05045   1100001.391 3    841296.58245
  23742013.55145        37.100          17.400  
  20613902.047 7      2034.043 7      1584.96948   -962669.836 7   -727458.30148
  20613897.82048        49.600          39.100  
  20830786.445 7        44.245 7        34.47948   -119090.469 7    -87507.91448
  20830782.18048        48.600          37.700  
  24622053.828 5      3810.381 5      2969.12646  -1561925.602 5  -1011885.08646
  24622047.92246        40.400          23.000  
  22829396.141 5      3651.433 5      2845.27546  -1536831.182 5  -1151915.24346
  22829390.03146        39.400          21.100  
  20384224.695 7      1592.569 7      1240.96348   -752417.043 7   -560853.23048
  20384220.70748        49.900          36.500  
  20309343.242 7      1113.346 7       867.54449   -484527.234 7   -375001.33249
  20309339.05549        49.000          42.100  
  22641052.148 5     -2446.634 5     -1906.46947    993893.668 5    757823.64547
  22641048.39547        39.900          26.700  
 08  1 20 20 22 35.0000000  0  9G02G05G06G10G16G21G24G29G30   -0.000103376
  23537093.086 6     -2423.426 6     -1888.38547   1014878.992 6    765133.61347
  23537087.03547        43.700          26.800  
  23744744.039 4     -2867.032 4     -2234.04445   1114336.551 4    852466.80545
  23744741.32045        37.800          17.800  
  20611969.844 7      2030.957 7      1582.56248   -972824.621 7   -735371.10948
  20611965.77348        49.100          38.200  
  20830749.047 7        40.058 7        31.21648   -119290.758 7    -87663.99248
  20830744.44148        48.600          37.000  
  24618430.500 5      3807.833 5      2967.14146  -1580964.766 5  -1026720.79346
  24618425.04346        40.600          22.800  
  22825923.180 5      3649.735 5      2843.94446  -1555079.855 5  -1166134.96146
  22825917.68846        39.200          21.100  
  20382711.867 7      1589.633 7      1238.67448   -760365.207 7   -567046.60248
  20382708.05148        50.500          36.000  
  20308286.867 7      1110.041 7       864.96548   -490077.438 7   -379326.15648
  20308283.02048        48.100          41.200  
  22643382.711 5     -2449.035 5     -1908.33647   1006138.844 5    767365.32447
  22643379.00847        41.600          29.300  
 08  1 20 20 22 40.0000000  0  9G02G05G06G10G16G21G24G29G30   -0.000106131
  23539400.438 6     -2424.786 6     -1889.44146   1027002.922 6    774580.81646
  23539394.34846        43.900          26.000  
  23747473.672 3     -2868.318 3     -2235.05245   1128678.141 3    863642.06645
  23747470.10245        36.900          17.400  
  20610040.203 7      2027.880 7      1580.16548   -982964.020 7   -743271.93448
  20610036.32848        49.400          37.800  
  20830714.516 7        35.904 7        27.97648   -119470.277 7    -87803.87148
  20830709.99248        48.000          36.400  
  24614809.648 5      3805.317 5      2965.18346  -1599991.352 5  -1041546.70746
  24614804.51246        41.100          22.000  
  22822451.352 5      3648.076 5      2842.65446  -1573320.234 5  -1180348.23046
  22822446.42646        39.700          20.600  
  20381202.250 7      1586.723 7      1236.40648   -768298.824 7   -573228.63348
  20381198.94948        50.800          35.600  
  20307234.102 7      1106.762 7       862.41348   -495611.250 7   -383638.22348
  20307229.86748        49.000          40.600  
  22645715.156 5     -2451.395 5     -1910.17447   1018395.820 5    776916.19547
  22645711.22747        41.900          28.800  
 08  1 20 20 22 45.0000000  0  9G02G05G06G10G16G21G24G29G30   -0.000108883
  23541709.492 6     -2426.264 6     -1890.59546   1039134.242 6    784033.79346
  23541702.89846        44.600          25.900  
  23750204.602 4     -2869.711 4     -2236.13545   1143026.695 4    874822.74245
  23750200.42245        37.800          17.800  
  20608114.070 7      2024.691 7      1577.68148   -993087.477 7   -751160.34048
  20608109.50448        49.700          37.600  
  20830684.656 7        31.624 7        24.64248   -119628.398 7    -87927.08248
  20830680.25048        48.500          36.500  
  24611192.156 5      3802.666 5      2963.11346  -1619004.680 5  -1056362.27046
  24611186.26246        41.400          21.300  
  22818983.016 5      3646.286 5      2841.26446  -1591551.664 5  -1194554.55146
  22818977.25046        40.100          20.100  
  20379695.594 7      1583.679 7      1234.03748   -776217.219 7   -579398.81648
  20379691.68848        50.400          35.600  
  20306184.141 7      1103.344 7       859.74848   -501127.969 7   -387936.96548
  20306179.92648        49.300          41.100  
  22648049.797 5     -2453.884 5     -1912.11647   1030665.242 5    786476.77747
  22648045.82047        41.900          27.800  
 08  1 20 20 22 50.0000000  0  9G02G05G06G10G16G21G24G29G30   -0.000111633
  23544018.719 6     -2427.492 6     -1891.54846   1051271.703 6    793491.53146
  23544012.19946        44.200          26.000  
  23752935.594 3     -2870.837 3     -2237.01745   1157380.883 3    886007.82845
  23752932.32445        36.900          17.400  
  20606190.281 7      2021.751 7      1575.39148  -1003196.230 7   -759037.29348
  20606186.08648        48.800          37.500  
  20830658.219 7        27.584 7        21.49548   -119766.316 7    -88034.55948
  20830653.49248        48.800          36.200  
  24607575.633 5      3800.291 5      2961.25946  -1638006.133 5  -1071168.56646
  24607570.48046        40.500          21.300  
  22815514.781 5      3644.764 5      2840.06746  -1609775.484 5  -1208754.88746
  22815509.54346        40.900          20.900  
  20378191.227 7      1580.901 7      1231.87148   -784121.723 7   -585558.17248
  20378187.02748        51.300          35.500  
  20305137.617 7      1100.192 7       857.29549   -506628.930 7   -392223.43849
  20305132.93049        49.200          41.700  
  22650386.836 5     -2456.120 5     -1913.85947   1042945.844 5    796046.07047
  22650383.31647        41.800          26.900  
 08  1 20 20 22 55.0000000  0  9G02G05G06G10G16G21G24G29G30   -0.000114380
  23546330.367 6     -2429.093 6     -1892.79946   1063417.168 6    802955.52746
  23546323.23446        44.600          26.100  
  23755668.039 4     -2872.334 4     -2238.18445   1171742.555 4    897198.74645
  23755665.14545        38.700          16.900  
  20604269.844 7      2018.440 7      1572.81048  -1013288.430 7   -766901.34448
  20604265.63748        49.300          38.100  
  20830636.688 7        23.188 7        18.06848   -119882.254 7    -88124.89848
  20830631.44948        49.200          36.700  
  24603962.422 5      3797.534 5      2959.11546  -1656993.801 5  -1085964.14146
  24603957.44946        40.900          20.100  
  22812048.484 5      3642.867 5      2838.60946  -1627989.820 5  -1222947.93046
  22812043.00446        41.100          20.400  
  20376690.266 7      1577.755 7      1229.42048   -792010.500 7   -591705.27048
  20376686.39148        50.700          36.500  
  20304094.133 7      1096.682 7       854.55749   -512112.340 7   -396496.22349
  20304089.69949        49.900          42.400  
  22652726.555 6     -2458.703 6     -1915.87047   1055239.359 6    805625.41847
  22652722.64547        43.200          27.300  
 08  1 20 20 23  0.0000000  0  9G02G05G06G10G16G21G24G29G30   -0.000117123
  23548642.742 6     -2430.569 6     -1893.95047   1075570.012 6    812425.27747
  23548635.79747        44.600          28.900  
  23758403.141 4     -2873.746 4     -2239.28545   1186111.285 4    908395.17245
  23758399.33245        38.100          17.400  
  20602352.461 7      2015.231 7      1570.31148  -1023364.586 7   -774752.89848
  20602347.92648        50.000          39.400  
  20830618.094 7        18.898 7        14.72648   -119976.746 7    -88198.52748
  20830613.66848        49.300          38.000  
  24600351.961 5      3794.892 5      2957.06546  -1675968.262 5  -1100749.46546
  24600346.38346        41.100          20.900  
  22808583.711 5      3641.070 5      2837.18646  -1646195.168 5  -1237133.85946
  22808578.89846        39.900          20.100  
  20375191.633 7      1574.709 7      1227.04948   -799884.047 7   -597840.51648
  20375187.56348        51.100          38.500  
  20303053.688 7      1093.255 7       851.88849   -517578.617 7   -400755.66449
  20303049.50049        51.200          43.700  
  22655067.711 5     -2461.204 5     -1917.82647   1067545.379 5    815214.54747
  22655064.18447        42.200          28.000  
 08  1 20 20 23  5.0000000  0  9G02G05G06G10G16G21G24G29G30   -0.000119865
  23550956.438 6     -2431.794 6     -1894.90546   1087728.984 6    821899.80146
  23550949.99646        44.100          25.600  
  23761138.055 4     -2874.887 4     -2240.16345   1200485.719 4    919595.98445
  23761134.92245        37.700          17.800  
  20600437.773 7      2012.295 7      1568.02348  -1033426.063 7   -782593.01248
  20600433.71148        47.600          38.300  
  20830604.172 7        14.869 7        11.58648   -120051.090 7    -88256.45748
  20830599.46148        48.000          36.900  
  24596743.172 5      3792.515 5      2955.20046  -1694930.836 5  -1115525.46546
  24596737.83246        41.000          21.100  
  22805121.133 4      3639.545 4      2836.00846  -1664392.895 4  -1251313.89846
  22805116.05946        38.500          19.600  
  20373695.977 7      1571.928 7      1224.87748   -807743.688 7   -603964.89848
  20373691.96548        50.800          37.400  
  20302016.289 7      1090.111 7       849.43649   -523029.172 7   -405002.84449
  20302012.31349        49.100          42.000  
  22657411.227 6     -2463.425 6     -1919.55147   1079862.504 6    824812.30147
  22657407.99247        43.300          28.500  
 08  1 20 20 23 10.0000000  0  9G02G05G06G10G16G21G24G29G30   -0.000122606
  23553271.172 6     -2433.122 6     -1895.93546   1099894.594 6    831379.47746
  23553264.51246        44.300          26.100  
  23763874.945 4     -2876.107 4     -2241.12945   1214866.254 4    930801.62945
  23763871.73045        37.900          17.800  
  20598526.102 7      2009.234 7      1565.63748  -1043472.230 7   -790421.19548
  20598521.33248        49.400          37.700  
  20830594.008 7        10.728 7         8.35648   -120104.730 7    -88298.23848
  20830589.59848        48.100          36.900  
  24593137.344 5      3789.992 5      2953.24546  -1713880.797 5  -1130291.69146
  24593132.56646        41.400          21.800  
  22801660.164 5      3637.882 5      2834.71646  -1682582.305 5  -1265487.48046
  22801654.30946        39.700          20.400  
  20372203.055 7      1569.032 7      1222.62248   -815588.848 7   -610078.00848
  20372198.86348        50.700          37.300  
  20300982.555 7      1086.841 7       846.88949   -528463.375 7   -409237.28949
  20300977.89149        49.500          41.600  
  22659757.391 6     -2465.755 6     -1921.36646   1092191.281 6    834419.12946
  22659753.96946        42.600          25.300  
 08  1 20 20 23 15.0000000  0  9G02G05G06G10G16G21G24G29G30   -0.000125343
  23555586.938 6     -2434.244 6     -1896.81646   1112065.813 6    840863.55546
  23555581.27346        44.300          26.200  
  23766611.953 4     -2877.116 4     -2241.90345   1229251.836 4    942011.14545
  23766608.81645        37.700          16.900  
  20596616.766 7      2006.397 7      1563.42548  -1053504.215 7   -798238.32048
  20596612.50048        49.400          38.100  
  20830587.352 7         6.812 7         5.30948   -120138.789 7    -88324.78148
  20830582.92648        47.900          37.100  
  24589533.531 5      3787.718 5      2951.46246  -1732819.387 5  -1145049.00046
  24589528.14146        41.700          21.300  
  22798200.305 5      3636.472 5      2833.61146  -1700764.664 5  -1279655.53546
  22798194.56346        39.400          19.300  
  20370712.758 7      1566.361 7      1220.54148   -823420.652 7   -616180.71548
  20370709.03548        50.900          37.400  
  20299951.367 7      1083.794 7       844.51549   -533882.344 7   -413459.86349
  20299947.14849        49.800          41.900  
  22662105.336 6     -2467.856 6     -1923.00347   1104530.563 6    844034.14547
  22662102.22747        43.000          26.400  
 08  1 20 20 23 20.0000000  0  9G02G05G06G10G16G21G24G29G30   -0.000128080
  23557904.383 6     -2435.377 6     -1897.69346   1124242.699 6    850352.02046
  23557898.08646        43.600          24.800  
  23769350.852 3     -2878.177 3     -2242.73845   1243642.723 3    953224.83245
  23769347.64845        36.800          16.900  
  20594710.641 7      2003.531 7      1561.19348  -1063521.871 7   -806044.28548
  20594706.38348        49.500          38.000  
  20830584.695 6         2.842 6         2.21348   -120153.000 6    -88335.84848
  20830580.21948        47.500          37.400  
  24585931.578 5      3785.393 5      2949.65646  -1751746.352 5  -1159797.28146
  24585926.74246        42.200          21.100  
  22794742.133 4      3635.014 4      2832.47746  -1718939.734 4  -1293817.91846
  22794735.82846        38.400          19.600  
  20369224.922 7      1563.655 7      1218.43248   -831238.926 7   -622272.87548
  20369221.00848        50.500          36.700  
  20298923.086 7      1080.713 7       842.11549   -539285.910 7   -417670.43849
  20298918.59049        49.300          42.000  
  22664455.859 5     -2469.995 5     -1924.67447   1116880.539 5    853657.51647
  22664452.24247        41.600          27.100  
 08  1 20 20 23 25.0000000  0  9G02G05G06G10G16G21G24G29G30   -0.000130816
  23560222.625 6     -2436.844 6     -1898.83746   1136426.918 6    859846.20346
  23560216.87546        43.500          25.300  
  23772091.016 3     -2879.523 3     -2243.78145   1258040.340 3    964443.73845
  23772087.32845        37.000          16.900  
  20592807.398 7      2000.335 7      1558.70548  -1073523.547 7   -813837.80948
  20592802.85948        49.500          38.200  
  20830585.883 6        -1.419 6        -1.10548   -120145.906 6    -88330.32048
  20830581.85548        47.000          37.700  
  24582332.648 5      3782.744 5      2947.59346  -1770660.070 5  -1174535.24646
  24582327.53146        42.100          21.300  
  22791284.289 4      3633.228 4      2831.08246  -1737105.875 4  -1307973.32846
  22791279.08246        38.700          20.600  
  20367740.203 7      1560.631 7      1216.07648   -839042.082 7   -628353.25448
  20367736.30948        51.200          36.700  
  20297898.086 7      1077.312 7       839.46449   -544672.469 7   -421867.75849
  20297893.65649        49.300          42.600  
  22666808.508 5     -2472.438 5     -1926.57047   1129242.730 5    863290.36747
  22666804.43447        42.300          26.900  
 08  1 20 20 23 30.0000000  0  9G02G05G06G10G16G21G24G29G30   -0.000133549
  23562542.594 6     -2437.890 6     -1899.65246   1148616.367 6    869344.46146
  23562536.50846        43.600          24.900  
  23774831.117 4     -2880.466 4     -2244.51545   1272442.672 4    975666.31345
  23774828.30545        38.300          17.800  
  20590906.828 7      1997.548 7      1556.53248  -1083511.289 7   -821620.46948
  20590902.09448        48.500          37.700  
  20830591.492 7        -5.255 7        -4.09348   -120119.629 7    -88309.85548
  20830587.03548        48.100          37.200  
  24578735.305 5      3780.527 5      2945.86146  -1789562.703 5  -1189264.55146
  24578730.78546        42.400          20.600  
  22787828.445 5      3631.867 5      2830.02446  -1755265.211 5  -1322123.44946
  22787823.25846        39.300          20.400  
  20366257.633 7      1558.024 7      1214.04648   -846832.203 7   -634423.48448
  20366253.83648        51.000          36.800  
  20296875.844 7      1074.327 7       837.13849   -550044.105 7   -426053.44549
  20296871.11749        48.800          42.600  
  22669162.695 5     -2474.458 5     -1928.14947   1141615.020 5    872931.11347
  22669159.02047        41.800          26.800  
 08  1 20 20 23 35.0000000  0  9G02G05G06G10G16G21G24G29G30   -0.000136278
  23564863.148 6     -2439.136 6     -1900.62747   1160812.047 6    878847.59447
  23564856.98847        43.200          26.400  
  23777572.453 4     -2881.617 4     -2245.41045   1286850.758 4    986893.36345
  23777570.41045        37.500          16.900  
  20589008.797 7      1994.576 7      1554.21348  -1093484.168 7   -829391.53548
  20589004.56348        47.600          38.900  
  20830600.195 7        -9.313 7        -7.26048   -120073.066 7    -88273.55548
  20830595.93048        47.900          37.900  
  24575140.781 5      3778.094 5      2943.97046  -1808453.176 5  -1203984.40246
  24575136.31646        42.200          20.400  
  22784375.141 4      3630.297 4      2828.80746  -1773416.695 4  -1336267.48446
  22784369.30946        39.000          20.100  
  20364778.391 7      1555.210 7      1211.85248   -854608.254 7   -640482.74248
  20364774.50048        50.200          37.000  
  20295857.055 7      1071.123 7       834.64149   -555399.723 7   -430226.65249
  20295851.85249        48.100          42.700  
  22671519.031 5     -2476.712 5     -1929.90347   1153998.578 5    882580.62947
  22671515.25447        40.500          27.400  
 08  1 20 20 23 40.0000000  0  9G02G05G06G10G16G21G24G29G30   -0.000139008
  23567185.055 5     -2440.280 5     -1901.50946   1173013.445 5    888355.13746
  23567178.95746        42.000          25.100  
  23780315.664 4     -2882.648 4     -2246.22645   1301264.000 4    998124.49245
  23780312.85945        38.100          17.800  
  20587114.055 7      1991.696 7      1551.97248  -1103442.648 7   -837151.39548
  20587109.27748        48.100          38.500  
  20830612.594 6       -13.257 6       -10.32948   -120006.781 6    -88221.91048
  20830608.91448        46.600          37.600  
  24571548.195 5      3775.764 5      2942.15846  -1827331.996 5  -1218695.19146
  24571543.46546        42.400          20.900  
  22780921.797 5      3628.833 5      2827.66046  -1791560.859 5  -1350405.78546
  22780916.75046        40.400          20.900  
  20363300.578 7      1552.505 7      1209.74548   -862370.781 7   -646531.46548
  20363296.76248        50.000          36.700  
  20294840.539 7      1068.045 7       832.24149   -560739.945 7   -434387.85949
  20294835.63349        48.600          42.800  
  22673877.281 5     -2478.822 5     -1931.54747   1166392.688 5    892238.36347
  22673874.02347        41.000          27.000  
 08  1 20 20 23 45.0000000  0  9G02G05G06G10G16G21G24G29G30   -0.000141735
  23569508.617 5     -2441.537 5     -1902.49446   1185221.129 5    897867.60546
  23569501.86746        42.300          25.000  
  23783059.961 4     -2883.794 4     -2247.10345   1315682.969 4   1009360.00845
  23783056.87945        38.000          18.300  
  20585221.648 7      1988.716 7      1549.64848  -1113386.227 7   -844899.63348
  20585217.82048        49.100          38.700  
  20830628.859 6       -17.313 6       -13.49148   -119920.219 6    -88154.45348
  20830624.94948        46.200          37.900  
  24567958.383 5      3773.332 5      2940.25946  -1846198.656 5  -1233396.48846
  24567952.89146        41.800          21.300  
  22777471.047 5      3627.263 5      2826.44146  -1809697.176 5  -1364537.98846
  22777465.71546        39.700          21.700  
  20361825.766 7      1549.700 7      1207.55948   -870119.281 7   -652569.25848
  20361822.33248        50.700          37.500  
  20293827.648 7      1064.842 7       829.74849   -566064.156 7   -438536.60249
  20293822.93049        49.900          43.500  
  22676238.500 5     -2481.055 5     -1933.29147   1178797.965 5    901904.81647
  22676234.80547        42.300          28.100  
 08  1 20 20 23 50.0000000  0  9G02G05G06G10G16G21G24G29G30   -0.000144461
  23571832.617 5     -2442.455 5     -1903.20846   1197433.402 5    907383.64546
  23571825.81646        42.000          25.800  
  23785804.070 4     -2884.618 4     -2247.75446   1330106.059 4   1020598.77746
  23785801.27746        38.800          19.300  
  20583332.117 7      1986.012 7      1547.54148  -1123316.285 7   -852637.33648
  20583328.02048        48.600          38.800  
  20830649.047 7       -21.061 7       -16.41048   -119814.914 7    -88072.40248
  20830645.21548        47.700          38.000  
  24564369.266 5      3771.168 5      2938.57546  -1865054.496 5  -1248089.36346
  24564365.09446        42.000          20.600  
  22774021.094 5      3625.991 5      2825.44146  -1827827.133 5  -1378665.19546
  22774015.57046        39.700          22.000  
  20360354.313 7      1547.188 7      1205.60048   -877855.219 7   -658597.25848
  20360350.61748        51.100          37.400  
  20292816.977 7      1061.948 7       827.49149   -571373.895 7   -442674.05549
  20292811.87949        50.000          43.400  
  22678600.789 5     -2482.977 5     -1934.78647   1191212.848 5    911578.74647
  22678597.28947        41.600          28.400  
 08  1 20 20 23 55.0000000  0  9G02G05G06G10G16G21G24G29G30   -0.000147186
  23574157.570 5     -2443.540 5     -1904.05546   1209651.102 5    916903.91846
  23574150.54746        41.100          25.200  
  23788550.422 4     -2885.578 4     -2248.50246   1344533.949 4   1031841.28946
  23788546.69146        38.800          19.600  
  20581444.945 7      1983.211 7      1545.35948  -1133232.340 7   -860364.12948
  20581441.02748        48.900          38.500  
  20830672.758 6       -24.935 6       -19.43048   -119690.238 6    -87975.25448
  20830668.94948        46.900          38.300  
  24560783.438 5      3768.919 5      2936.82046  -1883899.090 5  -1262773.46146
  24560778.86746        41.400          20.600  
  22770571.883 4      3624.598 4      2824.36446  -1845950.121 4  -1392787.01646
  22770567.14146        38.800          21.700  
  20358884.547 7      1544.557 7      1203.55048   -885578.004 7   -664615.00848
  20358881.04748        50.400          37.100  
  20291809.648 7      1058.940 7       825.14849   -576668.594 7   -446799.79349
  20291804.64849        49.800          43.100  
  22680965.148 5     -2485.019 5     -1936.37547   1203637.941 5    921260.62147
  22680961.43047        41.400          27.500  
 08  1 20 20 24  0.0000000  0  9G02G05G06G10G16G21G24G29G30   -0.000149908
  23576483.570 5     -2444.677 5     -1904.94647   1221874.484 5    926428.64847
  23576476.69547        41.400          26.500  
  23791296.281 5     -2886.620 5     -2249.30946   1358967.051 5   1043087.83246
  23791293.84446        40.000          20.100  
  20579560.906 6      1980.325 6      1543.11148  -1143133.965 6   -868079.68448
  20579556.89548        47.100          39.000  
  20830700.047 6       -28.879 6       -22.50548   -119545.844 6    -87862.73048
  20830695.99648        47.200          38.200  
  24557199.602 5      3766.573 5      2934.99546  -1902731.957 5  -1277448.43446
  24557194.30546        41.700          19.300  
  22767125.297 5      3623.126 5      2823.21646  -1864065.750 5  -1406903.09446
  22767119.63746        39.900          22.200  
  20357417.188 7      1541.841 7      1201.43548   -893287.207 7   -670622.18448
  20357414.05948        50.900          36.900  
  20290804.500 7      1055.848 7       822.73949   -581947.836 7   -450913.48849
  20290799.88349        49.200          43.100  
  22683331.852 5     -2487.147 5     -1938.03847   1216073.676 5    930950.81347
  22683328.03947        42.200          27.300  
 08  1 20 20 24  5.0000000  0  9G02G05G06G10G16G21G24G29G30   -0.000152630
  23578810.070 5     -2445.667 5     -1905.71346   1234102.820 5    935957.21146
  23578803.79746        41.700          25.600  
  23794043.766 5     -2887.482 5     -2249.99546   1373404.461 5   1054337.80946
  23794041.01246        39.900          20.900  
  20577678.906 7      1977.591 7      1540.98148  -1153021.922 7   -875784.59048
  20577675.23048        48.500          38.900  
  20830731.492 6       -32.667 6       -25.45548   -119382.508 6    -87735.45348
  20830727.16048        47.300          38.000  
  24553617.891 5      3764.373 5      2933.27945  -1921553.820 5  -1292114.82845
  24553612.18845        40.900          18.300  
  22763679.641 4      3621.803 4      2822.18046  -1882174.766 4  -1421013.99646
  22763674.18446        38.800          21.800  
  20355952.836 7      1539.287 7      1199.44548   -900983.641 7   -676619.41048
  20355949.05548        50.300          36.900  
  20289802.648 7      1052.909 7       820.45049   -587212.383 7   -455015.73849
  20289797.87549        50.000          42.900  
  22685699.523 5     -2489.100 5     -1939.55747   1228519.176 5    940648.59847
  22685696.01647        41.300          27.400  
 08  1 20 20 24 10.0000000  0  9G02G05G06G10G16G21G24G29G30   -0.000155352
  23581138.195 5     -2446.791 5     -1906.58646   1246336.773 5    945490.14146
  23581131.67646        40.800          25.000  
  23796792.453 4     -2888.489 4     -2250.76246   1387846.906 4   1065591.61746
  23796788.89146        38.100          20.100  
  20575800.094 7      1974.722 7      1538.74348  -1162895.531 7   -883478.30548
  20575796.34448        48.000          38.000  
  20830765.750 6       -36.604 6       -28.52248   -119199.488 6    -87592.84448
  20830762.23048        46.800          37.400  
  24550038.523 5      3762.052 5      2931.47046  -1940364.078 5  -1306772.18046
  24550033.02046        39.700          19.000  
  22760235.055 4      3620.352 4      2821.05746  -1900276.523 4  -1435119.28146
  22760228.88746        37.500          20.600  
  20354490.852 7      1536.595 7      1197.34448   -908666.617 7   -682606.13348
  20354487.07048        49.200          35.900  
  20288804.102 7      1049.837 7       818.05549   -592461.566 7   -459106.01249
  20288799.50849        48.800          41.900  
  22688070.758 5     -2491.198 5     -1941.19146   1240975.164 5    950354.55546
  22688066.94146        41.400          26.200  
 08  1 20 20 24 15.0000000  0  9G02G05G06G10G16G21G24G29G30   -0.000158070
  23583467.359 5     -2447.816 5     -1907.38746   1258575.855 5    955027.07846
  23583460.59446        41.500          24.700  
  23799541.695 5     -2889.415 5     -2251.49546   1402293.980 5   1076849.09046
  23799538.00446        39.900          20.600  
  20573923.438 7      1971.939 7      1536.57648  -1172755.227 7   -891161.18448
  20573919.99648        48.900          38.900  
  20830804.188 7       -40.438 7       -31.50948   -118997.297 7    -87435.29748
  20830800.41048        47.700          38.100  
  24546461.047 5      3759.811 5      2929.72345  -1959163.133 5  -1321420.79745
  24546455.19145        39.800          18.300  
  22756791.438 4      3618.991 4      2819.98846  -1918371.480 4  -1449219.21946
  22756785.72346        38.900          20.900  
  20353031.117 7      1533.997 7      1195.32248   -916336.602 7   -688582.74248
  20353027.87948        49.600          36.400  
  20287808.125 7      1046.849 7       815.72749   -597695.813 7   -463184.64549
  20287803.14149        49.900          42.600  
  22690442.875 5     -2493.203 5     -1942.75847   1253441.180 5    960068.34447
  22690439.04347        42.300          27.100  
 08  1 20 20 24 20.0000000  0  9G02G05G06G10G16G21G24G29G30   -0.000160788
  23585797.641 5     -2448.628 5     -1908.02046   1270818.996 5    964567.18046
  23585790.91046        41.300          22.800  
  23802291.781 5     -2890.125 5     -2252.04446   1416744.605 5   1088109.30946
  23802288.25046        39.400          20.900  
  20572050.156 7      1969.348 7      1534.55748  -1182601.965 7   -898833.96948
  20572046.10548        49.200          39.000  
  20830846.414 7       -44.056 7       -34.32948   -118777.016 7    -87263.65248
  20830842.27048        48.400          38.000  
  24542885.117 5      3757.766 5      2928.13846  -1977951.961 5  -1336061.48846
  24542879.62946        41.000          19.300  
  22753349.242 4      3617.829 4      2819.08846  -1936460.625 4  -1463314.66046
  22753343.25046        38.600          20.600  
  20351573.938 7      1531.594 7      1193.45248   -923994.574 7   -694550.00048
  20351570.50848        49.500          36.800  
  20286814.125 7      1044.055 7       813.54949   -602916.090 7   -467252.39149
  20286809.69149        50.500          42.700  
  22692816.680 6     -2495.000 6     -1944.15447   1265916.180 6    969789.11347
  22692813.25047        42.600          28.100  
 08  1 20 20 24 25.0000000  0  9G02G05G06G10G16G21G24G29G30   -0.000163504
  23588128.461 5     -2449.797 5     -1908.93046   1283067.980 5    974111.83246
  23588121.19546        41.300          25.500  
  23805042.273 5     -2891.168 5     -2252.85846   1431200.445 5   1099373.59846
  23805039.18046        40.200          20.900  
  20570179.125 7      1966.419 7      1532.27548  -1192434.059 7   -906495.34448
  20570175.14148        49.600          39.100  
  20830892.313 7       -48.026 7       -37.42348   -118536.887 7    -87076.53948
  20830887.62948        47.600          37.800  
  24539312.078 5      3755.376 5      2926.25646  -1996728.844 5  -1350692.77046
  24539306.25846        40.900          19.300  
  22749908.523 5      3616.325 5      2817.91646  -1954542.250 5  -1477404.23846
  22749902.65246        40.200          21.500  
  20350119.508 7      1528.855 7      1191.31448   -931638.848 7   -700506.57048
  20350116.04748        49.800          36.400  
  20285824.148 7      1040.925 7       811.10949   -608120.715 7   -471307.93849
  20285819.50849        50.000          43.200  
  22695191.922 6     -2497.134 6     -1945.81847   1278401.848 6    979518.20347
  22695189.21947        42.500          27.900  
 08  1 20 20 24 30.0000000  0  9G02G05G06G10G16G21G24G29G30   -0.000166220
  23590459.477 5     -2450.833 5     -1909.74046   1295322.148 5    983660.53146
  23590453.04346        40.500          23.500  
  23807794.898 5     -2892.082 5     -2253.56746   1445660.855 5   1110641.43446
  23807790.98046        39.800          20.900  
  20568311.031 7      1963.627 7      1530.10048  -1202252.195 7   -914145.84448
  20568306.96548        48.500          39.200  
  20830941.531 7       -51.873 7       -40.42148   -118277.523 7    -86874.43448
  20830937.11748        48.400          37.500  
  24535741.141 5      3753.122 5      2924.51646  -2015494.453 5  -1365315.34846
  24535735.28546        41.300          19.600  
  22746468.906 5      3614.958 5      2816.84546  -1972617.039 5  -1491488.46546
  22746462.96946        39.700          20.900  
  20348667.086 7      1526.251 7      1189.28748   -939270.102 7   -706453.00448
  20348663.62948        49.600          36.800  
  20284836.828 7      1037.934 7       808.78349   -613310.383 7   -475351.85249
  20284831.78549        48.800          42.900  
  22697569.984 6     -2499.143 6     -1947.38247   1290897.563 6    989255.11347
  22697566.88347        42.600          26.800  
 08  1 20 20 24 35.0000000  0  9G02G05G06G10G16G21G24G29G30   -0.000168934
  23592792.688 5     -2451.755 5     -1910.45246   1307580.926 5    993212.79346
  23592785.56646        41.100          22.900  
  23810547.297 4     -2892.860 4     -2254.17546   1460125.156 4   1121912.30946
  23810543.44146        38.900          21.300  
  20566444.805 7      1960.959 7      1528.01948  -1212056.988 7   -921785.93848
  20566441.40248        47.900          38.800  
  20830994.516 7       -55.599 7       -43.32048   -117999.527 7    -86657.83248
  20830989.84448        47.800          37.000  
  24532172.234 5      3750.986 5      2922.84346  -2034249.383 5  -1379929.56346
  24532166.38346        40.800          20.100  
  22743029.758 5      3613.714 5      2815.88046  -1990685.609 5  -1505567.86746
  22743024.48046        39.200          20.400  
  20347217.461 7      1523.772 7      1187.35448   -946888.961 7   -712389.77348
  20347213.98448        49.700          36.600  
  20283851.984 7      1035.059 7       806.53849   -618485.680 7   -479384.54349
  20283847.11749        47.700          42.700  
  22699949.734 6     -2501.008 6     -1948.83647   1303402.602 6    998999.29347
  22699946.43047        43.100          27.700  
 08  1 20 20 24 40.0000000  0  9G02G05G06G10G16G21G24G29G30   -0.000171646
  23595126.117 5     -2452.846 5     -1911.31146   1319845.156 5   1002769.34846
  23595119.51646        40.200          23.500  
  23813299.852 5     -2893.860 5     -2254.95646   1474594.457 5   1133187.08646
  23813296.58646        40.600          20.600  
  20564582.070 7      1958.057 7      1525.75948  -1221847.273 7   -929414.73448
  20564578.34448        49.100          38.900  
  20831050.977 7       -59.478 7       -46.34848   -117702.137 7    -86426.09448
  20831046.22748        49.200          37.200  
  24528606.094 5      3748.614 5      2920.99646  -2052992.453 5  -1394534.54346
  24528599.84446        41.400          20.400  
  22739592.977 4      3612.225 4      2814.71946  -2008746.734 4  -1519641.46146
  22739587.77346        39.000          20.900  
  20345770.156 7      1521.063 7      1185.24348   -954494.273 7   -718315.98848
  20345766.65248        50.400          36.600  
  20282870.180 7      1031.973 7       804.13449   -623645.547 7   -483405.21549
  20282864.87149        50.300          43.200  
  22702331.234 6     -2503.094 6     -1950.46447   1315918.070 6   1008751.61347
  22702328.35947        43.200          27.500  
 08  1 20 20 24 45.0000000  0  9G02G05G06G10G16G21G24G29G30   -0.000174356
  23597460.875 5     -2453.879 5     -1912.11546   1332114.551 5   1012329.92246
  23597454.49646        39.800          22.800  
  23816054.805 4     -2894.752 4     -2255.65146   1489068.219 4   1144465.34046
  23816051.06646        38.800          21.300  
  20562721.320 7      1955.289 7      1523.60248  -1231623.719 7   -937032.74248
  20562717.53948        48.300          39.100  
  20831111.094 6       -63.310 6       -49.33048   -117385.586 6    -86179.44148
  20831106.66448        46.600          38.100  
  24525041.227 5      3746.363 5      2919.24946  -2071724.270 5  -1409130.78946
  24525035.48846        41.000          19.900  
  22736158.258 5      3610.880 5      2813.67046  -2026801.137 5  -1533709.81346
  22736152.13746        39.200          20.100  
  20344325.305 7      1518.469 7      1183.22348   -962086.621 7   -724232.10248
  20344322.12148        50.900          36.900  
  20281890.844 7      1028.984 7       801.80749   -628790.469 7   -487414.25049
  20281886.29349        49.100          43.400  
  22704715.031 6     -2505.072 6     -1951.99847   1328443.430 6   1018511.60547
  22704711.29747        43.600          26.700  
 08  1 20 20 24 50.0000000  0  9G02G05G06G10G16G21G24G29G30   -0.000177067
  23599796.328 4     -2455.038 4     -1913.01546   1344389.742 4   1021894.99646
  23599790.37546        39.100          22.500  
  23818809.906 4     -2895.778 4     -2256.44946   1503547.109 4   1155747.58646
  23818806.59846        37.900          20.900  
  20560864.023 6      1952.368 6      1521.32548  -1241385.559 6   -944639.36748
  20560860.28548        47.500          38.100  
  20831175.164 6       -67.278 6       -52.42348   -117049.195 6    -85917.32448
  20831170.47348        47.000          37.200  
  24521478.523 5      3744.005 5      2917.40146  -2090444.297 5  -1423717.79346
  24521472.73846        40.300          19.900  
  22732722.250 4      3609.391 4      2812.51246  -2044848.090 4  -1547772.37146
  22732717.62146        38.400          20.900  
  20342883.023 7      1515.749 7      1181.10348   -969665.367 7   -730137.61748
  20342879.53148        49.900          36.000  
  20280914.836 7      1025.874 7       799.38349   -633919.840 7   -491411.16449
  20280909.92249        48.100          42.200  
  22707100.125 5     -2507.178 5     -1953.64747   1340979.320 5   1028279.84047
  22707096.75047        42.200          27.400  
 08  1 20 20 24 55.0000000  0  9G02G05G06G10G16G21G24G29G30   -0.000179775
  23602133.000 5     -2455.531 5     -1913.40046   1356667.397 5   1031461.99846
  23602127.05546        40.900          23.300  
  23821564.688 6     -2896.174 6     -2256.75246   1518027.980 6   1167031.34846
  23821562.52346        45.400          21.800  
  20559009.609 7      1949.248 7      1518.89048  -1251131.797 7   -952233.81648
  20559005.16448        48.500          39.300  
  20831242.625 7       -70.762 7       -55.14048   -116695.383 7    -85641.62548
  20831238.14548        47.800          37.400  
  24517920.297 6      3740.634 6      2914.77646  -2109147.465 6  -1438291.67246
  24517913.86346        43.400          22.800  
  22729290.156 5      3607.537 5      2811.06146  -2062885.773 5  -1561827.67646
  22729285.27346        40.400          22.800  
  20341443.609 7      1512.988 7      1178.94948   -977230.305 7   -736032.36348
  20341439.84048        50.500          37.900  
  20279941.516 7      1022.848 7       797.02249   -639034.082 7   -495396.27349
  20279936.46149        49.900          42.800  
  22709488.094 5     -2508.869 5     -1954.95946   1353523.664 5   1038054.63346
  22709483.73046        39.800          24.200  
 08  1 20 20 25  0.0000000  0  9G02G05G06G10G16G21G24G29G30   -0.000182482
  23604469.664 5     -2456.689 5     -1914.30647   1368950.841 5   1041033.52747
  23604464.44147        41.100          26.700  
  23824321.547 5     -2897.300 5     -2257.65646   1532514.480 5   1178319.62546
  23824318.90246        39.600          21.700  
  20557157.813 7      1946.490 7      1516.74948  -1260864.246 7   -959817.56348
  20557153.04348        50.000          38.800  
  20831314.086 7       -74.740 7       -58.23848   -116321.684 7    -85350.43448
  20831309.62548        48.800          37.400  
  24514363.555 6      3738.837 6      2913.37647  -2127841.652 6  -1452858.55147
  24514357.05947        44.300          26.300  
  22725858.563 4                                                
  22725854.50446        38.800          21.700  
  20340006.719 7      1510.350 7      1176.89148   -984782.055 7   -741916.81648
  20340002.79348        50.700          36.300  
  20278971.023 7      1019.778 7       794.62648   -644132.973 7   -499369.40248
  20278966.17648        49.300          40.400  
  22711877.297 6     -2511.068 6     -1956.67946   1366079.004 6   1047838.02746
  22711873.15646        43.900          22.500  
 08  1 20 20 25  5.0000000  0  9G02G05G06G10G16G21G24G29G30   -0.000185188
  23606808.539 5     -2457.996 5     -1915.32646   1381240.820 5   1050610.15646
  23606803.17646        41.000          26.000  
  23827079.477 5     -2898.360 5     -2258.46046   1547006.281 5   1189611.92646
  23827076.62146        39.700          21.700  
  20555308.172 7      1944.053 7      1514.84448  -1270584.512 7   -967391.78548
  20555303.81348        48.500          39.100  
  20831389.211 7       -78.661 7       -61.29748   -115928.379 7    -85043.94948
  20831384.32448        49.200          37.600  
  24510807.438 6      3737.257 6      2912.14847  -2146527.938 6  -1467419.29347
  24510801.44147        45.200          26.700  
  22722427.797 4                                  -2098943.79714  -1589924.72756
  22722423.90246        38.400          20.400  
  20338571.961 7      1508.018 7      1175.08148   -992322.145 7   -747792.22348
  20338568.19548        50.500          36.600  
  20278003.680 6      1016.971 6       792.44848   -649217.828 6   -503331.64148
  20277998.41848        46.700          40.400  
  22714268.156 6     -2513.023 6     -1958.19746   1378644.117 6   1057629.01246
  22714264.26246        43.500          22.200  
 08  1 20 20 25 10.0000000  0  9G02G05G06G10G16G21G24G29G30   -0.000187893
  23609147.352 5     -2458.676 5     -1915.84746   1393534.199 5   1060189.39146
  23609142.08646        40.200          24.500  
  23829837.344 4     -2898.901 4     -2258.88246   1561500.785 4   1200906.33646
  23829834.87946        38.900          20.100  
  20553460.609 7      1941.604 7      1512.93848  -1280292.531 7   -974956.47748
  20553456.32848        49.800          37.600  
  20831467.086 7       -82.152 7       -64.01248   -115517.621 7    -84723.89148
  20831461.91048        48.200          35.300  
  24507253.531 6      3735.341 6      2910.65346  -2165204.645 6  -1481972.55946
  24507247.32846        44.100          24.700  
  22718997.516 5      3604.31115      2808.56055  -2116965.352 5  -1603967.52745
  22718994.09845        39.800          18.600  
  20337139.188 7      1505.759 7      1173.31748   -999850.941 7   -753658.80948
  20337135.22748        51.000          36.200  
  20277038.281 7      1014.319 7       790.37848   -654289.422 7   -507283.53148
  20277033.79348        48.200          40.200  
  22716660.836 6     -2514.664 6     -1959.47346   1391217.438 6   1067426.37546
  22716657.00046        43.200          21.500  
 08  1 20 20 25 15.0000000  0  9G02G05G06G10G16G21G24G29G30   -0.000190598
  23611487.758 5     -2459.582 5     -1916.55846   1405832.109 5   1069772.18046
  23611482.31346        40.700          25.700  
  23832596.078 5     -2899.690 5     -2259.50046   1575999.234 5   1212203.83646
  23832593.60546        39.600          20.100  
  20551615.461 7      1938.916 7      1510.84448  -1289987.113 7   -982510.69548
  20551611.51648        50.400          38.500  
  20831548.750 7       -85.858 7       -66.90348   -115088.332 7    -84389.37548
  20831543.86748        48.100          36.600  
  24503700.836 6      3733.183 6      2908.97046  -2183870.559 6  -1496517.41046
  24503695.98046        43.400          25.000  
  22715569.859 4      3603.045 4      2807.55945  -2134980.578 4  -1618005.32445
  22715566.39845        38.500          18.600  
  20335708.742 7      1503.273 7      1171.38448  -1007367.309 7   -759515.73048
  20335704.77048        51.400          37.200  
  20276075.953 7      1011.435 7       788.13049   -659346.598 7   -511224.18449
  20276071.44549        48.200          41.300  
  22719055.039 6     -2516.517 6     -1960.92446   1403800.023 6   1077230.99646
  22719051.89846        43.100          21.100  
 08  1 20 20 25 20.0000000  0  9G02G05G06G10G16G21G24G29G30   -0.000193302
  23613828.719 5     -2460.358 5     -1917.16047   1418133.898 5   1079357.98047
  23613823.52347        41.900          27.600  
  23835355.492 5     -2900.331 5     -2259.99546   1590500.891 5   1223503.81346
  23835352.82446        39.200          20.400  
  20549772.984 7      1936.324 7      1508.82348  -1299668.734 7   -990054.80948
  20549768.77748        48.100          37.800  
  20831633.891 7       -89.423 7       -69.68048   -114641.215 7    -84040.97348
  20831628.83248        47.900          37.200  
  24500151.039 6      3731.117 6      2907.36946  -2202526.145 6  -1511054.25446
  24500145.98046        42.600          24.500  
  22712141.539 3      3601.890 3      2806.66945  -2152990.027 3  -1632038.67245
  22712139.39845        37.300          17.800  
  20334281.195 7      1500.900 7      1169.53248  -1014871.809 7   -765363.39148
  20334276.95348        50.900          37.500  
  20275116.273 7      1008.660 7       785.96948   -664389.898 7   -515154.02748
  20275111.75048        48.300          41.200  
  22721450.906 6     -2518.251 6     -1962.27346   1416391.277 6   1087042.36346
  22721447.98446        42.500          21.500  
 08  1 20 20 25 25.0000000  0  9G02G05G06G10G16G21G24G29G30   -0.000196005
  23616170.766 5     -2461.365 5     -1917.94346   1430440.723 5   1088947.69546
  23616165.76646        41.300          26.100  
  23838116.469 5     -2901.204 5     -2260.67646   1605006.910 5   1234807.19146
  23838113.27046        40.200          20.100  
  20547933.289 7      1933.567 7      1506.67448  -1309336.570 7   -997588.18048
  20547929.29748        48.900          36.900  
  20831722.773 7       -93.248 7       -72.66148   -114174.977 7    -83677.66848
  20831718.18048        48.900          37.100  
  24496603.031 5      3728.906 5      2905.64546  -2221170.672 5  -1525582.48046
  24496598.09846        41.900          24.000  
  22708717.609 4      3600.563 4      2805.63045  -2170992.840 4  -1646066.82045
  22708713.25045        38.600          16.900  
  20332855.414 7      1498.325 7      1167.52748  -1022363.434 7   -771201.02748
  20332851.66848        50.300          38.200  
  20274159.289 7      1005.690 7       783.65549   -669418.348 7   -519072.30149
  20274154.99249        48.400          41.500  
  22723848.875 6     -2520.199 6     -1963.79146   1428992.273 6   1096861.32046
  22723846.09046        43.000          21.100  
 08  1 20 20 25 30.0000000  0  9G02G05G06G10G16G21G24G29G30   -0.000198706
  23618513.656 5     -2462.492 5     -1918.82746   1442753.184 5   1098541.83246
  23618508.34846        41.700          26.000  
  23840877.820 5     -2902.184 5     -2261.43946   1619517.828 5   1246114.38746
  23840874.44546        39.900          20.400  
  20546096.547 7      1930.652 7      1504.40548  -1318989.832 7  -1005110.20348
  20546092.52748        49.000          38.500  
  20831815.094 7       -97.168 7       -75.71448   -113689.137 7    -83299.09848
  20831809.93048        50.300          37.700  
  24493057.125 6      3726.503 6      2903.76546  -2239803.188 6  -1540101.30546
  24493051.99646        43.100          22.900  
  22705293.133 4      3599.066 4      2804.47045  -2188988.168 4  -1660089.17245
  22705288.91845        39.100          18.300  
  20331432.359 7      1495.626 7      1165.42148  -1029841.563 7   -777028.13348
  20331428.78148        51.000          38.200  
  20273205.195 7      1002.573 7       781.22549   -674431.211 7   -522978.42649
  20273201.36749        48.000          41.900  
  22726248.242 6     -2522.270 6     -1965.39846   1441603.621 6   1106688.31346
  22726245.90646        44.300          22.000  
 08  1 20 20 25 35.0000000  0  9G02G05G06G10G16G21G24G29G30   -0.000201406
  23620857.086 5     -2463.204 5     -1919.37446   1455069.203 5   1108138.70346
  23620851.78946        41.300          26.200  
  23843639.125 4     -2902.773 4     -2261.89746   1634031.691 4   1257423.87146
  23843636.23846        38.900          20.100  
  20544261.563 7      1928.126 7      1502.43648  -1328630.461 7  -1012622.38348
  20544257.71148        48.400          36.100  
  20831911.023 7      -100.677 7       -78.45048   -113185.750 7    -82906.84848
  20831905.84048        48.500          36.400  
  24489513.883 5      3724.495 5      2902.20346  -2258425.660 5  -1554612.32046
  24489508.56346        41.600          22.300  
  22701869.375 4      3597.962 4      2803.60846  -2206977.977 4  -1674107.21146
  22701865.64846        38.600          19.000  
  20330011.609 7      1493.303 7      1163.61548  -1037308.078 7   -782846.20748
  20330007.94548        50.300          37.600  
  20272254.531 7       999.859 7       779.11248   -679430.504 7   -526873.98448
  20272249.84048        48.400          40.500  
  22728650.109 6     -2523.934 6     -1966.70946   1454223.293 6   1116521.85546
  22728647.47746        43.100          22.200  
 08  1 20 20 25 40.0000000  0  9G02G05G06G10G16G21G24G29G30   -0.000204107
  23623201.516 5     -2464.066 5     -1920.04846   1467389.535 5   1117738.94546
  23623196.44546        40.000          25.800  
  23846402.359 5     -2903.465 5     -2262.44546   1648549.016 5   1268736.09846
  23846398.94146        39.600          19.900  
  20542429.547 7      1925.473 7      1500.36648  -1338257.824 7  -1020124.21548
  20542425.54348        48.300          36.800  
  20832010.219 7      -104.329 7       -81.29648   -112664.105 7    -82500.36748
  20832004.97748        49.100          36.200  
  24485971.891 5      3722.369 5      2900.55046  -2277037.504 5  -1569115.07046
  24485966.47746        42.000          22.300  
  22698447.727 5      3596.755 5      2802.66446  -2224961.754 5  -1688120.53146
  22698443.00846        39.700          19.000  
  20328593.422 7      1490.869 7      1161.71548  -1044762.422 7   -788654.78148
  20328589.32848        50.500          38.900  
  20271305.719 7       997.022 7       776.89949   -684415.613 7   -530758.48049
  20271301.32049        48.300          41.500  
  22731052.547 6     -2525.727 6     -1968.09346   1466851.930 6   1126362.32046
  22731050.22746        43.900          22.500  
 08  1 20 20 25 45.0000000  0  9G02G05G06G10G16G21G24G29G30   -0.000206806
  23625546.813 5     -2464.897 5     -1920.70246   1479714.020 5   1127342.45346
  23625541.76246        40.800          23.800  
  23849164.930 5     -2904.176 5     -2262.98946   1663069.895 5   1280051.04346
  23849161.65246        39.200          19.300  
  20540600.070 6      1922.834 6      1498.31348  -1347871.996 6  -1027615.78148
  20540595.61348        47.400          35.300  
  20832112.703 7      -107.976 7       -84.13748   -112124.227 7    -82079.68048
  20832107.93048        48.600          35.900  
  24482432.875 5      3720.249 5      2898.89146  -2295638.750 5  -1583609.52346
  24482426.85546        41.900          22.000  
  22695026.242 5      3595.540 5      2801.72346  -2242939.453 5  -1702129.14846
  22695021.71146        39.400          19.300  
  20327176.617 7      1488.437 7      1159.82148  -1052204.605 7   -794453.88748
  20327173.15648        50.300          38.000  
  20270359.695 7       994.195 7       774.69848   -689386.586 7   -534631.96948
  20270354.89848        49.100          40.600  
  22733458.422 6     -2527.512 6     -1969.48846   1479489.488 6   1136209.76246
  22733455.27046        43.900          22.000  
 08  1 20 20 25 50.0000000  0  9G02G05G06G10G16G21G24G29G30   -0.000209505
  23627894.430 6     -2465.565 6     -1921.20947   1492041.844 6   1136948.49647
  23627888.44947        43.300          29.000  
  23851929.023 4     -2904.830 4     -2263.49746   1677594.043 4   1291368.52746
  23851925.38746        38.900          19.000  
  20538773.883 6      1920.309 6      1496.34648  -1357473.543 6  -1035097.51248
  20538768.85248        46.000          36.400  
  20832219.016 6      -111.460 6       -86.84948   -111566.926 6    -81645.43448
  20832213.59048        46.000          35.600  
  24478894.063 4      3718.321 4      2897.37846  -2314230.355 4  -1598096.41446
  24478889.15246        38.800          21.800  
  22691608.430 4      3594.402 4      2800.84846  -2260911.465 4  -1716133.38746
  22691602.19946        37.900          19.000  
  20325762.563 6      1486.118 6      1158.01148  -1059635.195 6   -800243.94148
  20325758.73848        47.200          36.300  
  20269416.148 6       991.478 6       772.58648   -694343.977 6   -538494.89848
  20269411.89548        45.400          38.800  
  22735863.563 5     -2529.230 5     -1970.84446   1492135.641 5   1146063.98046
  22735861.50846        40.100          21.500  
 08  1 20 20 25 55.0000000  0  9G02G05G06G10G16G21G24G29G30   -0.000212202
  23630241.211 6     -2466.480 6     -1921.93847   1504374.242 6   1146558.18847
  23630235.36347        43.600          29.100  
  23854693.750 4     -2905.452 4     -2263.99245   1692121.305 4   1302688.48845
  23854690.11745        37.600          17.800  
  20536948.734 6      1917.683 6      1494.29748  -1367061.957 6  -1042568.99648
  20536944.64148        46.600          37.400  
  20832328.430 7      -115.155 7       -89.73248   -110991.148 7    -81196.77348
  20832323.58648        47.600          37.500  
  24475358.469 5      3716.167 5      2895.71946  -2332811.188 5  -1612575.01246
  24475353.25846        41.700          22.000  
  22688188.773 4      3593.254 4      2799.92146  -2278877.734 4  -1730132.99246
  22688183.22746        37.500          19.600  
  20324351.297 7      1483.693 7      1156.12748  -1067053.660 7   -806024.57448
  20324347.04348        48.100          36.500  
  20268475.789 6       988.644 6       770.36748   -699287.195 6   -542346.73448
  20268470.68448        45.300          39.800  
  22738272.398 5     -2530.964 5     -1972.16646   1504790.461 5   1155924.80946
  22738270.05146        41.400          21.800  
 08  1 20 20 26  0.0000000  0  9G02G05G06G10G16G21G24G29G30   -0.000214899
  23632588.469 6     -2467.365 6     -1922.61947   1516711.066 6   1156171.28147
  23632582.73047        43.200          28.100  
  23857459.078 4     -2906.210 4     -2264.57745   1706652.355 4   1314011.37145
  23857455.14845        38.700          17.400  
  20535126.477 6      1914.948 6      1492.16648  -1376636.699 6  -1050029.82848
  20535122.32848        47.000          35.600  
  20832441.477 6      -118.860 6       -92.62048   -110396.848 6    -80733.67648
  20832436.58248        47.500          37.100  
  24471823.320 5      3713.895 5      2893.94046  -2351380.663 5  -1627044.71046
  24471819.81646        40.400          20.400  
  22684770.531 4      3591.933 4      2798.91346  -2296837.398 4  -1744127.55946
  22684765.50446        38.300          19.000  
  20322941.813 7      1481.175 7      1154.16348  -1074459.535 7   -811795.39148
  20322937.75448        48.500          37.500  
  20267537.906 6       985.737 6       768.10648   -704215.879 6   -546187.26648
  20267532.58648        46.400          39.500  
  22740682.914 5     -2532.804 5     -1973.60946   1517454.480 5   1165792.85246
  22740679.61346        42.200          20.900  
 08  1 20 20 26  5.0000000  0  9G02G05G06G10G16G21G24G29G30   -0.000217594
  23634937.750 6     -2468.271 6     -1923.32347   1529052.422 6   1165787.89847
  23634931.74647        43.100          29.300  
  23860224.758 5     -2907.016 5     -2265.20645   1721187.438 5   1325337.40245
  23860221.62145        39.300          17.400  
  20533306.898 6      1912.208 6      1490.03448  -1386197.738 6  -1057479.99648
  20533302.85548        46.500          35.600  
  20832558.258 7      -122.573 7       -95.51248   -109783.980 7    -80256.11748
  20832553.21548        47.900          37.000  
  24468292.359 4      3711.723 4      2892.25946  -2369939.277 4  -1641506.00446
  24468288.54346        39.000          21.100  
  22681353.984 5      3590.624 5      2797.88745  -2314790.516 5  -1758116.99245
  22681349.23445        39.400          18.600  
  20321535.211 7      1478.657 7      1152.19848  -1081852.820 7   -817556.38348
  20321530.82048        48.600          37.400  
  20266603.031 7       982.809 7       765.82848   -709129.922 7   -550016.40648
  20266597.66848        47.800          40.400  
  22743094.719 5     -2534.680 5     -1975.08846   1530127.879 5   1175668.28946
  22743091.21146        41.800          19.300  
 08  1 20 20 26 10.0000000  0 10G02G05G06G10G12G16G21G24G29G30   -0.000220289
  23637286.430 6                                   1541397.242 6   1175407.22347
  23637280.82047        43.200          27.900  
  23862991.844 4     -2907.490 4     -2265.56645   1735724.887 4   1336665.23045
  23862988.16845        38.600          16.900  
  20531490.367 7                                  -1395746.543 7  -1064920.62548
  20531485.69948        47.600          35.500  
  20832677.961 6                                   -109153.719 6    -79765.01648
  20832673.26248        47.300          36.500  
  24859313.484 1                                    148548.41411
                        31.000  
  24464763.672 5                                  -2388488.246 5  -1655959.70746
  24464758.59446        39.900          20.600  
  22677939.625 4      3589.621 4      2797.10845  -2332738.621 4  -1772102.53145
  22677934.25445        38.700          18.600  
  20320130.125 7                                  -1089234.898 7   -823308.64848
  20320125.92648        48.000          36.300  
  20265669.977 6                                   -714030.703 6   -553835.18448
  20265665.25048        47.000          39.900  
  22745507.461 5                                   1542809.164 5   1185549.73846
  22745504.53546        41.900          19.000  
 08  1 20 20 26 15.0000000  0 10G02G05G06G10G12G16G21G24G29G30   -0.000222984
  23639636.500 6     -2469.849 6     -1924.55847   1553746.488 6   1185030.01247
  23639630.75447        42.500          26.500  
  23865758.984 5     -2908.287 5     -2266.19445   1750266.320 5   1347996.19945
  23865755.40645        39.800          16.300  
  20529675.797 6      1907.015 6      1485.98448  -1405281.617 6  -1072350.54348
  20529670.96548        46.300          35.300  
  20832801.766 7      -129.753 7      -101.10748   -108504.953 7    -79259.48048
  20832796.62948        48.000          35.600  
  24862119.977 1     -2948.66811                    163291.754 1
                        30.700  
  24461235.289 5      3707.544 5      2888.99946  -2407025.969 5  -1670404.70346
  24461231.21146        39.800          20.100  
  22674525.219 5      3588.295 5      2796.07745  -2350680.098 5  -1786082.91845
  22674519.80945        40.300          18.300  
  20318727.680 7      1473.893 7      1148.48848  -1096604.363 7   -829051.08648
  20318723.81348        48.300          36.600  
  20264740.352 7       977.230 7       761.48248   -718916.852 7   -557642.59448
  20264734.99248        48.400          40.000  
  22747922.695 5     -2538.126 5     -1977.76845   1555499.797 5   1195438.57845
  22747919.35945        41.400          17.400  
 08  1 20 20 26 20.0000000  0 11G02G05G06G10G12G16G21G24G26G29G30   -0.000225677
  23641987.094 6                                   1566098.633 6   1194655.06647
  23641982.08647        43.100          28.300  
  23868525.695 5     -2908.671 5     -2266.50245   1764809.676 5   1359328.71145
  23868522.79345        40.200          15.600  
  20527863.297 6                                  -1414804.734 6  -1079771.17248
  20527858.87548        46.600          34.800  
  20832928.164 7                                   -107839.301 7    -78740.77748
  20832923.69148        47.800          36.000  
  24864925.328 1     -2948.667 1                    178035.086 1
                        33.400  
  24457710.789 5                                  -2425554.164 5  -1684842.31646
  24457705.63346        40.600          19.000  
  22671112.523 5      3587.370 5      2795.34446  -2368616.945 5  -1800059.63746
  22671106.73046        39.800          19.000  
  20317327.461 7                                  -1103962.996 7   -834785.10248
  20317323.71948        48.800          37.300  
  24840539.477 4                                   -159235.46514    -91293.43055
  24840538.30145        38.200          16.900  
  20263813.328 7                                   -723790.152 7   -561439.96948
  20263808.16848        48.200          40.600  
  22750339.227 5                                   1568197.777 5   1205333.13745
  22750336.02745        40.900          16.300  
 08  1 20 20 26 25.0000000  0 11G02G05G06G10G12G16G21G24G26G29G30   -0.000228371
  23644338.289 5     -2471.347 5     -1925.73047   1578455.367 5   1204283.71947
  23644333.70347        41.700          26.500  
  23871294.102 5     -2909.422 5     -2267.07245   1779356.785 5   1370664.07045
  23871291.02345        40.500          17.400  
  20526054.133 6      1901.890 6      1481.99348  -1424314.184 6  -1087181.13748
  20526049.61748        45.000          35.700  
  20833058.219 6      -136.838 6      -106.62748   -107155.109 6    -78207.64148
  20833053.80548        47.200          35.100  
  24867732.727 1     -2949.051 1                    192780.340 1
                        32.000  
  24454186.922 5      3703.412 5      2885.77445  -2444071.223 5  -1699271.18845
  24454181.74245        40.900          17.800  
  22667699.984 4      3586.054 4      2794.34345  -2386547.215 4  -1814031.35245
  22667694.59845        37.400          18.300  
  20315929.258 6      1469.206 6      1144.83848  -1111309.027 6   -840509.28948
  20315926.10948        46.800          36.900  
  24836082.094 4      4685.41814      3650.97255   -182662.555 4   -109548.28945
  24836080.30545        37.700          16.900  
  20262888.313 6       971.730 6       757.19248   -728648.801 6   -565225.93048
  20262883.52748        45.600          40.200  
  22752756.406 5     -2541.437 5     -1980.34345   1580904.961 5   1215234.85245
  22752753.65245        41.100          16.900  
 08  1 20 20 26 30.0000000  0 11G02G05G06G10G12G16G21G24G26G29G30   -0.000231064
  23646690.406 5     -2472.160 5     -1926.34846   1590816.168 5   1213915.46146
  23646685.79346        40.800          23.000  
  23874063.063 5     -2910.077 5     -2267.60245   1793907.168 5   1382002.07845
  23874059.76645        39.700          17.400  
  20524247.203 6      1899.317 6      1479.98448  -1433810.770 6  -1094581.05948
  20524242.15248        45.800          34.400  
  20833191.750 6      -140.441 6      -109.43448   -106452.902 6    -77660.46948
  20833187.53148        46.200          34.900  
  24870538.859 1     -2949.290 1                    207526.789 1
                        31.900  
  24450665.008 5      3701.371 5      2884.18845  -2462578.078 5  -1713692.12945
  24450659.71545        40.000          17.400  
  22664288.703 4      3584.919 4      2793.43845  -2404471.809 4  -1827998.53945
  22664283.67245        37.800          17.400  
  20314533.836 6      1466.840 6      1142.99148  -1118643.227 6   -846224.24648
  20314530.00048        46.800          36.800  
  24831624.438 3      4685.040 3      3650.67745   -206087.754 3   -127801.67645
  24831622.44545        37.100          17.400  
  20261966.609 6       968.945 6       755.02048   -733493.523 6   -569001.02748
  20261961.77748        46.300          39.500  
  22755176.523 5     -2543.166 5     -1981.67345   1593620.789 5   1225143.21945
  22755173.33645        41.100          16.300  
 08  1 20 20 26 35.0000000  0 11G02G05G06G10G12G16G21G24G26G29G30   -0.000233755
  23649042.711 5     -2472.952 5     -1926.97446   1603180.926 5   1223550.33246
  23649038.47746        40.100          23.400  
  23876832.719 5     -2910.722 5     -2268.08245   1808460.777 5   1393342.48845
  23876829.68445        39.900          18.300  
  20522442.734 6      1896.656 6      1477.91648  -1443294.047 6  -1101970.64148
  20522437.61748        46.800          35.800  
  20833328.781 6      -144.047 6      -112.24448   -105732.668 6    -77099.25048
  20833324.29748        47.200          35.800  
  24873346.102 1     -2949.573 1                    222274.652 1
                        30.800  
  24447144.578 5      3699.230 5      2882.50445  -2481074.227 5  -1728104.64845
  24447139.37545        39.900          15.600  
  22660878.836 3      3583.684 3      2792.49145  -2422390.230 3  -1841960.99645
  22660874.03545        37.100          16.300  
  20313139.961 7      1464.412 7      1141.10248  -1125965.285 7   -851929.75448
  20313136.84848        48.500          38.300  
  24827167.258 4      4684.754 4      3650.46246   -229511.523 4   -146053.98846
  24827165.49246        38.700          19.300  
  20261046.844 7       966.112 7       752.81648   -738324.082 7   -572765.10548
  20261042.55548        47.600          40.200  
  22757598.039 5     -2544.909 5     -1983.04445   1606345.336 5   1235058.43845
  22757595.07445        41.100          16.300  
 08  1 20 20 26 40.0000000  0 11G02G05G06G10G12G16G21G24G26G29G30   -0.000236446
  23651396.484 5     -2473.726 5     -1927.57746   1615549.555 5   1233188.21946
  23651392.00446        41.300          22.900  
  23879602.563 5     -2911.344 5     -2268.58345   1823017.500 5   1404685.40245
  23879599.61345        39.900          17.400  
  20520640.680 6      1894.098 6      1475.91848  -1452764.539 6  -1109350.23048
  20520635.46948        45.200          34.900  
  20833469.500 6      -147.593 6      -115.00748   -104994.703 6    -76524.21548
  20833464.90648        47.000          35.300  
  24876151.461 1     -2949.772 1                    237023.512 1
                        31.600  
  24443627.367 5      3697.196 5      2880.94545  -2499560.207 5  -1742509.37545
  24443621.62945        41.700          16.300  
  22657470.680 4      3582.570 4      2791.59445  -2440303.082 4  -1855918.96545
  22657465.57045        38.100          16.300  
  20311749.250 6      1462.075 6      1139.27748  -1133275.660 6   -857626.13748
  20311745.58248        46.800          37.800  
  24822709.961 4      4684.392 4      3650.17345   -252933.484 4   -164304.85545
  24822708.09445        38.400          18.600  
  20260130.367 6       963.354 6       750.66548   -743140.852 6   -576518.43048
  20260126.06348        46.100          39.800  
  22760020.859 5     -2546.601 5     -1984.37045   1619078.341 5   1244980.28945
  22760017.72345        41.300          16.900  
 08  1 20 20 26 45.0000000  0 11G02G05G06G10G12G16G21G24G26G29G30   -0.000239138
  23653750.641 5     -2474.379 5     -1928.08646   1627921.449 5   1242828.64846
  23653746.07446        39.200          22.500  
  23882373.406 4     -2911.849 4     -2268.96745   1837576.746 4   1416030.23845
  23882370.49645        38.900          17.400  
  20518840.836 6      1891.573 6      1473.95648  -1462222.402 6  -1116720.01248
  20518835.58648        45.300          35.000  
  20833612.719 6      -151.070 6      -117.71648   -104239.352 6    -75935.63348
  20833608.34448        45.500          34.900  
  24878957.805 1     -2949.906 1                    251773.043 1
                        28.600  
  24440110.719 4      3695.156 4      2879.34545  -2518035.984 4  -1756906.10245
  24440106.24245        38.400          15.600  
  22654062.555 3      3581.458 3      2790.75745  -2458210.371 3  -1869872.75045
  22654057.77345        37.300          17.400  
  20310360.164 6      1459.789 6      1137.49848  -1140574.605 6   -863313.62948
  20310356.75848        46.400          38.000  
  24818252.820 4      4684.217 4      3650.02546   -276354.570 4   -182554.98046
  24818250.86746        37.600          19.600  
  20259216.148 6       960.661 6       748.56648   -747944.156 6   -580261.26248
  20259211.76248        46.100          40.000  
  22762445.719 5     -2548.182 5     -1985.59245   1631819.250 5   1254908.24645
  22762441.68845        40.900          16.900  
 08  1 20 20 26 50.0000000  0 11G02G05G06G10G12G16G21G24G26G29G30   -0.000241829
  23656104.656 4     -2475.013 4     -1928.58646   1640296.516 4   1252471.57846
  23656100.58646        39.000          21.100  
  23885143.680 5     -2912.321 5     -2269.33645   1852138.352 5   1427376.91845
  23885140.90645        39.600          17.400  
  20517043.422 6      1889.143 6      1472.05948  -1471668.117 6  -1124080.30548
  20517038.55948        45.200          34.400  
  20833760.258 6      -154.485 6      -120.37848   -103466.926 6    -75333.74248
  20833756.02048        45.200          33.900  
  24881765.383 1     -2949.977 1                    266522.930 1
                        29.400  
  24436597.547 4      3693.233 4      2877.83245  -2536502.148 4  -1771295.26245
  24436591.97345        38.100          15.600  
  22650655.656 4      3580.475 4      2789.98045  -2476112.746 4  -1883822.64845
  22650651.15645        37.400          16.300  
  20308973.398 6      1457.576 6      1135.77348  -1147862.484 6   -868992.49248
  20308970.06648        46.400          37.400  
  24813796.289 4      4684.009 4      3649.88945   -299774.613 4   -200804.42645
  24813794.30545        38.300          18.600  
  20258305.078 6       958.025 6       746.51248   -752734.281 6   -583993.82048
  20258300.27048        46.100          39.000  
  22764871.195 5     -2549.732 5     -1986.80145   1644567.910 5   1264842.25045
  22764868.05945        40.300          17.400  
 08  1 20 20 26 55.0000000  0 11G02G05G06G10G12G16G21G24G26G29G30   -0.000244520
  23658460.969 4     -2475.745 4     -1929.14146   1652675.242 4   1262117.28546
  23658455.86346        38.600          21.300  
  23887915.508 4     -2912.894 4     -2269.78745   1866702.820 4   1438725.85245
  23887912.56345        38.600          17.400  
  20515247.984 6      1886.563 6      1470.05048  -1481100.934 6  -1131430.55548
  20515243.32448        45.200          34.700  
  20833910.680 6      -158.034 6      -123.14348   -102676.758 6    -74718.02748
  20833906.49248        45.000          35.100  
  24884570.977 1     -2950.168 1                    281273.770 1
                        29.100  
  24433084.969 4      3691.150 4      2876.23145  -2554957.898 4  -1785676.41845
  24433080.05945        37.600          14.800  
  22647250.039 4      3579.348 4      2789.10245  -2494009.488 4  -1897768.15645
  22647245.47345        37.900          17.400  
  20307588.922 6      1455.228 6      1133.94548  -1155138.625 6   -874662.21548
  20307585.53548        46.200          37.400  
  24809339.367 4      4683.720 4      3649.63446   -323193.211 4   -219052.59446
  24809338.04346        38.600          19.000  
  20257396.156 6       955.274 6       744.37248   -757510.652 6   -587715.68048
  20257391.75848        44.700          39.900  
  22767299.031 5     -2551.381 5     -1988.08545   1657324.816 5   1274782.67645
  22767295.63345        39.900          17.400  
 08  1 20 20 27  0.0000000  0 11G02G05G06G10G12G16G21G24G26G29G30   -0.000247210
  23660816.750 4     -2476.602 4     -1929.82346   1665058.250 4   1271766.40246
  23660812.41446        37.800          19.900  
  23890688.117 4     -2913.593 4     -2270.33645   1881270.785 4   1450077.53145
  23890684.79345        38.800          16.300  
  20513455.961 6      1883.864 6      1467.94748  -1490520.254 6  -1138770.28948
  20513450.97748        43.600          34.000  
  20834064.180 6      -161.694 6      -125.99548   -101868.289 6    -74088.05148
  20834059.93848        43.900          35.000  
  24887378.711 1                                                
                        26.800  
  24429575.430 4      3688.966 4      2874.51345  -2573402.730 4  -1800048.98445
  24429569.41845        38.100          16.300  
  22643846.711 4      3578.064 4      2788.11245  -2511899.809 4  -1911708.71545
  22643841.43445        37.900          17.400  
  20306206.508 6      1452.752 6      1132.01648  -1162402.387 6   -880322.29348
  20306203.28548        44.500          36.800  
  24804884.266 4      4683.314 4      3649.33546   -346609.781 4   -237299.27046
  24804882.09846        38.200          19.900  
  20256489.922 6       952.389 6       742.12148   -762272.598 6   -591426.28548
  20256485.04348        44.400          39.300  
  22769728.984 5     -2553.166 5     -1989.47545   1670090.645 5   1284730.05145
  22769724.51645        40.200          16.900  
 08  1 20 20 27  5.0000000  0 11G02G05G06G10G12G16G21G24G26G29G30   -0.000249899
  23663174.273 4     -2477.440 4     -1930.47046   1677445.449 4   1281418.75246
  23663169.35946        38.600          19.300  
  23893460.859 4     -2914.278 4     -2270.85745   1895842.177 4   1461431.81545
  23893458.03545        39.000          16.300  
  20511665.836 6      1881.182 6      1465.85748  -1499926.164 6  -1146099.57448
  20511660.91448        44.000          34.200  
  20834221.313 6      -165.338 6      -128.83448   -101041.598 6    -73443.88348
  20834217.22748        44.100          34.200  
  24890185.219 1                                                
                        26.400  
  24426067.359 4      3686.795 4      2872.83645  -2591836.707 4  -1814413.16445
  24426062.06645        38.000          15.600  
  22640443.305 5      3576.820 5      2787.12445  -2529783.906 5  -1925644.33245
  22640437.98045        39.800          18.600  
  20304827.047 6      1450.311 6      1130.10948  -1169653.941 6   -885972.84048
  20304823.52348        46.000          36.800  
  24800428.594 4      4682.896 4      3649.00546   -370024.258 4   -255544.29746
  24800426.05946        37.900          19.300  
  20255586.453 6       949.529 6       739.89248   -767020.242 6   -595125.74648
  20255581.38748        45.900          38.900  
  22772159.156 5     -2554.927 5     -1990.85545   1682865.281 5   1294684.32445
  22772155.50045        41.200          16.300  
 08  1 20 20 27 10.0000000  0 10G02G05G06G10G16G21G24G26G29G30   -0.000252586
  23665531.875 4                                   1689836.344 4   1291074.02746
  23665527.51646        37.900          19.600  
  23896234.125 5     -2914.844 5     -2271.31145   1910416.398 5   1472788.37145
  23896231.37945        39.800          17.400  
  20509878.477 6                                  -1509319.223 6  -1153418.83648
  20509873.60248        45.100          34.400  
  20834382.461 6                                   -100197.281 6    -72785.97747
  20834377.97347        44.600          33.600  
  24422560.766 3                                  -2610260.184 3  -1828769.05145
  24422556.75045        37.300          14.800  
  22637041.320 5      3575.673 5      2786.24245  -2547662.270 5  -1939575.54345
  22637035.36745        39.400          16.900  
  20303448.891 6                                  -1176893.750 6   -891614.25448
  20303445.83648        47.000          36.600  
  24795972.961 4                                   -393437.309 4   -273788.19946
  24795970.46546        38.300          19.000  
  20254685.539 6                                   -771754.082 6   -598814.45348
  20254681.00848        46.700          39.200  
  22774592.453 5                                   1695648.168 5   1304645.02345
  22774588.13345        40.800          16.900  
 08  1 20 20 27 15.0000000  0 10G02G05G06G10G16G21G24G26G29G30   -0.000255274
  23667891.023 4     -2479.127 4     -1931.78746   1702231.980 4   1300732.96146
  23667886.77746        38.300          20.400  
  23899008.023 5     -2915.615 5     -2271.90745   1924994.473 5   1484147.90645
  23899006.02045        39.400          16.300  
  20508094.008 6      1875.816 6      1461.67648  -1518698.305 6  -1160727.21548
  20508089.32448        44.100          34.100  
  20834546.609 6      -172.620 6      -134.50848    -99334.180 6    -72113.43848
  20834542.52748        44.200          33.800  
  24419057.219 3      3682.411 3      2869.43645  -2628672.238 3  -1843116.23045
  24419053.23845        36.400          13.900  
  22633639.805 5      3574.331 5      2785.19545  -2565533.926 5  -1953501.51645
  22633634.29745        39.200          18.300  
  20302073.891 6      1445.405 6      1126.29148  -1184120.773 6   -897245.70748
  20302070.36748        46.600          37.000  
  24791518.188 5      4682.081 5      3648.37445   -416847.711 5   -292030.06645
  24791515.81645        40.200          18.600  
  20253787.617 6       943.793 6       735.42348   -776473.047 6   -602491.57048
  20253783.12148        45.100          39.200  
  22777026.086 5     -2558.435 5     -1993.58845   1708440.344 5   1314612.96145
  22777022.64545        41.200          17.800  
 08  1 20 20 27 20.0000000  0 10G02G05G06G10G16G21G24G26G29G30   -0.000257959
  23670251.320 4     -2479.604 4     -1932.13546   1714630.000 4   1310393.63746
  23670245.80946        37.900          19.900  
  23901782.977 1     -2915.809 1     -2272.04245   1939573.520 1   1495508.11345
  23901779.96545        31.200          17.800  
  20506311.414 6      1873.188 6      1459.62048  -1528064.242 6  -1168025.31648
  20506307.04748        46.300          35.300  
  20834713.547 6      -175.926 6      -137.08747    -98454.551 6    -71428.00047
  20834709.47347        45.600          33.500  
  24415556.469 2      3679.781 2                  -2647071.141 2
                        34.000  
  22630240.141 6      3573.071 6      2784.20045  -2583399.281 6  -1967422.51645
  22630234.89545        44.300          18.600  
  20300700.563 6      1443.077 6      1124.47248  -1191336.160 6   -902868.06648
  20300696.78548        47.300          34.100  
  24787062.000 4      4682.387 4      3648.60746   -440259.645 4   -310273.10246
  24787060.43846        38.300          20.100  
  20252891.914 6       941.108 6       733.33348   -781178.586 6   -606158.23448
  20252887.95748        45.900          38.300  
  22779462.078 6     -2559.764 6     -1994.62246   1721239.164 6   1324586.07046
  22779457.95746        43.800          19.000  
 08  1 20 20 27 25.0000000  0 10G02G05G06G10G16G21G24G26G29G30   -0.000260645
  23672610.906 3     -2479.985 3     -1932.48846   1727029.926 3   1320056.07446
  23672605.40646        37.300          19.300  
  23904557.516 3                                                
                        37.000  
  20504531.828 7      1870.338 7      1457.40948  -1537415.930 7  -1175312.35948
  20504527.27048        48.100          36.200  
  20834883.117 6      -179.329 6      -139.72848    -97557.906 6    -70729.35948
  20834879.68848        46.300          35.100  
  24412056.281 1                                                
                        32.900  
  22626842.484 6      3571.529 6      2783.00146  -2601256.926 6  -1981337.52046
  22626837.07446        44.600          22.900  
  20299330.656 6      1440.519 6      1122.48447  -1198538.754 6   -908480.48447
  20299326.01647        47.500          33.500  
  24782607.227 5      4682.507 5      3648.70046   -463672.180 5   -328516.60246
  24782605.13746        40.100          20.100  
  20251999.523 6       938.208 6       731.06948   -785869.625 6   -609813.57848
  20251994.50448        46.700          36.800  
  22781898.742 6     -2561.508 6     -1995.99346   1734046.703 6   1334566.03546
  22781895.70346        43.600          20.400  
 08  1 20 20 27 30.0000000  0 11G02G05G06G10G12G16G21G24G26G29G30   -0.000263332
  23674972.508 3                                   1739436.223 3   1329723.15245
  23674966.68845        35.900          18.600  
  23907333.094 4                                   1968743.72314   1503237.65655
  23907331.09445        37.600          18.300  
  20502753.805 6                                  -1546756.512 6  -1182590.71948
  20502749.92648        46.400          34.800  
  20835058.977 6                                    -96642.168 6    -70015.73047
  20835054.02347        46.400          33.500  
  24904227.359 1                                                
                        30.500  
  24408558.906 4                                  -2683839.01214
                        37.900  
  22623444.250 5      3570.919 5      2782.52646  -2619111.523 5  -1995250.14846
  22623439.40646        41.800          21.700  
  20297961.898 6                                  -1205730.762 6   -914084.64547
  20297958.07447        46.800          32.600  
  24778154.086 5                                   -487077.750 5   -346754.68446
  24778151.28546        40.500          20.600  
  20251109.438 6                                   -790547.359 6   -613458.53948
  20251104.78948        45.800          36.100  
  22784337.734 5                                   1746863.723 5   1344553.29346
  22784334.36746        40.600          19.900  
 08  1 20 20 27 35.0000000  0 11G02G05G06G10G12G16G21G24G26G29G30   -0.000266016
  23677332.945 3     -2482.134 3     -1934.13145   1751846.891 3   1339393.80945
  23677327.73845        36.300          18.300  
  23910109.828 4     -2917.93714     -2273.69955   1983333.406 4   1514606.15245
  23910108.10945        37.900          17.400  
  20500979.461 6      1865.430 6      1453.58248  -1556083.664 6  -1189858.62948
  20500974.71948        46.000          35.500  
  20835236.969 6      -186.793 6      -145.55047    -95708.203 6    -69287.98047
  20835231.80947        46.700          33.300  
  24907034.898 1                                                
                        29.900  
  24405065.430 4      3674.04314                  -2702209.227 4
                        38.400  
  22620047.344 5      3569.723 5      2781.60646  -2636960.137 5  -2009158.18046
  22620042.70746        39.500          20.400  
  20296595.820 6      1435.977 6      1118.94447  -1212910.645 6   -919679.36347
  20296591.26247        47.000          32.300  
  24773700.344 5      4680.724 5      3647.31546   -510481.371 5   -364991.25846
  24773697.50446        39.500          19.300  
  20250221.680 6       932.692 6       726.77348   -795210.820 6   -617092.40648
  20250217.45348        44.700          36.000  
  22786777.805 5     -2565.067 5     -1998.74545   1759689.059 5   1354547.02045
  22786775.29345        40.600          17.800  
 08  1 20 20 27 40.0000000  0 11G02G05G06G10G12G16G21G24G26G29G30   -0.000268700
  23679695.367 2     -2483.013 2     -1934.81445   1764261.957 2   1349067.87945
  23679690.14845        34.200          17.800  
  23912886.633 4     -2918.602 4     -2274.24545   1997926.414 4   1525977.37945
  23912884.83645        37.900          17.400  
  20499207.180 7      1862.764 7      1451.50548  -1565397.484 7  -1197116.15648
  20499202.56348        48.200          36.000  
  20835417.359 6      -190.454 6      -148.40648    -94755.934 6    -68545.94948
  20835412.78948        46.200          33.800  
  24909844.563 1                                     51374.63311
                        30.300  
  24401572.469 2      3671.846 2                  -2720568.457 2
                        35.200  
  22616651.156 5      3568.542 5      2780.66246  -2654802.844 5  -2023061.48846
  22616647.52346        39.200          19.300  
  20295231.938 7      1433.526 7      1117.03447  -1220078.273 7   -925264.53547
  20295227.01647        47.900          33.600  
  24769246.133 3      4680.249 3      3646.93746   -533882.617 3   -383225.94146
  24769244.45346        36.400          19.000  
  20249337.336 6       929.819 6       724.53648   -799859.914 6   -620715.08648
  20249332.58648        47.000          36.100  
  22789219.828 5     -2566.778 5     -2000.09445   1772522.949 5   1364547.48845
  22789217.64845        42.400          17.800  
 08  1 20 20 27 45.0000000  0 10G02G05G06G10G12G21G24G26G29G30   -0.000271381
  23682058.242 2                                   1776680.246 2   1358744.46545
  23682053.13345        35.000          17.400  
  23915663.359 3     -2919.135 3     -2274.65645   2012522.090 3   1537350.65645
  23915662.16845        36.700          16.300  
  20497437.055 6                                  -1574698.516 6  -1204363.69948
  20497432.12948        46.600          34.900  
  20835602.180 6                                    -93786.355 6    -67790.41447
  20835597.20747        45.500          33.200  
  24912654.172 1                                     66137.40611
                        27.300  
  22613257.750 6      3567.373 6      2779.77745  -2672639.707 6  -2036960.37145
  22613252.47745        42.600          18.600  
  20293870.219 6                                  -1227234.391 6   -930840.73047
  20293865.84047        46.600          32.800  
  24764793.641 2      4679.976 2      3646.73446   -557282.496 2   -401459.60946
  24764792.05546        34.400          19.000  
  20248455.141 6                                   -804495.371 6   -624327.13348
  20248450.22748        45.400          35.100  
  22791664.250 5                                   1785364.996 5   1374554.24645
  22791660.87145        42.000          17.800  
 08  1 20 20 27 50.0000000  0 10G02G05G06G10G12G21G24G26G29G30   -0.000274065
  23684422.797 3     -2484.429 3     -1935.92245   1789102.391 3   1368424.07445
  23684416.81645        37.100          17.800  
  23918441.703 3     -2919.698 3     -2275.08245   2027120.582 3   1548726.06645
  23918439.87545        37.200          17.400  
  20495669.195 6      1857.528 6      1447.42448  -1583986.156 6  -1211600.82048
  20495665.18848        47.500          34.900  
  20835790.133 6      -197.495 6      -153.88847    -92798.879 6    -67020.97347
  20835785.31647        47.200          33.700  
  24915463.055 1     -2952.72811                     80901.047 1
                        32.000  
  22609865.000 5      3566.095 5      2778.79545  -2690470.184 5  -2050854.34845
  22609859.46545        39.700          18.600  
  20292510.438 7      1428.802 7      1113.34947  -1234378.398 7   -936407.47747
  20292506.21947        47.700          33.100  
  24760341.586 4      4679.674 4      3646.49145   -580680.867 4   -419692.06345
  24760339.43445        37.600          17.800  
  20247575.672 6       924.252 6       720.19548   -809116.629 6   -627928.10548
  20247571.31648        44.700          35.700  
  22794109.680 5     -2570.069 5     -2002.64745   1798215.340 5   1384567.48045
  22794106.57845        42.000          16.900  
 08  1 20 20 27 55.0000000  0 11G02G05G06G10G12G16G21G24G26G29G30   -0.000276743
  23686785.336 2                                   1801528.598 2   1378106.79745
  23686780.94545        35.000          18.600  
  23921219.352 4     -2920.394 4     -2275.64445   2041722.551 4   1560104.28545
  23921218.51645        38.400          16.900  
  20493905.242 7                                  -1593260.250 7  -1218827.41448
  20493900.15248        48.100          35.400  
  20835981.766 7                                    -91793.262 7    -66237.38348
  20835976.25848        48.500          34.900  
  24918272.547 1     -2953.038 1                     95666.238 1
                        29.400  
  24391100.359 2                                                
                        35.200  
  22606473.367 6      3564.823 6      2777.79046  -2708294.297 6  -2064743.29746
  22606467.77046        44.100          20.100  
  20291153.422 7                                  -1241510.133 7   -941964.66048
  20291149.06648        49.200          34.300  
  24755890.266 5      4679.199 5      3646.15145   -604076.863 5   -437922.81645
  24755887.07045        40.600          18.600  
  20246699.227 6                                   -813723.516 6   -631517.89848
  20246694.76648        45.600          38.200  
  22796556.469 5                                   1811074.625 5   1394587.63345
  22796553.62145        42.300          17.400  
 08  1 20 20 28  0.0000000  0 11G02G05G06G10G12G16G21G24G26G29G30   -0.000279428
  23689153.953 3     -2485.958 3     -1937.10945   1813958.387 3   1387792.34045
  23689146.36345        36.400          18.300  
  23924000.047 3     -2920.848 3     -2275.97545   2056326.789 3   1571484.16045
  23923997.47745        36.600          16.900  
  20492142.070 6      1852.383 6      1443.40948  -1602522.164 6  -1226044.46148
  20492137.95348        46.900          34.600  
  20836176.461 6      -204.609 6      -159.43948    -90770.219 6    -65440.18848
  20836171.67648        46.500          34.200  
  24921083.828 1     -2953.098 1                    110431.727 1
                        31.500  
  24387616.133 3                                    -27099.62913
                        35.800  
  22603081.828 4      3563.908 4      2777.06146  -2726113.836 4  -2078628.60246
  22603077.26246        37.400          20.400  
  20289798.289 6      1424.113 6      1109.70247  -1248630.695 6   -947513.17247
  20289793.93047        46.800          33.000  
  24751436.523 2      4678.874 2      3645.84945   -627471.230 2   -456152.06345
  24751435.65645        34.700          18.600  
  20245824.813 6       918.711 6       715.87748   -818317.070 6   -635097.28148
  20245820.91448        45.100          35.700  
  22799004.406 5     -2573.333 5     -2005.21545   1823941.289 5   1404613.70745
  22799002.19945        40.500          15.600  
 08  1 20 20 28  5.0000000  0 11G02G05G06G10G12G16G21G24G26G29G30   -0.000282110
  23691518.727 4     -2486.622 4     -1937.62746   1826391.496 4   1397480.47346
  23691512.44146        38.400          19.000  
  23926778.758 3     -2921.340 3     -2276.37245   2070933.488 3   1582866.02045
  23926777.45345        36.500          16.900  
  20490382.375 7      1849.766 7      1441.37948  -1611770.992 7  -1233251.35548
  20490377.96948        47.900          35.600  
  20836374.359 6      -208.080 6      -162.13948    -89729.816 6    -64629.49248
  20836369.52048        46.800          35.000  
  24923892.695 1     -2953.226 1                    125197.855 1
                        31.800  
  24384131.969 3      3661.30413                    -45406.148 3
                        36.900  
  22599691.906 5      3562.689 5      2776.12046  -2743927.281 5  -2092509.19946
  22599687.45746        41.500          19.300  
  20288445.008 7      1421.776 7      1107.87748  -1255739.574 7   -953052.55948
  20288441.25448        48.100          34.400  
  24746985.867 3      4678.641 3      3645.69345   -650864.434 3   -474380.52745
  24746983.87945        36.700          18.600  
  20244953.141 6       915.968 6       713.74448   -822896.910 6   -638666.00048
  20244949.17648        45.800          37.400  
  22801455.000 6     -2574.938 6     -2006.42845   1836815.980 6   1414645.84845
  22801451.82845        42.600          16.300  
 08  1 20 20 28 10.0000000  0 11G02G05G06G10G12G16G21G24G26G29G30   -0.000284790
  23693885.055 3     -2487.464 3     -1938.29846   1838828.816 3   1407171.96146
  23693879.94546        37.300          19.000  
  23929558.250 4     -2922.003 4     -2276.88645   2085543.504 4   1594250.44945
  23929557.81645        38.300          15.600  
  20488624.773 7      1847.047 7      1439.25848  -1621006.227 7  -1240447.64548
  20488620.79748        48.700          36.200  
  20836575.781 6      -211.721 6      -164.97748    -88671.211 6    -63804.60948
  20836570.67248        47.500          34.200  
  24926701.539 1     -2953.491 1                    139965.313 1
                        31.500  
  24380648.719 1      3659.053 1                    -63701.414 1
                        29.600  
  22596303.977 6      3561.420 6      2775.13046  -2761734.383 6  -2106384.85246
  22596298.88746        44.700          21.100  
  20287094.563 7      1419.305 7      1105.95048  -1262836.102 7   -958582.30948
  20287090.58648        47.800          35.200  
  24742534.852 5      4678.146 5      3645.30945   -674255.160 5   -492607.07445
  24742532.40245        40.700          17.800  
  20244084.734 6       913.074 6       711.48748   -827462.281 6   -642223.43448
  20244080.33648        47.500          37.600  
  22803907.727 5     -2576.698 5     -2007.82445   1849699.473 5   1424684.96945
  22803903.76645        41.900          17.400  
 08  1 20 20 28 15.0000000  0 11G02G05G06G10G12G16G21G24G26G29G30   -0.000287472
  23696253.297 3     -2487.908 3     -1938.61346   1851268.355 3   1416865.02346
  23696247.01246        36.200          19.600  
  23932338.445 3     -2922.336 3     -2277.15945   2100155.184 3   1605636.24245
  23932338.42645        36.000          16.300  
  20486869.859 7      1844.771 7      1437.48248  -1630230.082 7  -1247635.05548
  20486865.28948        48.200          35.700  
  20836780.469 7      -214.960 7      -167.50448    -87596.410 7    -62967.09048
  20836775.56648        48.000          34.300  
  24929510.422 1     -2953.449 1                    154732.559 1
                        28.900  
  24377169.711 3      3657.313 3                    -81987.980 3
                        36.900  
  22592915.828 5      3560.566 5      2774.46946  -2779537.211 5  -2120257.19946
  22592911.18846        41.700          21.700  
  20285746.531 7      1417.254 7      1104.35248  -1269922.371 7   -964104.06648
  20285742.43448        48.200          33.900  
  24738083.781 4      4678.026 4      3645.20845   -697645.293 4   -510833.11345
  24738082.06645        37.700          17.800  
  20243218.281 6       910.590 6       709.54848   -832015.230 6   -645771.17248
  20243214.52348        47.000          38.400  
  22806359.414 5     -2578.074 5     -2008.87345   1862589.844 5   1434729.33245
  22806356.69945        41.200          16.300  
 08  1 20 20 28 20.0000000  0 11G02G05G06G10G12G16G21G24G26G29G30   -0.000290152
  23698621.813 3     -2488.427 3     -1939.02746   1863710.492 3   1426560.16046
  23698615.00846        36.700          19.600  
  23935120.109 3     -2922.638 3     -2277.36745   2114768.375 3   1617023.07845
  23935119.50845        35.700          14.800  
  20485116.531 7      1842.377 7      1435.61848  -1639441.965 7  -1254813.14548
  20485111.94948        48.600          35.100  
  20836988.219 7      -218.260 7      -170.07348    -86505.109 7    -62116.72748
  20836982.96948        48.200          34.600  
  24932322.516 1     -2953.370 1                    169499.406 1
                        31.500  
  24373693.016 5      3655.385 5                   -100264.906 5
                        39.900  
  22589529.180 5      3559.628 5      2773.73446  -2797335.352 5  -2134125.86746
  22589524.23446        40.700          20.100  
  20284399.977 7      1415.117 7      1102.69047  -1276997.957 7   -969617.51647
  20284395.95747        48.400          33.600  
  24733631.797 2      4677.888 2      3645.10845   -721034.734 2   -529058.65245
  24733631.39845        34.700          17.800  
  20242354.172 6       908.022 6       707.55048   -836555.340 6   -649308.92248
  20242349.78948        46.000          38.000  
  22808813.703 5     -2579.455 5     -2009.97245   1875487.117 5   1444779.19145
  22808811.32045        41.400          16.300  
 08  1 20 20 28 25.0000000  0 11G02G05G06G10G12G16G21G24G26G29G30   -0.000292833
  23700988.875 4     -2489.044 4     -1939.53446   1876155.715 4   1436257.83246
  23700982.97346        37.800          20.100  
  23937901.297 3     -2922.995 3     -2277.66745   2129383.348 3   1628411.41045
  23937900.53545        35.800          15.600  
  20483365.859 7      1839.861 7      1433.66248  -1648641.270 7  -1261981.45348
  20483361.97348        48.200          36.300  
  20837198.656 6      -221.677 6      -172.73648    -85396.727 6    -61253.04748
  20837194.24248        47.500          35.900  
  24935133.180 1     -2953.338 1                    184266.098 1
                        32.000  
  24370215.586 3      3653.352 3                   -118531.664 3
                        36.700  
  22586144.039 5      3558.577 5      2772.92346  -2815128.238 5  -2147990.48446
  22586138.53546        41.800          21.300  
  20283055.836 7      1412.875 7      1100.94448  -1284062.332 7   -975122.23448
  20283051.72748        49.000          35.100  
  24729182.195 4                                                
  24729180.63345        37.600          16.900  
  20241492.891 6       905.356 6       705.47548   -841082.121 6   -652836.29748
  20241488.43448        45.800          38.200  
  22811269.953 6     -2580.917 6     -2011.10245   1888391.699 6   1454834.70345
  22811266.75045        43.100          15.600  
 08  1 20 20 28 30.0000000  0 11G02G05G06G10G12G16G21G24G26G29G30   -0.000295513
  23703358.680 4     -2489.878 4     -1940.15246   1888605.105 4   1445958.59446
  23703351.75046        38.400          20.100  
  23940682.328 3     -2923.708 3     -2278.21245   2144001.891 3   1639802.47345
  23940682.55945        37.000          16.900  
  20481618.023 7      1837.137 7      1431.53648  -1657826.957 7  -1269139.13348
  20481613.69148        48.500          35.800  
  20837413.711 7      -225.331 7      -175.58348    -84270.070 7    -60375.13348
  20837409.11748        47.800          36.400  
  24937940.461 1     -2953.655 1                    199034.371 1
                        31.600  
  24366740.813 2      3651.113 2                   -136787.230 2  -1855097.60956
  24366735.93446        34.300          20.400  
  22582759.234 6      3557.281 6      2771.90646  -2832914.641 6  -2161850.01646
  22582753.55546        42.600          24.200  
  20281713.719 7      1410.398 7      1099.00548  -1291114.320 7   -980617.25848
  20281709.75048        49.000          34.400  
  24724732.773 4                                   -767809.20714   -565506.29755
  24724730.53945        38.700          17.800  
  20240634.078 6       902.447 6       703.20248   -845594.355 6   -656352.30948
  20240630.22348        46.200          38.800  
  22813727.453 5     -2582.691 5     -2012.45845   1901305.156 5   1464896.99245
  22813724.46545        42.000          16.900  
 08  1 20 20 28 35.0000000  0 11G02G05G06G10G12G16G21G24G26G29G30   -0.000298193
  23705727.602 4     -2490.378 4     -1940.55846   1901056.996 4   1455661.38346
  23705721.32046        38.700          21.100  
  23943464.727 3     -2924.007 3     -2278.46045   2158621.926 3   1651194.77345
  23943463.79745        37.200          16.300  
  20479872.563 7      1834.773 7      1429.69548  -1667000.820 7  -1276287.60548
  20479868.16048        48.200          36.200  
  20837630.977 7      -228.600 7      -178.12848    -83127.070 7    -59484.49248
  20837626.46548        47.900          36.600  
  24940751.438 1     -2953.581 1                    213802.273 1
                        31.200  
  24363269.008 2      3649.251 2      2843.55855   -155033.488 2  -1869315.39845
  24363263.83645        34.100          18.300  
  22579375.164 6      3556.365 6      2771.19246  -2850696.465 6  -2175705.97746
  22579370.10946        42.800          24.100  
  20280373.266 7      1408.283 7      1097.36648  -1298155.734 7   -986104.08648
  20280369.88748        48.600          34.400  
  24720282.484 4      4677.05214      3644.45856   -791194.469 4   -583728.58646
  24720280.54346        37.900          19.600  
  20239778.109 6       899.909 6       701.22848   -850093.898 6   -659858.44948
  20239773.94548        45.800          39.200  
  22816185.547 5     -2584.071 5     -2013.57645   1914225.512 5   1474964.87145
  22816182.71545        41.800          16.900  
 08  1 20 20 28 40.0000000  0 11G02G05G06G10G12G16G21G24G26G29G30   -0.000300873
  23708098.453 4     -2490.963 4     -1941.00746   1913511.813 4   1465366.41846
  23708091.43046        37.800          21.300  
  23946246.539 2     -2924.396 2     -2278.73445   2173243.906 2   1662588.44145
  23946245.95345        35.400          16.900  
  20478128.992 7      1832.348 7      1427.80248  -1676162.563 7  -1283426.61748
  20478124.50048        48.100          36.400  
  20837851.297 6      -231.970 6      -180.75848    -81967.223 6    -58580.70348
  20837847.02348        47.300          36.800  
  24943560.945 1     -2953.604 1                    228570.293 1
                        29.400  
  24359799.828 3      3647.299 3      2842.05945   -173269.984 3  -1883525.69545
  24359793.78945        36.400          16.900  
  22575992.234 5      3555.385 5      2770.43046  -2868473.391 5  -2189558.12546
  22575987.27746        41.100          22.300  
  20279036.086 7      1406.098 7      1095.65948  -1305186.223 7   -991582.38348
  20279031.85948        49.000          35.400  
  24715831.250 4      4676.823 4      3644.25946   -814578.586 4   -601949.87946
  24715830.20746        37.400          19.300  
  20238923.961 6       897.291 6       699.18848   -854580.355 6   -663354.38748
  20238920.01648        46.800          38.900  
  22818645.594 5     -2585.526 5     -2014.69145   1927153.141 5   1485038.32845
  22818642.78545        41.800          16.900  
 08  1 20 20 28 45.0000000  0 11G02G05G06G10G12G16G21G24G26G29G30   -0.000303553
  23710469.000 4     -2491.462 4     -1941.39746   1925969.121 4   1475073.40246
  23710461.95346        38.300          21.300  
  23949029.750 3     -2924.730 3     -2279.00945   2187867.559 3   1673983.48445
  23949029.27345        36.400          16.900  
  20476388.477 7      1829.892 7      1425.89448  -1685312.023 7  -1290556.08648
  20476383.44148        48.300          35.600  
  20838075.797 7      -235.279 7      -183.33048    -80790.828 7    -57664.05148
  20838071.10948        48.200          36.200  
  24946372.148 1     -2953.521 1                    243337.898 1
                        31.600  
  24356329.781 1      3645.295 1      2840.48045   -191496.461 1  -1897728.09845
  24356325.64845        30.500          16.900  
  22572610.305 6      3554.370 6      2769.63946  -2886245.238 6  -2203406.32046
  22572605.81646        43.800          22.000  
  20277699.984 7      1403.921 7      1093.96448  -1312205.828 7   -997052.20348
  20277696.01648        49.200          34.600  
  24711382.531 5      4676.651 5      3644.15946   -837961.844 5   -620170.67246
  24711380.57846        39.400          19.000  
  20238073.078 6       894.689 6       697.16048   -859053.801 6   -666840.18848
  20238068.44548        47.200          38.600  
  22821107.352 5     -2586.958 5     -2015.80645   1940087.934 5   1495117.35945
  22821104.71945        41.300          17.400  
 08  1 20 20 28 50.0000000  0 12G02G05G06G10G12G15G16G21G24G26G29G30   -0.000306231
  23712839.883 3                                   1938429.863 3   1484783.05946
  23712832.94546        36.900          20.900  
  23951812.766 2     -2925.199 2     -2279.37945   2202493.555 2   1685380.37945
  23951812.17645        35.500          18.300  
  20474649.125 7                                  -1694448.871 7  -1297675.70348
  20474644.82448        48.400          35.500  
  20838302.898 6                                    -79597.043 6    -56733.82448
  20838298.27348        47.500          36.300  
  24949181.930 1     -2953.630 1                    258106.051 1
                        30.700  
  25116851.148 2                                   -124275.22312
                        35.400  
  24352861.203 1      3643.309 1      2838.95245   -209713.004 1  -1911922.85545
  24352859.76645        32.800          15.600  
  22569228.883 5      3553.322 5      2768.82346  -2904011.848 5  -2217250.43446
  22569224.27346        42.200          23.000  
  20276366.969 7                                  -1319214.082 7  -1002513.18048
  20276362.46148        49.400          34.800  
  24706932.555 4      4676.317 4      3643.86745   -861343.430 4   -638390.00845
  24706931.16045        38.800          18.600  
  20237224.164 7       891.983 7       695.05248   -863513.715 7   -670315.44948
  20237219.84048        48.200          38.100  
  22823570.289 5     -2588.469 5     -2016.99045   1953030.277 5   1505202.30945
  22823567.44145        41.600          17.400  
 08  1 20 20 28 55.0000000  0 12G02G05G06G10G12G15G16G21G24G26G29G30   -0.000308910
  23715211.320 4     -2492.754 4     -1942.40246   1950893.633 4   1494495.06646
  23715204.77746        37.700          20.400  
  23954597.922 3     -2925.638 3     -2279.70545   2217121.746 3   1696778.90245
  23954595.52045        36.900          17.400  
  20472913.461 7      1824.834 7      1421.95048  -1703573.043 7  -1304785.45348
  20472908.65248        47.700          34.800  
  20838532.758 6      -242.167 6      -188.69948    -78386.207 6    -55790.32848
  20838528.53548        47.300          35.900  
  24951991.422 1                                                
                        31.200  
  25112826.125 2      4230.90712                   -145429.758 2
                        35.000  
  24349399.359 1      3641.227 1      2837.31345   -227919.141 1  -1926109.42245
  24349395.91045        32.600          15.600  
  22565849.039 6      3552.229 6      2767.97246  -2921772.992 6  -2231090.29346
  22565844.19546        42.700          22.300  
  20275034.938 7      1399.389 7      1090.43448  -1326211.027 7  -1007965.34848
  20275030.84048        48.600          34.600  
  24702483.852 5      4676.043 5      3643.66646   -884723.645 5   -656608.33646
  24702481.74246        39.400          19.600  
  20236377.875 6       889.293 6       692.95548   -867960.180 6   -673780.22748
  20236373.97348        46.600          38.000  
  22826034.195 5     -2589.998 5     -2018.18145   1965980.266 5   1515293.21545
  22826031.40645        41.100          16.900  
 08  1 20 20 29  0.0000000  0 12G02G05G06G10G12G15G16G21G24G26G29G30   -0.000311590
  23717583.484 4     -2493.187 4     -1942.74546   1963359.566 4   1504208.78946
  23717577.36346        37.600          21.100  
  23957380.906 3     -2925.789 3     -2279.84945   2231750.691 3   1708178.14845
  23957379.08645        35.700          17.400  
  20471179.273 7      1822.595 7      1420.20048  -1712686.020 7  -1311886.45348
  20471174.39148        47.900          35.100  
  20838766.664 7      -245.350 7      -191.18348    -77159.457 7    -54834.41448
  20838762.05148        48.400          35.800  
  24954800.672 1                                    287641.76211
                        29.400  
  25108800.320 2      4231.116 2                   -166585.340 2
                        35.200  
  24345936.820 2      3639.445 2      2835.90545   -246116.363 2  -1940288.94545
  24345933.48445        35.000          14.800  
  22562470.625 5      3551.430 5      2767.34546  -2939530.145 5  -2244927.02046
  22562465.36346        41.600          21.800  
  20273705.594 7      1397.383 7      1088.87048  -1333197.941 7  -1013409.69948
  20273701.21948        49.100          35.100  
  24698034.578 4      4675.974 4      3643.59846   -908103.512 4   -674826.32846
  24698032.96546        38.800          19.600  
  20235534.219 6       886.853 6       691.05548   -872394.445 6   -677235.50048
  20235529.66048        46.800          38.200  
  22828499.930 5     -2591.222 5     -2019.13645   1978936.375 5   1525388.89545
  22828497.28145        42.300          16.900  
 08  1 20 20 29  5.0000000  0 12G02G05G06G10G12G15G16G21G24G26G29G30   -0.000314270
  23719956.453 4     -2493.837 4     -1943.24346   1975828.750 4   1513925.00446
  23719949.93846        37.400          20.100  
  23960165.406 3     -2926.323 3     -2280.24045   2246382.305 3   1719579.34845
  23960163.86745        36.800          16.900  
  20469447.188 6      1819.963 6      1418.15348  -1721785.832 6  -1318977.21948
  20469442.82448        47.500          34.800  
  20839003.047 7      -248.830 7      -193.89248    -75915.309 7    -53864.95348
  20838998.80148        47.900          35.500  
  24957611.617 1     -2953.60211                    302409.773 1
                        30.700  
  25104775.164 2      4231.094 2                   -187740.809 2
                        34.300  
  24342476.852 1      3637.320 1      2834.30145   -264302.961 1  -1954460.44945
  24342472.50445        33.500          14.800  
  22559093.016 5      3550.252 5      2766.42946  -2957281.406 5  -2258759.16446
  22559087.49646        42.200          22.000  
  20272378.375 7      1395.043 7      1087.05048  -1340173.156 7  -1018844.94948
  20272373.87948        48.200          34.900  
  24693586.828 5      4675.626 5      3643.34346   -931481.641 5   -693043.04346
  24693584.03546        39.900          20.100  
  20234693.016 6       884.077 6       688.89148   -876814.832 6   -680679.95748
  20234688.58648        46.100          38.500  
  22830967.234 5     -2592.827 5     -2020.37745   1991900.512 5   1535490.77745
  22830963.75045        41.800          17.400  
 08  1 20 20 29 10.0000000  0 12G02G05G06G10G12G15G16G21G24G26G29G30   -0.000316948
  23722330.227 4     -2494.846 4     -1944.03446   1988302.980 4   1523645.17246
  23722323.37946        37.700          19.300  
  23962950.938 3     -2927.087 3     -2280.84745   2261017.738 3   1730983.58245
  23962948.73845        36.500          16.900  
  20467718.414 7      1817.110 7      1415.93248  -1730871.383 7  -1326056.87948
  20467713.92248        47.900          34.900  
  20839243.203 7      -252.619 7      -196.84548    -74652.215 7    -52880.73048
  20839239.33248        48.000          35.300  
  24960422.789 1     -2953.989 1                    317179.719 1
                        32.600  
  25100750.742 2      4230.724 2                   -208894.426 2
                        34.600  
  24339017.406 1      3634.897 1      2832.37245   -282477.445 1  -1968622.30945
  24339014.52345        31.000          14.800  
  22555716.031 6      3548.844 6      2765.33646  -2975025.625 6  -2272585.84446
  22555710.68846        43.200          22.600  
  20271053.805 7      1392.433 7      1085.00948  -1347135.320 7  -1024269.99648
  20271049.00848        49.300          34.300  
  24689137.789 5      4674.979 5      3642.84446   -954856.535 5   -711257.26246
  24689135.47346        40.200          20.600  
  20233854.742 6       881.030 6       686.52048   -881219.984 6   -684112.55548
  20233850.36348        46.200          37.900  
  22833435.641 5     -2594.649 5     -2021.81345   2004873.756 5   1545599.84445
  22833432.88745        41.400          17.400  
 08  1 20 20 29 15.0000000  0 12G02G05G06G10G12G15G16G21G24G26G29G30   -0.000319620
  23724704.875 4     -2495.338 4     -1944.41646   2000779.672 4   1533367.25046
  23724697.51646        38.600          19.300  
  23965736.367 4     -2927.413 4     -2281.09845   2275654.805 4   1742389.07045
  23965733.86745        38.700          16.900  
  20465992.109 7      1814.683 7      1414.03848  -1739944.797 7  -1333127.07048
  20465987.05948        47.600          34.500  
  20839486.547 6      -255.913 6      -199.41148    -73372.648 6    -51883.67648
  20839482.88348        47.500          35.500  
  24963236.070 2     -2953.941 2                    331949.426 2
                        34.900  
  25096723.703 2      4230.833 2                   -230048.594 2
                        35.600  
  24335557.867 1      3632.965 1      2830.90645   -300642.270 1  -1982776.83645
  24335558.31345        28.900          14.800  
  22552340.117 6      3547.863 6      2764.56646  -2992764.938 6  -2286408.67246
  22552334.98446        44.500          22.900  
  20269730.609 7      1390.278 7      1083.33448  -1354086.711 7  -1029686.66448
  20269726.23048        48.100          33.800  
  24684690.250 5      4674.784 5      3642.68346   -978230.457 5   -729470.67646
  24684687.87146        40.000          21.500  
  20233018.656 6       878.445 6       684.50248   -885612.207 6   -687535.06648
  20233014.51248        46.600          38.200  
  22835905.000 5     -2596.075 5     -2022.90745   2017854.133 5   1555714.37945
  22835903.20745        40.000          16.300  
 08  1 20 20 29 20.0000000  0 12G02G05G06G10G12G15G16G21G24G26G29G30   -0.000322298
  23727078.805 4     -2495.916 4     -1944.86846   2013259.250 4   1543091.58846
  23727071.98846        39.100          19.900  
  23968522.453 4     -2927.779 4     -2281.37645   2290293.699 4   1753795.95345
  23968519.72745        38.700          17.400  
  20464267.492 6      1812.213 6      1412.11648  -1749005.863 6  -1340187.64848
  20464262.79348        47.500          34.600  
  20839734.055 6      -259.290 6      -202.04248    -72076.199 6    -50873.46548
  20839729.12548        46.800          35.500  
  24966045.945 2     -2953.929 2                    346719.070 2
                        34.600  
  25092698.234 3      4230.879 3                   -251202.988 3
                        36.200  
  24332103.867 1      3630.980 1      2829.31645   -318797.172 1  -1996923.41445
  24332103.53945        30.500          14.800  
  22548965.805 6      3546.855 6      2763.78246  -3010499.215 6  -2300227.58246
  22548960.22346        43.800          24.500  
  20268409.813 7      1388.081 7      1081.62048  -1361027.117 7  -1035094.76248
  20268405.96148        48.100          34.100  
  24680242.992 5      4674.529 5      3642.48746  -1001603.102 5   -747683.10946
  24680239.93846        40.300          21.300  
  20232185.523 6       875.805 6       682.44648   -889991.230 6   -690947.29748
  20232181.15248        45.800          38.600  
  22838377.211 5     -2597.501 5     -2024.02345   2030841.637 5   1565834.49245
  22838374.73045        40.000          16.900  
 08  1 20 20 29 25.0000000  0 12G02G05G06G10G12G15G16G21G24G26G29G30   -0.000324980
  23729454.773 4     -2496.694 4     -1945.48246   2025742.723 4   1552819.00046
  23729447.95346        38.700          20.100  
  23971308.172 2     -2928.270 2     -2281.78445   2304935.051 2   1765204.87545
  23971306.03145        35.400          16.300  
  20462545.547 7      1809.607 7      1410.07648  -1758053.898 7  -1347238.02748
  20462541.04748        49.000          35.900  
  20839983.734 7      -262.816 7      -204.79948    -70762.121 7    -49849.46948
  20839979.49648        47.700          35.300  
  24968855.055 1     -2954.077 1                    361489.457 1
                        30.300  
  25088672.789 3      4230.710 3                   -272356.539 3
                        37.000  
  24328653.828 3      3628.886 3      2827.70645   -336941.602 3  -2011061.94145
  24328651.30545        36.200          15.600  
  22545591.742 5      3545.723 5      2762.89846  -3028227.832 5  -2314042.07446
  22545586.93446        39.500          22.000  
  20267091.859 7      1385.732 7      1079.79848  -1367955.777 7  -1040493.75448
  20267087.20748        48.500          34.500  
  24675793.945 4      4674.069 4      3642.11346  -1024973.445 4   -765893.67246
  24675792.58246        38.000          21.300  
  20231355.188 6       873.013 6       680.27148   -894356.297 6   -694348.65248
  20231350.39848        47.300          38.600  
  22840850.563 5     -2599.078 5     -2025.27445   2043837.027 5   1575960.86345
  22840847.28545        41.400          17.400  
 08  1 20 20 29 30.0000000  0 12G02G05G06G10G12G15G16G21G24G26G29G30   -0.000327658
  23731830.703 4     -2497.197 4     -1945.86546   2038228.707 4   1562548.32446
  23731823.68846        38.800          20.600  
  23974093.531 2     -2928.654 2     -2282.05845   2319578.320 2   1776615.16445
  23974092.60545        34.700          15.600  
  20460826.109 6      1807.137 6      1408.16248  -1767089.586 6  -1354278.84048
  20460821.53948        47.000          34.900  
  20840236.781 6      -266.133 6      -207.36748    -69431.457 6    -48812.63348
  20840231.69948        47.100          34.000  
  24971663.758 1                                                
                        29.900  
  25084647.719 4      4230.820 4                   -293510.641 4
                        37.600  
  24325204.117 4      3626.837 4      2826.10145   -355075.785 4  -2025192.44545
  24325200.19545        37.500          15.600  
  22542218.750 5      3544.677 5      2762.09146  -3045951.215 5  -2327852.52746
  22542213.52046        39.400          20.600  
  20265775.508 7      1383.531 7      1078.07248  -1374873.430 7  -1045884.11348
  20265770.52748        48.200          34.300  
  24671347.719 3      4673.869 3      3641.96646  -1048342.789 3   -784103.50446
  24671345.72746        36.900          21.300  
  20230526.781 6       870.381 6       678.21648   -898708.203 6   -697739.73048
  20230522.35248        45.800          38.300  
  22843323.914 5     -2600.521 5     -2026.36645   2056839.633 5   1586092.69145
  22843321.83245        40.800          16.300  
 08  1 20 20 29 35.0000000  0 12G02G05G06G10G12G15G16G21G24G26G29G30   -0.000330334
  23734206.594 4     -2497.922 4     -1946.43346   2050718.316 4   1572280.48846
  23734200.38746        38.600          21.300  
  23976881.453 2     -2929.157 2     -2282.44845   2334224.105 2   1788027.40245
  23976879.38745        34.200          16.300  
  20459108.922 7      1804.511 7      1406.10948  -1776112.141 7  -1361309.38348
  20459104.78148        47.900          35.100  
  20840493.117 7      -269.652 7      -210.12348    -68083.195 7    -47762.02048
  20840488.27048        47.600          34.300  
  24974475.680 1                                    391030.40211
                        30.500  
  25080621.891 4      4230.709 4                   -314664.188 4    -13845.97756
  25080620.83646        38.300          20.100  
  24321755.203 4      3624.692 4      2824.43145   -373199.246 4  -2039314.60245
  24321751.09445        37.900          14.800  
  22538847.195 5      3543.500 5      2761.16946  -3063668.715 5  -2341658.37146
  22538841.90646        40.000          19.900  
  20264461.000 7      1381.175 7      1076.24248  -1381779.305 7  -1051265.32448
  20264456.12948        49.300          34.300  
  24666901.086 2      4673.440 2      3641.64546  -1071709.992 2   -802311.73046
  24666898.90646        35.500          20.400  
  20229701.313 6       867.590 6       676.04548   -903046.152 6   -701119.95748
  20229696.85248        46.600          38.100  
  22845799.977 5     -2602.120 5     -2027.63845   2069850.234 5   1596230.88345
  22845797.73845        42.000          16.300  
 08  1 20 20 29 40.0000000  0 12G02G05G06G10G12G15G16G21G24G26G29G30   -0.000333012
  23736584.125 5     -2498.462 5     -1946.84146   2063210.629 5   1582014.69546
  23736577.80146        39.400          20.400  
  23979669.422 3     -2929.528 3     -2282.74245   2348871.746 3   1799441.11345
  23979667.00445        36.500          16.300  
  20457394.531 6      1801.984 6      1404.14548  -1785122.059 6  -1368330.10948
  20457390.52748        47.500          35.200  
  20840753.313 7      -273.005 7      -212.72748    -66718.172 7    -46698.38348
  20840748.33648        47.600          34.900  
  24977288.469 1     -2954.13011                    405801.055 1
                        33.400  
  25076596.898 4      4230.775 4      3296.70555   -335818.063 4    -30329.50045
  25076595.53545        37.900          18.300  
  24318309.383 3      3622.637 3      2822.83645   -391312.430 3  -2053428.78145
  24318304.06345        37.200          15.600  
  22535477.227 5      3542.434 5      2760.33946  -3081380.887 5  -2355460.06646
  22535470.94146        42.300          20.600  
  20263148.914 7      1378.959 7      1074.51047  -1388674.102 7  -1056637.87547
  20263144.32047        48.700          33.600  
  24662454.570 5      4673.202 5      3641.44846  -1095076.000 5   -820518.96946
  24662452.55546        39.400          20.900  
  20228878.086 6       864.931 6       673.97248   -907370.809 6   -704489.81648
  20228874.06348        46.600          38.700  
  22848276.953 5     -2603.564 5     -2028.74045   2082868.055 5   1606374.58245
  22848274.69145        40.100          16.300  
 08  1 20 20 29 45.0000000  0 12G02G05G06G10G12G15G16G21G24G26G29G30   -0.000335688
  23738962.031 5     -2498.926 5     -1947.21346   2075705.258 5   1591750.75846
  23738955.34846        40.100          19.900  
  23982456.258 2     -2929.712 2     -2282.88845   2363520.309 2   1810855.55545
  23982454.94945        35.400          16.900  
  20455682.195 7      1799.679 7      1402.34548  -1794120.453 7  -1375341.83648
  20455677.48448        48.100          35.900  
  20841016.195 6      -276.230 6      -215.24448    -65337.023 6    -45622.16448
  20841010.18848        47.500          34.100  
  24980099.422 2     -2953.953 2                    420570.820 2
                        34.300  
  25072570.984 3      4230.942 3      3296.82545   -356972.773 3    -46813.62545
  25072570.07445        36.800          17.800  
  24314864.375 3      3620.790 3      2821.41245   -409416.379 3  -2067535.84045
  24314858.91045        37.300          16.900  
  22532107.625 6      3541.590 6      2759.67546  -3099088.836 6  -2369258.44146
  22532101.45346        43.000          22.000  
  20261838.555 7      1376.915 7      1072.92047  -1395558.676 7  -1062002.47747
  20261834.14847        48.400          33.700  
  24658007.922 4      4673.080 4      3641.35446  -1118441.398 4   -838725.73846
  24658006.45746        38.700          21.300  
  20228057.633 6       862.449 6       672.03848   -911683.055 6   -707850.00848
  20228053.52748        46.300          38.700  
  22850755.133 5     -2604.816 5     -2029.72545   2095892.136 5   1616523.20845
  22850753.62145        39.700          16.300  
 08  1 20 20 29 50.0000000  0 12G02G05G06G10G12G15G16G21G24G26G29G30   -0.000338364
  23741340.148 5     -2499.477 5     -1947.64546   2088202.645 5   1601488.98046
  23741333.49246        39.800          20.600  
  23985245.563 3     -2930.078 3     -2283.17745   2378170.699 3   1822271.44145
  23985243.09445        35.700          16.900  
  20453972.438 7      1797.205 7      1400.42048  -1803106.480 7  -1382343.93448
  20453967.85248        48.800          35.700  
  20841282.258 7      -279.565 7      -217.84148    -63939.199 7    -44532.95748
  20841276.75448        47.700          34.700  
  24982910.281 2     -2953.947 2                    435340.555 2
                        34.700  
  25068546.344 4      4230.961 4      3296.85245   -378127.578 4    -63297.88745
  25068544.49645        37.900          17.800  
  24311421.086 4      3618.787 4      2819.82945   -427510.313 4  -2081634.98445
  24311415.81645        38.600          16.900  
  22528738.820 6      3540.563 6      2758.88046  -3116791.648 6  -2383052.84046
  22528732.92646        43.200          22.600  
  20260530.336 7      1374.702 7      1071.19847  -1402432.184 7  -1067358.46547
  20260526.28547        49.000          33.700  
  24653562.672 4      4672.791 4      3641.13246  -1141805.352 4   -856931.39846
  24653560.84846        39.000          22.000  
  20227239.828 6       859.802 6       669.97548   -915982.066 6   -711199.88348
  20227235.28548        46.900          38.600  
  22853235.742 5     -2606.244 5     -2030.83945   2108923.355 5   1626677.40245
  22853233.27045        40.400          16.900  
 08  1 20 20 29 55.0000000  0 12G02G05G06G10G12G15G16G21G24G26G29G30   -0.000341040
  23743719.039 5     -2500.108 5     -1948.13146   2100703.184 5   1611229.63746
  23743712.52046        39.900          20.400  
  23988033.320 3     -2930.527 3     -2283.53145   2392823.336 3   1833689.09445
  23988030.95745        37.300          16.900  
  20452264.781 7      1794.631 7      1398.41648  -1812079.637 7  -1389336.01248
  20452260.59848        48.800          35.100  
  20841551.188 7      -283.001 7      -220.52048    -62524.195 7    -43430.35948
  20841545.60948        48.000          35.100  
  24985720.641 2     -2954.010 2                    450110.605 2
                        34.300  
  25064521.281 5      4230.916 5      3296.81045   -399282.155 5    -79781.93545
  25064519.27345        39.200          17.400  
  24307980.242 4      3616.674 4      2818.19345   -445593.684 4  -2095725.94945
  24307973.95345        38.700          16.900  
  22525370.516 6      3539.440 6      2758.00146  -3134488.848 6  -2396842.84446
  22525365.38346        43.100          22.600  
  20259224.555 7      1372.412 7      1069.40948  -1409294.246 7  -1072705.51248
  20259220.48848        49.100          33.900  
  24649116.961 5      4672.433 5      3640.84946  -1165167.516 5   -875135.64546
  24649114.96146        39.500          21.800  
  20226424.203 6       857.070 6       667.84848   -920267.414 6   -714539.12148
  20226419.89848        47.500          37.900  
  22855716.813 5     -2607.777 5     -2032.03145   2121962.242 5   1636837.55945
  22855714.59045        40.800          17.400  
 08  1 20 20 30  0.0000000  0 12G02G05G06G10G12G15G16G21G24G26G29G30   -0.000343716
  23746097.547 5     -2500.615 5     -1948.53646   2113206.258 5   1620972.31646
  23746091.81646        39.400          20.900  
  23990822.016 4     -2930.798 4     -2283.74145   2407477.324 4   1845107.80145
  23990818.99645        38.800          17.800  
  20450559.602 6      1792.209 6      1396.53147  -1821040.680 6  -1396318.66447
  20450555.32047        46.900          33.700  
  20841823.672 6      -286.284 6      -223.08448    -61092.773 6    -42314.94148
  20841818.69948        47.100          34.400  
  24988532.133 2     -2953.903 2                    464880.121 2
                        34.200  
  25060494.883 3      4231.008 3      3296.89145   -420437.195 3    -96266.39145
  25060493.32845        37.300          16.300  
  24304540.438 4      3614.734 4      2816.67345   -463667.355 4  -2109809.31345
  24304534.78545        37.500          15.600  
  22522004.391 5      3538.471 5      2757.24846  -3152181.203 5  -2410629.08246
  22521999.12946        41.800          25.400  
  20257921.000 7      1370.281 7      1067.74847  -1416145.652 7  -1078044.25447
  20257917.05547        48.000          32.400  
  24644672.953 5      4672.211 5      3640.70146  -1188528.570 5   -893339.14846
  24644669.74246        40.200          20.900  
  20225611.461 6       854.490 6       665.84048   -924539.863 6   -717868.32048
  20225607.11748        47.000          37.800  
  22858199.680 5     -2609.130 5     -2033.07945   2135007.895 5   1647002.95345
  22858196.97345        39.800          18.300  
 08  1 20 20 30  5.0000000  0 12G02G05G06G10G12G15G16G21G24G26G29G30   -0.000346392
  23748477.734 4     -2501.342 4     -1949.09646   2125712.969 4   1630717.79746
  23748471.95346        38.700          20.600  
  23993611.125 4     -2931.282 4     -2284.10945   2422133.734 4   1856528.34845
  23993608.10545        39.000          18.300  
  20448857.391 6      1789.585 6      1394.47947  -1829988.605 6  -1403291.05947
  20448852.41847        45.600          33.400  
  20842099.102 6      -289.784 6      -225.80748    -59643.852 6    -41185.90648
  20842094.27048        46.300          35.600  
  24991343.148 2     -2954.020 2                    479650.219 2
                        33.900  
  25056469.883 4      4230.905 4      3296.81845   -441591.723 4   -112750.48045
  25056467.84445        37.500          16.300  
  24301102.469 4      3612.547 4      2814.96545   -481730.090 4  -2123884.13745
  24301097.45745        38.800          17.800  
  22518637.891 5      3537.302 5      2756.33946  -3169867.711 5  -2424410.77746
  22518633.71946        42.100          24.600  
  20256619.664 6      1367.935 6      1065.92347  -1422985.328 6  -1083373.86747
  20256615.45347        46.400          33.500  
  24640226.922 5      4671.790 5      3640.34146  -1211887.520 5   -911540.85546
  24640224.28946        40.900          20.100  
  20224800.813 6       851.701 6       663.65948   -928798.367 6   -721186.61748
  20224796.82048        46.600          38.000  
  22860684.258 5     -2610.672 5     -2034.29345   2148061.254 5   1657174.41845
  22860680.91845        39.900          18.300  
 08  1 20 20 30 10.0000000  0 12G02G05G06G10G12G15G16G21G24G26G29G30   -0.000349068
  23750858.719 5     -2501.991 5     -1949.59146   2138222.926 5   1640465.75046
  23750853.22746        39.200          21.300  
  23996399.188 1     -2931.644 1     -2284.38645   2436791.953 1   1867950.27745
  23996397.57045        28.600          17.400  
  20447156.313 6      1787.103 6      1392.54648  -1838924.121 6  -1410253.78948
  20447151.85248        46.600          35.700  
  20842378.656 6      -293.200 6      -228.46748    -58177.852 6    -40043.57048
  20842373.32848        46.900          34.400  
  24994153.148 1     -2954.007 1                    494420.254 1
                        33.800  
  25052444.828 3      4230.833 3      3296.73145   -462745.887 3   -129234.13745
  25052442.51645        37.300          17.400  
  24297668.203 4      3610.543 4      2813.42145   -499782.805 4  -2137951.24245
  24297661.85245        37.900          17.400  
  22515273.578 4      3536.313 4      2755.56246  -3187549.273 4  -2438188.58646
  22515268.41046        39.000          22.900  
  20255320.039 6      1365.716 6      1064.20248  -1429813.910 6  -1088694.87948
  20255316.03948        47.500          34.600  
  24635781.141 4      4671.428 4      3640.06046  -1235244.660 4   -929741.15646
  24635779.71146        38.600          20.400  
  20223992.969 6       849.020 6       661.57348   -933043.469 6   -724494.48048
  20223988.82448        44.900          38.200  
  22863167.539 5     -2612.082 5     -2035.39945   2161121.664 5   1667351.41445
  22863166.15245        39.600          16.900  
 08  1 20 20 30 15.0000000  0 12G02G05G06G10G12G15G16G21G24G26G29G30   -0.000351744
  23753240.289 5     -2502.615 5     -1950.10146   2150736.000 5   1650216.25446
  23753234.58646        40.900          20.400  
  23999186.742 1     -2932.154 1     -2284.80045   2451452.723 1   1879374.27745
  23999187.86345        30.300          16.300  
  20445458.805 6      1784.447 6      1390.47748  -1847846.355 6  -1417206.17648
  20445454.05148        46.800          35.800  
  20842660.500 6      -296.641 6      -231.15048    -56694.645 6    -38887.82048
  20842655.32048        46.900          35.100  
  24996963.508 1     -2954.113 1                    509190.820 1
                        33.800  
  25048418.531 4      4230.768 4      3296.70145   -483899.727 4   -145717.64145
  25048417.35945        38.400          17.400  
  24294235.430 4      3608.342 4      2811.69545   -517824.516 4  -2152009.71945
  24294228.75445        38.900          17.800  
  22511909.016 5      3535.066 5      2754.59946  -3205224.602 5  -2451961.58246
  22511904.66846        39.800          21.100  
  20254022.672 6      1363.370 6      1062.36448  -1436630.758 6  -1094006.69948
  20254018.48848        46.700          34.900  
  24631337.461 5      4671.065 5      3639.79346  -1258599.984 5   -947940.12146
  24631334.94546        39.900          21.800  
  20223187.828 6       846.236 6       659.40448   -937274.648 6   -727791.50048
  20223183.59848        46.400          38.100  
  22865654.555 4     -2613.690 4     -2036.63045   2174190.113 4   1677534.56645
  22865653.29345        38.800          16.900  
 08  1 20 20 30 20.0000000  0 12G02G05G06G10G12G15G16G21G24G26G29G30   -0.000354420
  23755621.078 5     -2502.906 5     -1950.29646   2163250.527 5   1659967.73446
  23755615.99246        40.300          19.900  
  24001978.375 1                                   2466113.78911   1890798.64155
  24001978.34045        29.400          15.600  
  20443762.828 6      1782.261 6      1388.77648  -1856757.660 6  -1424150.05548
  20443758.34848        46.700          35.400  
  20842945.500 6      -299.711 6      -233.54248    -55196.090 6    -37720.10948
  20842940.77348        46.900          34.400  
  24999770.813 1     -2953.805 1                    523959.848 1
                        32.200  
  25044392.133 3      4231.056 3      3296.92645   -505055.008 3   -162202.27045
  25044391.21145        37.100          17.800  
  24290802.617 3      3606.620 3      2810.35045   -535857.613 3  -2166061.46945
  24290797.37545        36.300          17.800  
  22508546.359 5      3534.340 5      2754.02346  -3222896.301 5  -2465731.69946
  22508541.84446        39.900          20.400  
  20252727.594 6      1361.448 6      1060.87148  -1443438.000 6  -1099311.05548
  20252723.17648        47.300          33.900  
  24626892.836 4      4671.034 4      3639.76246  -1281955.152 4   -966138.93446
  24626891.08246        38.600          21.700  
  20222385.172 6       843.872 6       657.56348   -941494.008 6   -731079.31648
  20222380.97348        45.800          38.000  
  22868143.344 5     -2614.813 5     -2037.52045   2187264.176 5   1687722.16445
  22868140.96945        39.800          16.300  
 08  1 20 20 30 25.0000000  0 12G02G05G06G10G12G15G16G21G24G26G29G30   -0.000357096
  23758003.266 5     -2503.154 5     -1950.50746   2175766.297 5   1669720.27046
  23757997.57046        40.100          20.100  
  24004768.875 5     -2932.17015     -2284.78155   2480774.641 5   1902222.54345
  24004767.85945        39.200          16.900  
  20442069.359 6      1779.696 6      1386.78247  -1865656.141 6  -1431083.96547
  20442064.55947        44.800          32.700  
  20843234.273 6      -302.813 6      -235.94847    -53682.023 6    -36540.37147
  20843228.66847        47.000          33.300  
  25002584.008 3     -2953.352 3                    538726.605 3
                        36.600  
  25040365.953 5      4231.647 5      3297.40245   -526213.242 5   -178689.28145
  25040364.50445        39.600          17.400  
  24287373.133 3      3604.099 3      2808.38045   -553878.109 3  -2180103.37145
  24287368.88745        36.400          18.600  
  22505185.195 6      3533.159 6      2753.11647  -3240562.094 6  -2479497.27747
  22505180.59047        47.300          28.700  
  20251433.641 6      1359.273 6      1059.16247  -1450234.367 6  -1104606.86747
  20251429.96547        46.600          31.500  
  24622448.438 5      4671.307 5      3639.99046  -1305311.688 5   -984338.88346
  24622446.05946        41.600          20.900  
  20221584.633 6       841.335 6       655.59148   -945700.684 6   -734357.27348
  20221580.37548        47.200          38.000  
  22870632.188 2     -2615.947 2                   2200343.910 2
                        35.500  
 08  1 20 20 30 30.0000000  0 11G02G05G06G10G15G16G21G24G26G29G30   -0.000359770
  23760385.281 4                                   2188283.266 4   1679473.90246
  23760379.42246        38.700          19.600  
  24007559.109 6     -2932.191 6     -2284.82745   2495435.594 6   1913646.68045
  24007557.44545        46.000          15.600  
  20440379.063 6                                  -1874541.145 6  -1438007.29747
  20440374.75047        46.600          31.300  
  20843526.000 7                                    -52151.871 7    -35348.00447
  20843520.40247        48.300          33.600  
  25036339.805 5                                   -547374.914 5   -195178.77345
  25036337.78945        39.200          17.800  
  24283946.539 4                                   -571885.004 4  -2194134.65646
  24283942.27046        38.800          19.300  
  22501825.797 3      3531.751 3      2752.01646  -3258220.848 3  -2493257.35546
  22501821.06346        36.700          22.500  
  20250143.156 7                                  -1457018.797 7  -1109893.51248
  20250138.75848        48.700          34.000  
  24618003.289 6                                  -1328670.164 6  -1002540.23846
  24618000.94546        44.000          21.100  
  20220786.852 7                                   -949893.645 7   -737624.51248
  20220782.59048        48.600          40.100  
  22873122.242 6                                   2213430.152 6
                        46.800  
 08  1 20 20 30 35.0000000  0 11G02G05G06G10G15G16G21G24G26G29G30   -0.000362446
  23762768.828 4     -2504.484 4     -1951.52546   2200805.688 4   1689231.52746
  23762762.48846        37.600          19.300  
  24010350.742 5     -2933.244 5     -2285.67545   2510101.813 5   1925075.05545
  24010348.48445        42.000          16.900  
  20438689.859 6      1774.797 6      1382.96947  -1883415.129 6  -1444922.14547
  20438684.87147        46.000          33.600  
  20843819.867 6      -309.702 6      -241.32148    -50603.359 6    -34141.39848
  20843815.19148        47.200          36.100  
  25032315.672 3      4231.053 3      3296.96645   -568530.180 3   -211663.60245
  25032312.35545        37.300          16.300  
  24280519.953 2      3600.663 2                   -589888.316 2
                        34.400  
  22498465.234 5      3531.281 5      2751.62846  -3275877.250 5  -2507015.49646
  22498460.96546        41.600          22.000  
  20248853.695 6      1354.855 6      1055.72648  -1463793.070 6  -1115172.14148
  20248849.72348        46.400          34.000  
  24613560.461 5      4670.127 5      3639.06646  -1352020.801 5  -1020735.56646
  24613558.07846        40.600          20.600  
  20219991.273 6       835.920 6       651.35848   -954073.246 6   -740881.30148
  20219986.41048        47.200          41.200  
  22875614.180 6     -2619.064 6                   2226525.473 6   1711381.37156
  22875609.83646        42.900          24.300  
 08  1 20 20 30 40.0000000  0 12G02G05G06G10G12G15G16G21G24G26G29G30   -0.000365122
  23765150.219 2                                   2213331.250 2   1698991.71545
  23765146.27745        34.000          18.600  
  24013141.422 5     -2933.443 5     -2285.77745   2524769.027 5   1936503.94145
  24013138.98045        41.700          18.300  
  20437003.930 6                                  -1892276.961 6  -1451827.42248
  20436998.79348        46.000          33.800  
  20844118.039 6                                    -49038.168 6    -32921.74648
  20844112.37148        46.500          36.200  
  25011014.328 2                                     28349.91812
                        35.300  
  25028288.734 3                                   -589686.027 3   -228148.47345
  25028286.32045        37.200          16.300  
  24277096.820 2                                   -607881.160 2
                        34.700  
  22495107.398 5      3530.303 5      2750.89646  -3293528.766 5  -2520769.97746
  22495102.01646        41.600          22.300  
  20247566.844 7                                  -1470556.660 7  -1120442.47348
  20247562.96948        47.900          33.900  
  24609117.375 5                                  -1375370.172 5  -1038929.84046
  24609114.39846        42.400          21.100  
  20219198.305 6                                   -958239.922 6   -744128.09848
  20219193.94948        47.000          41.000  
  22878107.047 5                                   2239627.070 5   1721590.50846
  22878102.72346        42.000          22.900  
 08  1 20 20 30 45.0000000  0 12G02G05G06G10G12G15G16G21G24G26G29G30   -0.000367798
  23767533.656 2     -2505.404 2     -1952.27245   2225858.270 2   1708753.07445
  23767529.60245        33.900          18.600  
  24015932.906 5     -2933.613 5     -2285.93845   2539437.090 5   1947933.62945
  24015929.55145        40.500          18.300  
  20435319.617 6      1770.067 6      1379.28447  -1901127.297 6  -1458723.84047
  20435314.83647        46.800          33.700  
  20844418.570 6      -316.163 6      -246.36348    -47457.352 6    -31689.93448
  20844413.25448        47.100          35.800  
  25013825.375 1     -2953.31711                     43116.504 1
                        33.700  
  25024261.930 3      4231.356 3      3297.15545   -610842.809 3   -244634.24645
  25024260.06345        36.200          16.900  
  24273674.289 5      3596.737 5                   -625864.844 5  -2219932.83255
  24273668.17645        39.400          18.600  
  22491749.055 6      3529.435 6      2750.20846  -3311175.941 6  -2534521.02046
  22491743.51246        42.900          25.200  
  20246281.688 7      1350.711 7      1052.50448  -1477310.215 7  -1125704.99248
  20246278.37148        48.300          34.500  
  24604673.211 5      4669.772 5      3638.78446  -1398719.031 5  -1057123.75846
  24604671.32846        41.500          21.100  
  20218407.500 7       830.882 7       647.43848   -962394.332 7   -747365.28948
  20218403.35948        48.500          41.200  
  22880601.648 5     -2621.575 5                   2252734.945 5
                        42.100  
 08  1 20 20 30 50.0000000  0 12G02G05G06G10G12G15G16G21G24G26G29G30   -0.000370474
  23769918.906 3     -2505.929 3     -1952.66046   2238387.914 3   1718516.37546
  23769914.32846        35.700          19.300  
  24018724.094 5     -2933.867 5     -2286.13146   2554106.426 5   1959364.28546
  24018720.94946        41.600          19.000  
  20433637.852 6      1767.588 6      1377.33548  -1909965.234 6  -1465610.51648
  20433632.39148        47.500          33.800  
  20844722.531 6      -319.468 6      -248.93548    -45860.012 6    -30445.25848
  20844717.68448        47.200          36.200  
  25016635.383 2     -2953.192 2                     57882.465 2
                        35.400  
  25020236.297 4      4231.427 4      3297.21845   -631999.941 4   -261120.33645
  25020233.78945        37.800          16.300  
  24270253.445 4      3594.673 4      2801.04555   -643838.211 4  -2233938.05945
  24270248.21545        38.800          16.900  
  22488391.500 6      3528.422 6      2749.41646  -3328818.051 6  -2548268.09846
  22488386.66446        42.600          22.500  
  20244998.594 6      1348.533 6      1050.80348  -1484052.879 6  -1130959.00848
  20244994.86748        47.500          34.200  
  24600230.625 6      4669.530 6      3638.59046  -1422066.680 6  -1075316.70746
  24600228.26646        42.500          21.300  
  20217619.727 7       828.257 7       645.39549   -966535.617 7   -750592.26649
  20217615.78549        49.300          41.300  
  22883097.352 5     -2622.906 5                   2265849.477 5
                        41.900  
 08  1 20 20 30 55.0000000  0 12G02G05G06G10G12G15G16G21G24G26G29G30   -0.000373152
  23772304.914 2     -2506.323 2     -1952.96345   2250919.527 2   1728281.18845
  23772299.25845        34.900          18.300  
  24021515.406 5     -2933.952 5     -2286.19546   2568776.184 5   1970795.25846
  24021512.59446        41.700          19.600  
  20431958.141 6      1765.312 6      1375.55948  -1918791.793 6  -1472488.30948
  20431953.57848        47.300          34.000  
  20845029.383 6      -322.604 6      -251.38248    -44246.992 6    -29188.34848
  20845024.43848        47.000          35.900  
  25019445.359 3     -2952.920 3                     72647.066 3
                        36.200  
  25016209.578 4      4231.613 4      3297.36645   -653158.006 4   -277607.16445
  25016207.68445        38.700          17.400  
  24266835.875 3      3592.833 3      2799.61345   -661802.375 3  -2247936.12545
  24266830.33245        36.900          16.900  
  22485035.469 5      3527.629 5      2748.79346  -3346456.195 5  -2562012.06346
  22485030.21146        42.000          22.200  
  20243717.195 6      1346.546 6      1049.25448  -1490785.609 6  -1136205.27748
  20243713.83648        47.300          34.800  
  24595788.414 6      4669.410 6      3638.48946  -1445413.730 6  -1093509.15246
  24595785.68846        43.200          20.900  
  20216834.297 7       825.813 7       643.49048   -970664.684 7   -753809.71548
  20216829.80148        49.100          41.000  
  22885594.805 6     -2624.047 6                   2278969.711 6   1728948.04357
  22885586.62147        43.400          28.900  
 08  1 20 20 31  0.0000000  0 12G02G05G06G10G12G15G16G21G24G26G29G30   -0.000375828
  23774689.617 2     -2506.923 2     -1953.46945   2263454.145 2   1738048.53145
  23774684.64845        34.400          18.300  
  24024306.914 5     -2934.380 5     -2286.53246   2583448.082 5   1982227.91846
  24024304.21946        42.000          19.000  
  20430280.930 6      1762.727 6      1373.55948  -1927605.426 6  -1479356.10248
  20430276.19148        47.000          34.000  
  20845339.695 6      -325.995 6      -254.02048    -42617.020 6    -27918.24648
  20845334.75048        47.000          36.700  
  25022254.195 3     -2952.972 3                     87411.926 3
                        36.500  
  25012184.148 4      4231.531 4      3297.28245   -674315.660 4   -294093.57445
  25012181.29345        38.100          17.400  
  24263419.719 3      3590.700 3      2797.94345   -679755.875 3  -2261925.84045
  24263413.66845        37.000          16.300  
  22481679.891 5      3526.482 5      2747.91346  -3364088.605 5  -2575751.62546
  22481674.75846        41.600          22.500  
  20242438.438 7      1344.254 7      1047.47148  -1497506.879 7  -1141442.63348
  20242434.39148        48.100          34.800  
  24591345.820 6      4669.011 6      3638.19746  -1468758.785 6  -1111700.13746
  24591343.08246        42.600          21.800  
  20216051.055 7       823.073 7       641.35749   -974780.051 7   -757016.50049
  20216046.55549        49.700          41.600  
  22888091.461 6     -2625.548 6                   2292097.449 6
                        43.600  
 08  1 20 20 31  5.0000000  0 12G02G05G06G10G12G15G16G21G24G26G29G30   -0.000378506
  23777076.211 3     -2507.366 3     -1953.76946   2275990.973 3   1747817.37546
  23777070.57846        36.100          19.300  
  24027099.313 6     -2934.582 6     -2286.67846   2598120.992 6   1993661.30946
  24027095.75846        42.900          19.600  
  20428606.039 6      1760.338 6      1371.68848  -1936407.117 6  -1486214.53948
  20428601.44948        47.200          34.200  
  20845652.594 6      -329.229 6      -256.54448    -40970.875 6    -26635.52748
  20845647.30148        47.300          36.200  
  25025064.219 3     -2952.798 3                    102175.914 3
                        36.400  
  25008156.914 4      4231.630 4      3297.38045   -695473.809 4   -310580.47745
  25008154.55545        38.900          17.400  
  24260005.555 4      3588.760 4      2796.43445   -697699.676 4  -2275908.01245
  24259999.83245        38.000          17.400  
  22478324.563 5      3525.563 5      2747.18846  -3381716.418 5  -2589487.56346
  22478320.54346        40.900          22.600  
  20241161.273 7      1342.166 7      1045.84348  -1504217.707 7  -1146671.84848
  20241157.68848        48.100          35.300  
  24586903.578 6      4668.797 6      3638.01646  -1492102.770 6  -1129890.21546
  24586900.66446        43.200          22.000  
  20215270.430 7       820.530 7       639.37649   -978882.703 7   -760213.37949
  20215265.98849        47.900          41.300  
  22890591.023 6     -2626.802 6                   2305231.457 6
                        43.800  
 08  1 20 20 31 10.0000000  0 12G02G05G06G10G12G15G16G21G24G26G29G30   -0.000381182
  23779461.305 2     -2507.663 2     -1954.03746   2288529.289 2   1757587.56346
  23779456.07446        35.000          19.600  
  24029892.219 6     -2934.682 6     -2286.76646   2612794.402 6   2005095.14146
  24029888.18846        43.400          20.100  
  20426933.203 6      1758.057 6      1369.91748  -1945197.402 6  -1493064.12548
  20426928.05948        46.800          33.900  
  20845969.164 6      -332.328 6      -258.95748    -39309.234 6    -25340.74248
  20845963.73048        47.400          36.300  
  25027873.695 3     -2952.509 3                    116938.461 3
                        36.300  
  25004131.383 4      4231.854 4      3297.53945   -716633.078 4   -327068.17245
  25004127.85945        38.600          17.800  
  24256592.930 3      3586.927 3      2795.02345   -715634.309 3  -2289883.12945
  24256587.55145        37.300          17.400  
  22474971.711 5      3524.741 5      2746.55146  -3399340.121 5  -2603220.31646
  22474966.66846        41.300          22.500  
  20239885.664 6      1340.183 6      1044.29748  -1510918.621 6  -1151893.33248
  20239882.21548        47.500          34.700  
  24582461.742 6      4668.706 6      3637.95546  -1515446.301 6  -1148079.98846
  24582458.46146        43.800          22.600  
  20214492.031 7       818.102 7       637.48049   -982973.211 7   -763400.77749
  20214487.60549        48.800          41.900  
  22893091.914 6     -2627.980 6                   2318371.359 6
                        43.600  
 08  1 20 20 31 15.0000000  0 12G02G05G06G10G12G15G16G21G24G26G29G30   -0.000383860
  23781848.820 3     -2508.273 3     -1954.49346   2301070.652 3   1767360.02746
  23781842.97746        36.700          19.000  
  24032684.859 6     -2935.031 6     -2287.03846   2627469.559 6   2016530.33246
  24032680.99246        43.900          20.100  
  20425262.992 6      1755.509 6      1367.92847  -1953974.945 6  -1499903.76647
  20425258.51247        46.300          33.700  
  20846288.008 6      -335.721 6      -261.60048    -37630.629 6    -24032.74248
  20846283.15248        46.700          36.900  
  25030682.211 2     -2952.487 2                    131700.895 2
                        35.200  
  25000104.813 4      4231.780 4      3297.49245   -737791.977 4   -343555.63345
  25000101.44945        38.200          17.800  
  24253181.992 4      3584.841 4      2793.38345   -733558.516 4  -2303850.04345
  24253175.98445        38.400          17.800  
  22471618.828 5      3523.667 5      2745.71046  -3416958.453 5  -2616948.86746
  22471614.10546        41.200          22.300  
  20238613.430 7      1337.944 7      1042.55548  -1517608.340 7  -1157106.10548
  20238609.15248        48.100          35.300  
  24578019.711 6      4668.325 6      3637.65646  -1538787.926 6  -1166268.26646
  24578017.03146        44.000          23.000  
  20213716.172 7       815.408 7       635.38249   -987050.250 7   -766577.68849
  20213711.57049        48.000          42.000  
  22895593.547 6     -2629.391 6                   2331518.313 6   1735911.98057
  22895584.24647        43.800          29.700  
 08  1 20 20 31 20.0000000  0 12G02G05G06G10G12G15G16G21G24G26G29G30   -0.000386536
  23784233.836 3     -2508.712 3     -1954.84846   2313614.211 3   1777134.27046
  23784229.40246        36.400          19.300  
  24035478.102 6     -2935.295 6     -2287.24346   2642146.035 6   2027966.54746
  24035473.77346        44.500          20.900  
  20423595.250 7      1753.066 7      1366.02648  -1962740.277 7  -1506733.89548
  20423590.85948        47.800          34.200  
  20846610.953 7      -338.960 7      -264.12448    -35935.828 7    -22712.12148
  20846605.82448        48.200          36.500  
  25033492.086 2     -2952.374 2                    146462.766 2
                        35.000  
  24996077.297 4      4231.842 4      3297.53145   -758951.188 4   -360043.28945
  24996074.68445        37.800          17.400  
  24249773.891 4      3582.823 4      2791.81945   -751472.633 4  -2317809.13745
  24249767.41045        37.700          17.400  
  22468266.367 5      3522.661 5      2744.93146  -3434571.758 5  -2630673.52346
  22468262.54746        39.600          21.500  
  20237342.117 7      1335.795 7      1040.87948  -1524287.316 7  -1162310.50048
  20237338.03548        48.700          34.600  
  24573578.477 6      4668.069 6      3637.45846  -1562128.270 6  -1184455.55546
  24573575.21146        44.000          22.300  
  20212942.984 7       812.805 7       633.35549   -991114.277 7   -769744.46549
  20212938.27349        49.800          42.300  
  22898096.922 6     -2630.737 6                   2344671.996 6
                        45.300  
 08  1 20 20 31 25.0000000  0 12G02G05G06G10G12G15G16G21G24G26G29G30   -0.000389214
  23786620.375 3     -2509.116 3     -1955.14846   2326159.789 3   1786910.00846
  23786616.36346        36.600          19.600  
  24038270.953 6     -2935.409 6     -2287.32546   2656823.078 6   2039403.17246
  24038266.25446        44.500          20.600  
  20421928.672 6      1750.751 6      1364.21948  -1971494.031 6  -1513554.99248
  20421924.58248        47.200          34.300  
  20846936.547 6      -342.118 6      -266.58648    -34225.238 6    -21379.19148
  20846931.32848        47.200          36.600  
  25036300.133 2     -2952.117 2                    161223.352 2
                        34.500  
  24992050.781 4      4232.002 4      3297.66345   -780111.199 4   -376531.60545
  24992047.69945        37.900          16.900  
  24246365.875 4      3580.969 4      2790.36345   -769377.480 4  -2331760.94945
  24246359.94545        37.700          17.800  
  22464915.813 5      3521.813 5      2744.26346  -3452180.820 5  -2644394.84046
  22464911.16846        39.200          21.100  
  20236072.836 7      1333.783 7      1039.31248  -1530956.230 7  -1167507.05948
  20236068.77348        48.600          34.900  
  24569137.375 6      4667.895 6      3637.32146  -1585467.742 6  -1202642.16046
  24569133.59046        44.300          22.900  
  20212172.391 7       810.332 7       631.42749   -995165.938 7   -772901.60249
  20212167.13349        49.800          42.200  
  22900601.508 6     -2631.913 6                   2357831.559 6   1744114.80157
  22900597.64847        44.900          29.800  
 08  1 20 20 31 30.0000000  0 12G02G05G06G10G12G15G16G21G24G26G29G30   -0.000391891
  23789009.297 4     -2509.760 4     -1955.66145   2338708.590 4   1796688.31345
  23789004.07845        37.800          18.300  
  24041063.695 6     -2935.818 6     -2287.65046   2671502.168 6   2050841.42246
  24041059.48446        45.000          20.400  
  20420265.453 7      1748.131 7      1362.18148  -1980234.688 7  -1520365.89848
  20420261.47748        47.800          34.200  
  20847265.422 7      -345.556 7      -269.26248    -32497.457 7    -20032.88348
  20847260.36348        48.500          36.800  
  25039108.844 1     -2952.142 1                    175984.063 1
                        33.700  
  24988024.070 2      4231.868 2      3297.55445   -801270.539 2   -393019.37545
  24988021.54345        35.500          17.400  
  24242961.375 4      3578.797 4      2788.67345   -787271.465 4  -2345704.31345
  24242954.91845        38.400          16.900  
  22461566.070 4      3520.666 4      2743.38046  -3469784.148 4  -2658111.73846
  22461561.83246        38.500          19.300  
  20234806.172 7      1331.478 7      1037.51648  -1537613.621 7  -1172694.63748
  20234802.00448        48.800          34.900  
  24564696.727 6      4667.458 6      3636.98246  -1608805.035 6  -1220827.07046
  24564693.32446        43.700          22.600  
  20211403.852 7       807.573 7       629.27749   -999203.801 7   -776047.98449
  20211398.78149        50.100          41.900  
  22903106.859 6     -2633.388 6     -2051.99057   2370998.500 6   1754374.75047
  22903103.58247        45.500          29.400  
 08  1 20 20 31 35.0000000  0 12G02G05G06G10G12G15G16G21G24G26G29G30   -0.000394569
  23791398.227 4     -2510.223 4     -1956.01646   2351259.707 4   1806468.39546
  23791392.49646        38.300          19.000  
  24043858.102 6     -2936.048 6     -2287.83146   2686182.410 6   2062280.57846
  24043853.26246        43.900          19.600  
  20418604.531 7      1745.696 7      1360.28447  -1988963.168 7  -1527167.31647
  20418599.98047        48.100          33.700  
  20847597.164 7      -348.801 7      -271.79348    -30753.453 7    -18673.91848
  20847592.10248        48.500          37.100  
  25041919.164 1     -2952.025 1                    190744.188 1
                        33.600  
  24983997.164 3      4231.931 3      3297.60145   -822430.191 3   -409507.37945
  24983994.94545        36.400          16.900  
  24239557.289 4      3576.811 4      2787.12445   -805155.520 4  -2359639.93445
  24239551.23445        38.200          17.400  
  22458217.914 5      3519.691 5      2742.62145  -3487382.605 5  -2671824.84445
  22458212.82045        39.500          18.600  
  20233541.164 7      1329.352 7      1035.85848  -1544260.379 7  -1177873.92648
  20233536.71948        48.100          34.200  
  24560256.258 6      4667.189 6      3636.76946  -1632140.980 6  -1239010.91446
  24560252.63346        42.500          22.200  
  20210637.820 7       804.985 7       627.26249  -1003228.727 7   -779184.29349
  20210632.55149        50.700          41.800  
  22905613.555 6     -2634.682 6     -2052.99747   2384171.910 6   1764639.73447
  22905609.87547        45.300          27.700  
 08  1 20 20 31 40.0000000  0 12G02G05G06G10G12G15G16G21G24G26G29G30   -0.000397245
  23793786.648 4     -2510.757 4     -1956.42745   2363813.492 4   1816250.52745
  23793781.21145        38.500          18.600  
  24046650.914 6     -2936.333 6     -2288.04846   2700864.078 6   2073720.81646
  24046647.19546        43.400          19.300  
  20416946.023 7      1743.214 7      1358.34848  -1997679.238 7  -1533959.05548
  20416941.77748        47.900          33.800  
  20847932.383 7      -352.102 7      -274.36648    -28992.941 7    -17302.09048
  20847927.17648        49.500          37.100  
  25044727.844 1     -2951.923 1                    205503.801 1
                        32.500  
  24979969.758 2      4231.919 2      3297.60545   -843589.789 2   -425995.40245
  24979968.60945        35.000          17.400  
  24236155.727 4      3574.777 4      2785.54445   -823029.406 4  -2373567.65645
  24236150.43845        38.300          18.300  
  22454869.984 4      3518.669 4      2741.80746  -3504975.953 4  -2685533.87946
  22454864.55546        38.900          19.300  
  20232278.742 7      1327.172 7      1034.15947  -1550896.238 7  -1183044.72347
  20232274.16847        48.000          33.700  
  24555815.156 5      4666.867 5      3636.51846  -1655475.316 5  -1257193.50446
  24555812.39546        42.100          23.000  
  20209874.164 7       802.348 7       625.20649  -1007240.469 7   -782310.32449
  20209869.19949        50.200          41.500  
  22908121.109 6     -2636.025 6     -2054.04547   2397352.035 6   1774909.96147
  22908118.05947        45.400          27.400  
 08  1 20 20 31 45.0000000  0 12G02G05G06G10G12G15G16G21G24G26G29G30   -0.000399925
  23796176.320 3     -2510.883 3     -1956.53146   2376367.906 3   1826033.18046
  23796170.55546        37.300          19.900  
  24049445.016 6     -2936.163 6     -2287.91846   2715544.891 6   2085160.40646
  24049441.51246        45.200          19.900  
  20415289.031 6      1741.169 6      1356.75547  -2006385.082 6  -1540742.82847
  20415285.05547        46.300          33.700  
  20848269.867 7      -354.987 7      -276.61548    -27218.008 7    -15919.01648
  20848264.59448        48.000          36.200  
  25047535.273 1     -2951.374 1                    220260.672 1
                        32.200  
  24975943.852 3      4232.319 3      3297.90245   -864751.387 3   -442484.91045
  24975941.79745        36.300          16.900  
  24232756.344 4      3573.186 4      2784.30145   -840895.336 4  -2387489.16045
  24232750.91845        37.900          17.800  
  22451521.445 5      3518.099 5      2741.38146  -3522566.449 5  -2699240.78546
  22451517.26246        39.500          19.300  
  20231017.836 7      1325.422 7      1032.79648  -1557523.348 7  -1188208.70348
  20231013.35248        48.300          34.600  
  24551375.250 6      4666.945 6      3636.57346  -1678810.043 6  -1275376.36746
  24551371.78946        43.800          22.900  
  20209112.891 7       800.134 7       623.48249  -1011241.137 7   -785427.73449
  20209108.13349        49.700          41.900  
  22910630.523 6     -2636.923 6     -2054.74947   2410536.652 6   1785183.70747
  22910627.15247        45.800          27.900  
 08  1 20 20 31 50.0000000  0 12G02G05G06G10G12G15G16G21G24G26G29G30   -0.000402605
  23798565.039 4     -2511.147 4     -1956.73946   2388923.641 4   1835816.87546
  23798559.80146        37.700          20.100  
  24052238.570 5     -2936.389 5     -2288.09446   2730226.836 5   2096600.87946
  24052234.98046        40.400          19.000  
  20413634.820 6      1738.788 6      1354.90348  -2015079.023 6  -1547517.34448
  20413630.63348        46.700          33.800  
  20848610.883 6      -358.066 6      -279.01048    -25427.676 6    -14523.96548
  20848605.80148        47.200          35.400  
  25050343.266 1     -2951.217 1                    235016.758 1
                        26.400  
  24971917.477 2      4232.441 2      3298.01045   -885913.594 2   -458974.96145
  24971914.40245        35.400          16.900  
  24229357.461 4      3571.288 4      2782.82045   -858751.777 4  -2401403.25845
  24229352.60245        37.700          17.800  
  22448176.867 5      3517.125 5      2740.61546  -3540152.074 5  -2712943.85946
  22448170.73046        40.400          19.300  
  20229759.055 6      1323.375 6      1031.20248  -1564140.223 6  -1193364.71148
  20229754.46148        47.500          34.200  
  24546934.297 5      4666.770 5      3636.45046  -1702143.891 5  -1293558.61746
  24546931.52746        40.400          22.500  
  20208353.828 7       797.619 7       621.51848  -1015229.230 7   -788535.32448
  20208349.42248        48.300          40.800  
  22913141.313 6     -2638.234 6     -2055.76246   2423727.820 6   1795462.51646
  22913137.66046        44.700          25.300  
 08  1 20 20 31 55.0000000  0 12G02G05G06G10G12G15G16G21G24G26G29G30   -0.000405283
  23800955.102 3     -2511.866 3     -1957.29946   2401482.973 3   1845603.37146
  23800949.53946        36.500          19.000  
  24055033.117 6     -2936.577 6     -2288.25345   2744909.723 6   2108042.14545
  24055029.46545        42.800          16.900  
  20411983.063 6      1736.296 6      1352.95947  -2023760.504 6  -1554282.14147
  20411978.29347        47.300          32.700  
  20848954.602 7      -361.506 7      -281.69648    -23620.145 7    -13115.48448
  20848949.31348        47.600          34.600  
  25053151.445 1     -2951.055 1                    249772.035 1
                        33.400  
  24967889.367 2      4232.389 2      3297.96145   -907075.539 2   -475464.76645
  24967887.66845        35.200          17.400  
  24225962.523 2      3569.162 2      2781.15445   -876597.586 2  -2415309.02745
  24225957.03145        35.300          17.400  
  22444829.727 5      3516.167 5      2739.88046  -3557732.910 5  -2726643.25846
  22444824.87946        41.100          19.300  
  20228501.172 7      1321.166 7      1029.48447  -1570746.055 7  -1198512.12947
  20228497.40647        48.000          33.200  
  24542494.367 5      4666.368 5      3636.12746  -1725475.730 5  -1311739.25446
  24542491.87546        40.800          21.800  
  20207597.891 7       794.945 7       619.44148  -1019203.953 7   -791632.52748
  20207593.03148        48.400          39.800  
  22915651.953 6     -2639.454 6     -2056.72346   2436925.090 6   1805746.12946
  22915649.10246        43.600          22.300  
 08  1 20 20 32  0.0000000  0 12G02G05G06G10G12G15G16G21G24G26G29G30   -0.000407963
  23803344.969 4     -2512.144 4     -1957.51145   2414043.691 4   1855390.92645
  23803339.90645        37.900          18.600  
  24057826.984 5     -2936.692 5     -2288.32045   2759593.184 5   2119483.74245
  24057823.91445        42.100          17.800  
  20410333.141 6      1733.957 6      1351.13447  -2032430.289 6  -1561037.81347
  20410328.62547        45.600          31.900  
  20849301.727 7      -364.583 7      -284.09048    -21797.230 7    -11695.03548
  20849296.30948        47.800          34.600  
  25055957.836 1     -2950.795 1                    264526.012 1
                        32.300  
  24963862.320 2      4232.595 2      3298.11945   -928238.516 2   -491955.35945
  24963860.49245        34.600          16.300  
  24222567.516 4      3567.258 4      2779.69545   -894433.875 4  -2429207.50445
  24222562.81645        38.500          16.900  
  22441485.820 5      3515.271 5      2739.16145  -3575309.266 5  -2740339.06345
  22441480.67645        39.800          18.600  
  20227246.398 7      1319.158 7      1027.91547  -1577341.844 7  -1203651.70347
  20227242.15247        47.800          33.600  
  24538053.852 5      4666.266 5      3636.05146  -1748807.059 5  -1329919.50846
  24538052.06346        41.400          22.500  
  20206843.477 7       792.480 7       617.51548  -1023166.355 7   -794720.10248
  20206838.70748        47.800          40.200  
  22918165.023 6     -2640.661 6     -2057.65446   2450128.395 6   1816034.39846
  22918161.42246        43.600          24.400  
 08  1 20 20 32  5.0000000  0 12G02G05G06G10G12G15G16G21G24G26G29G30   -0.000410643
  23805735.977 4     -2512.654 4     -1957.90845   2426606.961 4   1865180.46545
  23805730.68045        37.500          18.600  
  24060621.539 6     -2936.930 6     -2288.51745   2774277.832 6   2130926.32845
  24060618.18445        42.600          17.800  
  20408685.586 6      1731.523 6      1349.23847  -2041087.902 6  -1567784.00447
  20408681.50847        46.600          31.700  
  20849651.258 6      -367.842 6      -286.63148    -19958.020 6    -10261.87948
  20849646.10548        47.100          33.900  
  25058765.391 1     -2950.644 1                    279279.230 1
                        32.200  
  24959835.023 1      4232.562 1      3298.09145   -949401.324 1   -508445.81345
  24959833.18845        33.400          16.300  
  24219175.492 2      3565.289 2      2778.13245   -912260.320 2  -2443098.16445
  24219170.18045        34.900          16.900  
  22438142.406 5      3514.324 5      2738.44145  -3592880.887 5  -2754031.27045
  22438136.43445        39.700          17.800  
  20225992.844 6      1317.028 6      1026.25547  -1583926.984 6  -1208782.98047
  20225989.18447        47.300          32.500  
  24533615.148 5      4665.919 5      3635.77046  -1772136.652 5  -1348098.35946
  24533612.47346        42.000          21.800  
  20206092.352 7       789.897 7       615.50548  -1027115.840 7   -797797.62948
  20206087.20348        47.600          39.800  
  22920678.055 6     -2641.941 6     -2058.65646   2463338.098 6   1826327.68046
  22920674.98046        43.600          23.000  
 08  1 20 20 32 10.0000000  0 12G02G05G06G10G12G15G16G21G24G26G29G30   -0.000413324
  23808126.828 4     -2512.892 4     -1958.09745   2439171.421 4   1874970.95145
  23808121.06345        38.100          18.600  
  24063415.867 5     -2936.964 5     -2288.54045   2788962.652 5   2142369.02745
  24063412.81645        40.900          17.400  
  20407039.945 6      1729.238 6      1347.45747  -2049734.094 6  -1574521.28947
  20407036.03947        47.000          32.800  
  20850004.734 7      -370.912 7      -289.01848    -18103.461 7     -8816.78948
  20849998.75048        49.100          34.700  
  25061574.984 1     -2950.305 1                    294030.758 1
                        31.800  
  24955807.500 2      4232.824 2      3298.31145   -970565.445 2   -524937.36745
  24955805.90645        34.600          15.600  
  24215784.367 4      3563.404 4      2776.68545   -930077.340 4  -2456981.59045
  24215780.22745        37.700          16.300  
  22434798.609 5      3513.475 5      2737.76945  -3610448.262 5  -2767720.11345
  22434793.44145        39.200          18.600  
  20224741.898 7      1315.063 7      1024.72347  -1590502.301 7  -1213906.59447
  20224738.11347        48.100          33.500  
  24529175.523 5      4665.841 5      3635.73146  -1795465.859 5  -1366277.01646
  24529173.11346        41.700          22.600  
  20205342.781 7       787.472 7       613.61248  -1031053.199 7   -800865.69148
  20205338.01248        48.000          40.300  
  22923193.719 6     -2643.062 6     -2059.52246   2476553.406 6   1836625.28946
  22923189.03946        44.800          25.000  
 08  1 20 20 32 15.0000000  0 12G02G05G06G10G12G15G16G21G24G26G29G30   -0.000416002
  23810519.352 4     -2513.671 4     -1958.70246   2451739.777 4   1884764.46146
  23810512.77046        37.700          19.300  
  24066211.031 6     -2937.444 6     -2288.91945   2803649.871 6   2153813.62145
  24066207.71145        42.600          16.300  
  20405397.742 6      1726.554 6      1345.36947  -2058366.863 6  -1581248.13347
  20405392.96147        46.600          32.500  
  20850360.891 7      -374.445 7      -291.78048    -16231.238 7     -7357.89148
  20850355.23448        48.200          34.900  
  25064381.000 1     -2950.419 1                    308782.855 1
                        30.800  
  24951781.344 1      4232.533 1      3298.06045   -991728.109 1   -541427.66845
  24951778.97345        33.000          14.800  
  24212396.828 3      3561.158 3      2774.92745   -947883.129 3  -2470856.22345
  24212391.87545        35.800          17.800  
  22431456.969 5      3512.283 5      2736.84145  -3628009.676 5  -2781404.32045
  22431451.60245        40.100          17.800  
  20223493.164 6      1312.678 6      1022.86947  -1597065.691 6  -1219020.93847
  20223488.91447        47.100          33.000  
  24524736.789 5      4665.221 5      3635.23246  -1818791.965 5  -1384453.17646
  24524733.99646        41.600          22.600  
  20204596.344 7       784.613 7       611.38848  -1034976.266 7   -803922.63348
  20204591.80948        48.600          40.100  
  22925709.109 6     -2644.583 6     -2060.71946   2489776.320 6   1846928.88346
  22925705.51646        44.600          22.900  
 08  1 20 20 32 20.0000000  0 12G02G05G06G10G12G15G16G21G24G26G29G30   -0.000418682
  23812911.445 4     -2514.226 4     -1959.13845   2464310.906 4   1894560.15245
  23812905.30945        37.700          18.300  
  24069006.828 5     -2937.741 5     -2289.14545   2818338.578 5   2165259.34445
  24069002.77745        42.400          15.600  
  20403757.313 6      1724.012 6      1343.38347  -2066986.922 6  -1587965.04747
  20403752.57447        44.600          31.100  
  20850719.773 6      -377.763 6      -294.36247    -14342.422 6     -5886.08247
  20850714.87547        44.600          32.400  
  25067186.570 1                                                
                        27.600  
  24947753.742 1      4232.460 1      3298.03645  -1012890.410 1   -557917.84845
  24947752.09045        33.000          15.600  
  24209009.289 2      3559.054 2      2773.28345   -965678.398 2  -2484722.63745
  24209005.53545        35.000          17.400  
  22428115.430 5      3511.196 5      2735.99546  -3645565.656 5  -2795084.29346
  22428110.93846        40.400          19.000  
  20222245.977 6      1310.459 6      1021.13647  -1603617.984 6  -1224126.61747
  20222242.24247        45.500          32.600  
  24520297.688 5      4664.846 5      3634.93746  -1842116.195 5  -1402627.85946
  24520295.67246        40.200          20.600  
  20203852.398 6       781.923 6       609.29348  -1038885.879 6   -806969.09848
  20203847.60248        46.300          38.600  
  22928226.547 6     -2645.949 6     -2061.78046   2503006.066 6   1857237.78146
  22928223.37546        42.900          23.000  
 08  1 20 20 32 25.0000000  0 12G02G05G06G10G12G15G16G21G24G26G29G30   -0.000421364
  23815303.484 3     -2514.323 3     -1959.20846   2476882.520 3   1904356.19146
  23815297.83646        36.500          19.600  
  24071801.250 5     -2937.640 5     -2289.07645   2833026.777 5   2176704.72345
  24071797.98045        41.100          16.300  
  20402118.953 6      1721.820 6      1341.67947  -2075596.023 6  -1594673.44147
  20402114.43447        46.500          31.600  
  20851082.305 6      -380.662 6      -296.61847    -12439.113 6     -4402.99247
  20851076.91847        46.500          33.600  
  25069995.914 1                                    338283.91011
                        29.600  
  24943726.453 2      4232.837 2      3298.29945  -1034054.594 2   -574409.34445
  24943724.45745        33.900          14.800  
  24205627.273 3      3557.266 3      2771.90845   -983464.727 3  -2498582.17645
  24205621.08245        36.800          17.400  
  22424776.703 5      3510.477 5      2735.43945  -3663118.043 5  -2808761.48845
  22424770.18845        39.300          18.300  
  20221000.859 7      1308.619 7      1019.70247  -1610161.078 7  -1229225.12947
  20220997.13347        48.000          33.100  
  24515860.039 5      4664.892 5      3634.99046  -1865440.656 5  -1420802.80946
  24515856.84446        41.000          19.600  
  20203110.094 7       779.633 7       607.50548  -1042784.043 7   -810006.62148
  20203105.93048        48.200          39.600  
  22930745.625 6     -2646.930 6     -2062.53646   2516240.715 6   1867550.46146
  22930741.74246        43.700          22.300  
 08  1 20 20 32 30.0000000  0 12G02G05G06G10G12G15G16G21G24G26G29G30   -0.000424044
  23817696.008 3     -2514.626 3     -1959.44946   2489455.652 3   1914153.43846
  23817690.50446        36.400          19.300  
  24074596.461 5     -2937.673 5     -2289.09045   2847715.141 5   2188150.17245
  24074592.74245        41.700          16.900  
  20400482.688 6      1719.574 6      1339.92747  -2084193.895 6  -1601373.07847
  20400478.34047        46.600          33.000  
  20851447.344 7      -383.734 7      -299.01348    -10520.445 7     -2907.93048
  20851441.62548        48.200          34.500  
  25072803.375 1                                    353031.52311
                        28.000  
  24939697.523 1      4233.012 1      3298.44745  -1055219.652 1   -590901.57845
  24939697.12945        33.100          14.800  
  24202243.180 3      3555.484 3      2770.50645  -1001242.145 3  -2512434.70745
  24202238.10545        36.600          17.400  
  22421436.266 5      3509.711 5      2734.84145  -3680666.598 5  -2822435.69545
  22421430.82845        39.500          18.600  
  20219756.883 6      1306.680 6      1018.19147  -1616694.480 6  -1234316.08647
  20219753.80947        47.300          33.300  
  24511420.969 5      4664.735 5      3634.85546  -1888764.332 5  -1438977.08646
  24511418.58646        41.300          19.600  
  20202370.797 7       777.207 7       605.61648  -1046670.078 7   -813034.69948
  20202366.34848        47.700          40.100  
  22933265.289 6     -2648.016 6     -2063.38746   2529480.797 6   1877867.39846
  22933261.54746        44.100          24.700  
 08  1 20 20 32 35.0000000  0 12G02G05G06G10G12G15G16G21G24G26G29G30   -0.000426725
  23820089.836 3     -2515.180 3     -1959.87946   2502031.551 3   1923952.83246
  23820083.71146        36.900          19.600  
  24077391.516 5     -2937.957 5     -2289.31945   2862404.926 5   2199596.76645
  24077388.32045        40.900          16.900  
  20398849.570 6      1717.058 6      1337.96747  -2092779.184 6  -1608062.91447
  20398844.90247        46.000          32.100  
  20851815.836 6      -387.055 6      -301.60248     -8585.168 6     -1399.92248
  20851810.35548        47.100          34.400  
  25075607.102 1                                                
                        28.000  
  24935669.984 1      4232.925 1      3298.38745  -1076384.277 1   -607393.51245
  24935669.75045        33.000          14.800  
  24198863.141 2      3553.422 2      2768.88245  -1019009.254 2  -2526279.11745
  24198857.43845        34.600          17.400  
  22418097.484 5      3508.657 5      2734.01745  -3698209.883 5  -2836105.78145
  22418092.90645        39.800          18.300  
  20218516.430 6      1304.479 6      1016.47747  -1623216.875 6  -1239398.47347
  20218513.25447        46.800          33.000  
  24506982.625 5      4664.341 5      3634.55245  -1912086.035 5  -1457149.84445
  24506980.48445        40.600          18.600  
  20201633.508 6       774.530 6       603.53048  -1050542.730 6   -816052.35248
  20201629.55148        47.000          39.500  
  22935785.266 6     -2649.363 6     -2064.44146   2542727.613 6   1888189.60546
  22935782.46546        43.900          25.100  
 08  1 20 20 32 40.0000000  0 12G02G05G06G10G12G15G16G21G24G26G29G30   -0.000429407
  23822482.664 3     -2515.651 3     -1960.24846   2514609.805 3   1933754.07446
  23822477.34846        37.000          19.300  
  24080187.398 5     -2938.164 5     -2289.48745   2877095.746 5   2211044.19945
  24080184.24245        41.800          16.300  
  20397218.039 6      1714.572 6      1336.03147  -2101352.043 6  -1614743.06647
  20397213.12547        45.700          31.600  
  20852187.242 7      -390.303 7      -304.13148     -6633.652 7       120.73448
  20852182.09448        47.800          34.900  
  25078413.406 1                                                
                        26.400  
  24931643.539 1      4232.931 1      3298.39045  -1097548.930 1   -623885.46145
  24931642.60545        33.600          14.800  
  24195484.188 3      3551.380 3      2767.32545  -1036766.152 3  -2540115.74245
  24195478.39845        35.700          16.900  
  22414761.313 5      3507.648 5      2733.23346  -3715748.125 5  -2849771.94546
  22414755.32046        40.000          19.000  
  20217277.398 6      1302.320 6      1014.79547  -1629728.473 6  -1244472.44547
  20217273.60547        45.900          33.600  
  24502545.086 5      4664.030 5      3634.31245  -1935406.184 5  -1475321.40245
  24502542.94945        40.200          18.600  
  20200899.547 6       771.921 6       601.49848  -1054402.336 6   -819059.84448
  20200894.77348        47.000          39.800  
  22938307.727 6     -2650.638 6     -2065.42646   2555980.805 6   1898516.73446
  22938303.87546        43.300          22.300  
 08  1 20 20 32 45.0000000  0 12G02G05G06G10G12G15G16G21G24G26G29G30   -0.000432087
  23824876.578 3     -2516.150 3     -1960.63246   2527190.555 3   1943557.23446
  23824871.33646        36.700          20.400  
  24082982.820 5     -2938.427 5     -2289.67445   2891787.879 5   2222492.57045
  24082980.04345        39.200          16.900  
  20395589.125 6      1712.047 6      1334.06047  -2109912.277 6  -1621413.36747
  20395584.12547        45.700          32.900  
  20852561.883 7      -393.589 7      -306.69248     -4665.707 7      1654.19548
  20852556.07448        48.000          35.600  
  25081221.078 1                                    397271.09411
                        27.600  
  24927616.547 2      4232.903 2      3298.35945  -1118713.445 2   -640377.25845
  24927615.04745        34.300          14.800  
  24192107.234 4      3549.240 4      2765.63745  -1054512.355 4  -2553943.92845
  24192101.47345        38.400          17.400  
  22411424.039 5      3506.580 5      2732.39546  -3733281.023 5  -2863433.91846
  22411418.72746        40.000          19.600  
  20216040.641 7      1300.121 7      1013.08048  -1636229.078 7  -1249537.84448
  20216036.40248        47.600          34.100  
  24498108.195 5      4663.645 5      3634.01446  -1958724.406 5  -1493491.47346
  24498105.12146        40.900          19.600  
  20200167.602 6       769.251 6       599.41648  -1058248.590 6   -822056.92648
  20200162.86748        47.500          40.500  
  22940830.711 6     -2651.981 6     -2066.47646   2569240.711 6   1908849.11346
  22940827.28546        43.000          23.900  
 08  1 20 20 32 50.0000000  0 11G02G05G06G10G15G16G21G24G26G29G30   -0.000434769
  23827271.375 3                                   2539773.961 3   1953362.49646
  23827265.82446        36.300          19.600  
  24085779.398 5     -2938.683 5     -2289.87745   2906481.293 5   2233941.95745
  24085776.06345        40.200          17.400  
  20393962.492 6                                  -2118460.043 6  -1628073.97747
  20393957.73847        46.700          33.600  
  20852939.141 6                                     -2681.277 6      3200.50448
  20852933.93448        47.500          35.300  
  24923589.945 2                                  -1139877.563 2   -656868.77345
  24923587.02745        34.200          15.600  
  24188731.906 4                                  -1072248.359 4  -2567764.18845
  24188726.58245        37.400          17.800  
  22408088.539 5      3505.567 5      2731.61346  -3750808.859 5  -2877091.98046
  22408083.37946        41.400          19.900  
  20214805.977 6                                  -1642718.859 6  -1254594.82048
  20214801.46548        47.500          34.400  
  24493670.766 5                                  -1982040.695 5  -1511660.00446
  24493668.28546        41.000          20.400  
  20199437.836 7                                  -1062081.652 7   -825043.72748
  20199433.39148        47.900          40.600  
  22943355.789 6                                   2582507.148 6   1919186.60246
  22943351.82446        43.700          22.800  
 08  1 20 20 32 55.0000000  0 11G02G05G06G10G15G16G21G24G26G29G30   -0.000437450
  23829666.281 3     -2517.120 3     -1961.38746   2552359.559 3   1963169.43446
  23829660.59046        36.900          19.900  
  24088575.117 5     -2938.853 5     -2290.02345   2921175.559 5   2245392.07045
  24088571.94145        40.100          16.900  
  20392338.000 6      1707.113 6      1330.21647  -2126995.605 6  -1634725.05547
  20392333.23047        47.400          33.600  
  20853319.961 7      -400.095 7      -311.76248      -680.801 7      4759.31348
  20853314.49648        47.700          35.500  
  24919562.078 2      4232.862 2      3298.33845  -1161041.871 2   -673360.46545
  24919560.21145        34.500          15.600  
  24185358.758 3      3545.194 3      2762.49145  -1089974.328 3  -2581576.64145
  24185353.20345        36.700          18.600  
  22404753.883 5      3504.600 5      2730.85246  -3768331.859 5  -2890746.24246
  22404749.46546        42.000          21.700  
  20213572.648 7      1295.844 7      1009.74848  -1649198.082 7  -1259643.55948
  20213568.95748        47.800          34.200  
  24489234.023 5      4662.960 5      3633.47846  -2005355.496 5  -1529827.39546
  24489231.96146        40.800          20.900  
  20198711.070 7       764.040 7       595.35548  -1065901.852 7   -828020.50448
  20198706.78148        48.100          40.700  
  22945881.602 6     -2654.516 6     -2068.45446   2595779.730 6   1929528.87146
  22945877.30546        43.500          22.900  
 08  1 20 20 33  0.0000000  0 11G02G05G06G10G15G16G21G24G26G29G30   -0.000440130
  23832062.414 2     -2517.838 2     -1961.95246   2564948.750 2   1972979.19546
  23832055.84046        35.100          19.600  
  24091372.883 5     -2939.281 5     -2290.33945   2935871.965 5   2256843.76645
  24091369.06345        39.800          16.900  
  20390716.602 6      1704.419 6      1328.12047  -2135517.699 6  -1641365.65247
  20390711.94947        46.000          33.000  
  20853704.031 6      -403.568 6      -314.47048      1337.039 6      6331.66048
  20853698.27048        47.100          34.600  
  24915534.836 2      4232.594 2      3298.12345  -1182204.840 2   -689851.07845
  24915532.43845        35.200          16.300  
  24181987.031 2      3542.914 2      2760.71145  -1107688.898 2  -2595380.19545
  24181982.60945        34.000          18.600  
  22401421.094 6      3503.363 6      2729.89846  -3785848.676 6  -2904395.73446
  22401415.41046        42.500          22.200  
  20212341.828 6      1293.469 6      1007.89947  -1655665.430 6  -1264683.05547
  20212338.14547        46.200          33.300  
  24484797.867 4      4662.366 4      3633.01146  -2028667.324 4  -1547992.44946
  24484796.08246        38.800          20.600  
  20197986.844 6       761.191 6       593.13748  -1069707.805 6   -830986.18848
  20197982.40648        46.800          39.700  
  22948408.555 6     -2656.010 6     -2069.61646   2609059.781 6   1939876.95346
  22948404.63746        42.600          23.400  
 08  1 20 20 33  5.0000000  0 11G02G05G06G10G15G16G21G24G26G29G30   -0.000442812
  23834458.109 3     -2518.283 3     -1962.29846   2577540.164 3   1982790.68446
  23834451.84046        36.000          19.000  
  24094169.133 5     -2939.464 5     -2290.49545   2950569.285 5   2268296.23845
  24094165.67245        39.200          16.900  
  20389097.141 6      1701.939 6      1326.18547  -2144027.395 6  -1647996.57847
  20389092.51647        46.500          32.800  
  20854090.852 6      -406.802 6      -316.98948      3371.051 6      7916.60548
  20854085.65648        47.100          34.900  
  24911507.469 3      4232.613 3      3298.13245  -1203367.906 3   -706341.73845
  24911505.16845        36.100          16.300  
  24178619.578 3      3540.824 3      2759.07745  -1125393.020 3  -2609175.57845
  24178614.10545        36.100          18.300  
  22398088.672 5      3502.356 5      2729.10846  -3803360.457 5  -2918041.27346
  22398083.49646        41.700          22.800  
  20211113.195 6      1291.326 6      1006.22747  -1662122.059 6  -1269714.19147
  20211109.37947        47.200          33.600  
  24480362.625 5      4662.063 5      3632.77546  -2051977.637 5  -1566156.32446
  24480360.27046        39.900          19.300  
  20197265.016 7       758.577 7       591.10148  -1073500.691 7   -833941.69148
  20197260.34048        47.600          40.200  
  22950936.703 6     -2657.274 6     -2070.60346   2622346.152 6   1950229.96946
  22950932.82046        43.000          22.200  
 08  1 20 20 33 10.0000000  0 11G02G05G06G10G15G16G21G24G26G29G30   -0.000445492
  23836854.305 4     -2518.619 4     -1962.55645   2590133.258 4   1992603.46545
  23836848.15645        38.400          17.800  
  24096966.297 4     -2939.559 4     -2290.55745   2965267.082 4   2279749.02345
  24096962.98045        38.300          16.300  
  20387479.836 6      1699.577 6      1324.34847  -2152525.277 6  -1654618.31647
  20387475.41447        46.600          33.300  
  20854481.266 6      -409.914 6      -319.41248      5420.621 6      9513.66448
  20854475.86748        47.200          35.200  
  24907479.664 3      4232.707 3      3298.21245  -1224531.441 3   -722832.80145
  24907477.98045        36.700          16.300  
  24175251.195 3      3538.880 3      2757.58345  -1143087.422 3  -2622963.49645
  24175246.51645        37.200          18.300  
  22394756.820 5      3501.463 5      2728.41146  -3820867.773 5  -2931683.32846
  22394751.65246        41.400          22.000  
  20209886.758 6      1289.308 6      1004.65448  -1668568.598 6  -1274737.46148
  20209882.78548        47.000          33.800  
  24475927.570 5      4661.831 5      3632.59846  -2075286.789 5  -1584319.31346
  24475924.61346        41.000          20.600  
  20196545.805 7       756.091 7       589.15948  -1077281.145 7   -836887.48848
  20196541.14548        48.000          40.000  
  22953466.336 6     -2658.416 6     -2071.48446   2635638.230 6   1960587.39146
  22953461.98046        43.100          22.500  
 08  1 20 20 33 15.0000000  0 11G02G05G06G10G15G16G21G24G26G29G30   -0.000448174
  23839251.289 4     -2519.071 4     -1962.90545   2602728.613 4   2002417.98845
  23839244.87545        38.400          18.600  
  24099762.570 4     -2939.760 4     -2290.72545   2979965.883 4   2291202.64845
  24099759.98845        37.800          16.300  
  20385865.234 6      1697.123 6      1322.43148  -2161010.895 6  -1661230.47348
  20385861.05548        46.800          34.200  
  20854873.797 6      -413.141 6      -321.92948      7486.328 6     11123.30948
  20854868.81348        47.000          34.900  
  24903453.258 3      4232.683 3      3298.19545  -1245694.855 3   -739323.77345
  24903450.44145        37.300          16.300  
  24171885.992 4      3536.856 4      2755.98046  -1160771.703 4  -2636743.39846
  24171880.64846        38.500          19.000  
  22391426.414 5      3500.479 5      2727.65146  -3838370.168 5  -2945321.58246
  22391420.75846        41.400          20.600  
  20208661.352 7      1287.175 7      1002.99448  -1675004.473 7  -1279752.43048
  20208658.06648        48.000          34.200  
  24471492.227 5      4661.495 5      3632.34146  -2098594.266 5  -1602481.01646
  24471489.72346        40.600          22.000  
  20195828.891 7       753.483 7       587.12848  -1081048.559 7   -839823.12948
  20195824.40248        48.400          40.600  
  22955997.336 6     -2659.678 6     -2072.47246   2648936.621 6   1970949.75046
  22955993.02746        42.800          24.700  
 08  1 20 20 33 20.0000000  0 11G02G05G06G10G15G16G21G24G26G29G30   -0.000450855
  23841648.531 4     -2519.583 4     -1963.31946   2615326.527 4   2012234.58246
  23841642.30946        38.300          19.300  
  24102559.703 3     -2940.020 3     -2290.92045   2994665.980 3   2302657.25045
  24102557.15245        37.200          16.900  
  20384252.602 6      1694.561 6      1320.43448  -2169483.699 6  -1667832.64548
  20384248.30948        46.400          34.300  
  20855270.367 6      -416.423 6      -324.48648      9568.441 6     12745.73848
  20855265.32848        47.100          35.000  
  24899425.953 3      4232.618 3      3298.13945  -1266857.945 3   -755814.46945
  24899423.33645        36.400          16.900  
  24168522.117 5      3534.738 5      2754.33646  -1178445.395 5  -2650515.07846
  24168517.32446        39.800          19.300  
  22388096.961 5      3499.384 5      2726.78646  -3855867.086 5  -2958955.51246
  22388091.43446        40.300          21.100  
  20207439.172 7      1284.970 7      1001.27348  -1681429.324 7  -1284758.79348
  20207435.34448        48.200          34.100  
  24467057.227 5      4661.077 5      3632.00146  -2121899.652 5  -1620641.02346
  24467055.08246        40.200          22.600  
  20195114.539 7       750.812 7       585.04448  -1084802.617 7   -842748.34848
  20195110.30948        47.900          40.400  
  22958529.055 6     -2661.017 6     -2073.52146   2662241.707 6   1981317.35546
  22958524.89146        43.100          23.000  
 08  1 20 20 33 25.0000000  0 11G02G05G06G10G15G16G21G24G26G29G30   -0.000453535
  23844045.805 3     -2520.180 3     -1963.77746   2627927.426 3   2022053.46546
  23844040.51246        36.900          20.100  
  24105357.297 5     -2939.905 5     -2290.82245   3009365.504 5   2314111.35945
  24105354.78945        40.600          16.900  
  20382642.773 6      1692.297 6      1318.67848  -2177945.184 6  -1674426.03548
  20382638.39548        47.000          34.600  
  20855669.891 7      -419.648 7      -326.99748     11666.684 7     14380.72348
  20855664.75848        48.800          35.700  
  24895397.695 2      4232.659 2      3298.17545  -1288021.242 2   -772305.34445
  24895396.37145        34.400          16.900  
  24165160.688 5      3532.712 5      2752.75845  -1196108.953 5  -2664278.86745
  24165156.44545        40.500          18.600  
  22384767.430 4      3498.667 4      2726.23846  -3873360.418 4  -2972586.69946
  22384762.80146        38.100          20.100  
  20206218.250 7      1283.005 7       999.74548  -1687844.352 7  -1289757.52048
  20206214.36748        48.900          34.600  
  24462622.313 4      4660.785 4      3631.77746  -2145203.578 4  -1638799.90646
  24462620.59846        37.900          22.000  
  20194402.625 7       748.355 7       583.14048  -1088544.395 7   -845664.04748
  20194397.64148        49.000          41.100  
  22961061.219 6     -2661.940 6     -2074.23846   2675551.406 6   1991688.54346
  22961057.82446        44.500          22.000  
 08  1 20 20 33 30.0000000  0 10G02G06G10G15G16G21G24G26G29G30   -0.000456217
  23846444.023 1                                   2640532.39811   2031875.41055
  23846439.94545        31.200          18.600  
  20381035.359 7                                  -2186393.223 7  -1681008.92648
  20381030.68448        49.700          38.800  
  20856071.805 6                                     13783.012 6     16029.80148
  20856067.04348        46.800          35.700  
  24891371.008 5                                  -1309187.184 5   -788798.22345
  24891368.59045        39.500          16.900  
  24161802.016 5                                  -1213758.094 5  -2678031.41446
  24161797.89846        39.400          19.300  
  22381440.148 5      3497.725 5      2725.53346  -3890849.043 5  -2986214.36346
  22381435.53946        40.200          20.400  
  20204999.945 7                                  -1694247.715 7  -1294747.21547
  20204995.91847        48.300          33.400  
  24458187.258 5                                  -2168508.129 5  -1656959.34046
  24458185.94146        41.500          19.900  
  20193693.219 7                                  -1092272.492 7   -848569.17648
  20193688.95348        48.600          39.900  
  22963594.961 5                                   2688864.246 5   2002062.08647
  22963591.73847        41.400          29.500  
 08  1 20 20 33 35.0000000  0 10G02G06G10G15G16G21G24G26G29G30   -0.000458899
  23848841.852 1     -2521.07311     -1964.47855   2653137.766 1   2041697.80145
  23848838.38745        30.700          16.300  
  20379430.031 7      1687.093 7      1314.61548  -2194828.688 7  -1687582.00048
  20379425.48848        49.300          38.000  
  20856477.578 6      -426.217 6      -332.11448     15914.098 6     17690.37148
  20856473.16448        46.100          35.500  
  24887343.602 5      4232.489 5      3298.05245  -1330349.629 5   -805288.48445
  24887341.55945        39.900          17.400  
  24158444.734 5      3528.475 5      2749.45846  -1231400.469 5  -2691778.70746
  24158440.15246        40.100          19.000  
  22378113.508 5      3496.380 5      2724.43046  -3908330.941 5  -2999836.51246
  22378109.19946        41.700          21.300  
  20203783.344 7      1278.497 7       996.23147  -1700640.199 7  -1299728.37147
  20203779.55147        48.800          31.100  
  24453754.695 5      4659.955 5      3631.14045  -2191807.902 5  -1675115.03945
  24453751.79345        41.200          18.300  
  20192986.164 7       742.920 7       578.88048  -1095987.094 7   -851463.57448
  20192981.52748        48.100          38.000  
  22966129.203 2     -2664.710 2     -2076.40046   2702187.797 2   2012444.08646
  22966127.12946        35.100          22.800  
 08  1 20 20 33 40.0000000  0 10G02G06G10G15G16G21G24G26G29G30   -0.000461580
  23851242.188 1     -2521.649 1                   2665746.012 1
                        31.800  
  20377827.266 7      1684.564 7      1312.64848  -2203251.508 7  -1694145.24248
  20377822.45348        48.200          36.900  
  20856886.422 7      -429.515 7      -334.69248     18061.672 7     19363.83248
  20856881.90648        47.900          35.600  
  24883315.969 4      4232.326 4      3297.92245  -1351511.258 4   -821778.09445
  24883314.12945        37.700          16.300  
  24155089.242 5      3526.392 5      2747.82946  -1249032.430 5  -2705517.85246
  24155085.12546        40.600          19.000  
  22374787.484 5      3495.322 5      2723.62846  -3925807.551 5  -3013454.65246
  22374783.02046        42.300          20.600  
  20202569.195 7      1276.313 7       994.52147  -1707021.762 7  -1304700.97747
  20202564.84447        50.500          31.300  
  24449319.836 5      4659.470 5                  -2215105.250 5
                        39.500  
  20192281.977 7       740.240 7       576.81448  -1099688.293 7   -854347.64548
  20192277.20348        47.700          36.300  
  22968665.977 5     -2666.045 5     -2077.43946   2715518.023 5   2022831.28146
  22968663.66846        39.400          25.600  
 08  1 20 20 33 45.0000000  0 10G02G06G10G15G16G21G24G26G29G30   -0.000464262
  23853642.922 1     -2521.799 1                   2678355.008 1
                        31.300  
  20376226.430 7      1682.311 7      1310.88948  -2211663.063 7  -1700699.68848
  20376222.03548        48.100          36.700  
  20857297.781 6      -432.479 6      -336.99248     20224.066 6     21048.79348
  20857292.99248        47.000          34.600  
  24879289.586 4      4232.561 4      3298.08645  -1372674.063 4   -838268.52345
  24879287.24245        38.700          16.900  
  24151736.516 5      3524.516 5      2746.38046  -1266655.008 5  -2719249.75046
  24151731.66846        42.000          19.600  
  22371463.086 5      3494.498 5      2722.98146  -3943280.039 5  -3027069.55946
  22371458.07446        41.900          20.600  
  20201356.539 7      1274.393 7       993.03747  -1713393.727 7  -1309666.16047
  20201352.43447        49.500          30.400  
  24444887.672 5      4659.358 5                  -2238402.043 5
                        40.500  
  20191579.828 7       737.845 7       574.93848  -1103377.516 7   -857222.33648
  20191574.80948        48.400          36.400  
  22971203.758 4     -2667.079 4     -2078.24646   2728853.418 4   2033222.51246
  22971201.02046        37.900          22.500  
 08  1 20 20 33 50.0000000  0 10G02G06G10G15G16G21G24G26G29G30   -0.000466944
  23856039.945 1     -2522.051 1                   2690965.262 1
                        31.800  
  20374627.906 7      1680.036 7      1309.11948  -2220063.242 7  -1707245.28148
  20374623.64148        48.900          36.900  
  20857712.484 6      -435.504 6      -339.35547     22401.586 6     22745.57047
  20857707.22347        47.300          33.200  
  24875262.242 5      4232.705 5      3298.20745  -1393837.586 5   -854759.55945
  24875260.18845        39.800          17.400  
  24148383.680 5      3522.674 5      2744.94246  -1284268.379 5  -2732974.46146
  24148379.66046        41.000          19.900  
  22368138.727 5      3493.717 5      2722.37846  -3960748.625 5  -3040681.44946
  22368133.87546        41.800          19.600  
  20200145.461 7      1272.458 7       991.52847  -1719756.016 7  -1314623.80147
  20200141.62547        49.300          29.900  
  24440453.539 5      4659.181 5                  -2261697.945 5
                        39.200  
  20190879.844 7       735.422 7       573.06148  -1107054.625 7   -860087.64148
  20190875.22348        47.600          37.000  
  22973742.422 4     -2668.128 4     -2079.04446   2742194.059 4   2043617.73046
  22973739.44546        38.900          21.700  
 08  1 20 20 33 55.0000000  0 10G02G06G10G15G16G21G24G26G29G30   -0.000469627
  23858441.711 1     -2522.637 1                   2703578.449 1
                        31.600  
  20373032.352 7      1677.441 7      1307.09848  -2228450.449 7  -1713780.77348
  20373027.56348        49.100          36.800  
  20858130.188 7      -438.848 7      -341.96148     24595.828 7     24455.37548
  20858124.78148        48.400          34.300  
  24871235.406 5      4232.569 5      3298.10345  -1415000.430 5   -871250.07445
  24871232.46945        39.700          16.300  
  24145035.055 5      3520.477 5      2743.23046  -1301870.762 5  -2746690.60946
  24145030.09446        41.800          19.900  
  22364815.781 5      3492.600 5      2721.50546  -3978211.625 5  -3054288.97346
  22364810.86346        42.400          19.300  
  20198937.414 7      1270.217 7       989.77547  -1726107.102 7  -1319572.67647
  20198932.89847        49.400          29.700  
  24436020.813 4      4658.698 4                  -2284991.438 4
                        39.000  
  20190182.758 6       732.702 6       570.93348  -1110718.133 6   -862942.30548
  20190177.71548        47.300          35.700  
  22976283.227 4     -2669.424 4     -2080.08446   2755541.180 4   2054018.15246
  22976279.61746        38.700          22.000  
 08  1 20 20 34  0.0000000  0 10G02G06G10G15G16G21G24G26G29G30   -0.000472309
  23860839.578 1     -2522.895 1                   2716192.922 1
                        29.600  
  20371438.141 7      1675.115 7      1305.28148  -2236826.023 7  -1720307.17648
  20371433.69148        47.800          36.800  
  20858550.281 6      -441.881 6      -344.32047     26805.234 6     26176.97747
  20858544.87547        47.300          33.600  
  24867208.758 5      4232.706 5      3298.21045  -1436163.957 5   -887741.12545
  24867205.62945        40.600          18.300  
  24141686.852 5      3518.564 5      2741.73246  -1319463.582 5  -2760399.27046
  24141682.26246        41.300          20.400  
  22361493.414 6      3491.737 6      2720.83246  -3995670.309 6  -3067893.13346
  22361488.34446        42.700          19.000  
  20197730.906 7      1268.234 7       988.24147  -1732448.270 7  -1324513.87947
  20197726.42647        49.600          30.800  
  24431589.398 5      4658.514 5                  -2308284.008 5
                        40.700  
  20189488.008 6       730.248 6       569.02348  -1114369.371 6   -865787.41848
  20189483.10248        47.000          37.600  
  22978822.430 3     -2670.519 3     -2080.92546   2768893.773 3   2064422.77746
  22978820.60246        35.700          21.100  
 08  1 20 20 34  5.0000000  0 10G02G06G10G15G16G21G24G26G29G30   -0.000474993
  23863240.516 1     -2523.166 1                   2728808.750 1
                        30.800  
  20369846.734 7      1672.813 7      1303.49248  -2245190.090 7  -1726824.63748
  20369842.45748        48.100          37.000  
  20858973.438 6      -444.917 6      -346.69148     29029.820 6     27910.43048
  20858968.50848        47.400          34.200  
  24863180.430 5      4232.833 5      3298.30945  -1457328.125 5   -904232.66845
  24863178.11745        39.400          17.400  
  24138341.164 5      3516.687 5      2740.27846  -1337047.016 5  -2774100.66046
  24138335.93046        41.700          20.100  
  22358171.484 5      3490.916 5      2720.19546  -4013124.887 5  -3081494.10546
  22358166.92646        41.700          19.300  
  20196525.906 7      1266.285 7       986.71347  -1738779.695 7  -1329447.44547
  20196521.30547        49.100          31.200  
  24427156.969 5      4658.302 5                  -2331575.520 5
                        39.600  
  20188795.484 6       727.813 6       567.12848  -1118008.434 6   -868623.05948
  20188790.72348        47.300          36.800  
  22981364.789 2     -2671.570 2     -2081.73746   2782251.621 2   2074831.46146
  22981362.26646        34.900          20.400  
 08  1 20 20 34 10.0000000  0 10G02G06G10G15G16G21G24G26G29G30   -0.000477676
  23865642.070 1     -2523.391 1                   2741425.707 1
                        31.200  
  20368257.227 7      1670.593 7      1301.75948  -2253543.055 7  -1733333.43048
  20368252.78548        49.300          36.800  
  20859399.586 7      -447.897 7      -349.00948     31269.305 7     29655.47348
  20859394.25848        47.600          34.200  
  24859153.250 5      4233.042 5      3298.47345  -1478493.336 5   -920725.03545
  24859150.43045        41.400          18.600  
  24134996.148 5      3514.833 5      2738.82446  -1354621.184 5  -2787794.78146
  24134991.85546        42.100          21.100  
  22354850.766 6      3490.163 6      2719.60546  -4030575.699 6  -3095092.13346
  22354845.85246        42.900          20.100  
  20195322.633 7      1264.396 7       985.24447  -1745101.676 7  -1334373.66447
  20195318.01647        49.700          31.500  
  24422724.680 6      4658.168 6                  -2354866.359 6
                        42.600  
  20188105.070 6       725.455 6       565.28448  -1121635.707 6   -871449.48048
  20188100.95348        47.500          37.400  
  22983907.992 2     -2672.466 2     -2082.45846   2795613.949 2   2085243.75446
  22983905.44146        35.000          19.300  
 08  1 20 20 34 15.0000000  0 10G02G06G10G15G16G21G24G26G29G30   -0.000480362
  23868045.125 1     -2523.820 1                   2754044.805 1
                        32.300  
  20366669.930 7      1668.143 7      1299.85148  -2261883.770 7  -1739832.68448
  20366665.62948        49.300          37.900  
  20859828.680 7      -451.084 7      -351.49948     33524.727 7     31412.96948
  20859824.04748        47.700          35.500  
  24855124.422 4      4232.991 4      3298.43446  -1499658.289 4   -937217.20746
  24855123.25846        38.700          19.000  
  24131654.398 6      3512.834 6      2737.27146  -1372185.355 6  -2801481.13746
  24131649.48846        43.200          22.300  
  22351531.055 5      3489.217 5      2718.87446  -4048021.785 5  -3108686.50446
  22351526.28146        42.300          19.600  
  20194121.664 7      1262.304 7       983.60947  -1751413.195 7  -1339291.70747
  20194117.65247        49.500          32.600  
  24418292.078 4      4657.776 4                  -2378155.238 4
                        38.500  
  20187417.352 6       722.867 6       563.27748  -1125250.043 6   -874265.86348
  20187413.24248        47.300          39.200  
  22986451.625 2     -2673.707 2     -2083.38646   2808982.484 2   2095660.68446
  22986449.26646        35.200          19.900  
 08  1 20 20 34 20.0000000  0 10G02G06G10G15G16G21G24G26G29G30   -0.000483047
  23870446.391 1     -2524.179 1                   2766665.699 1
                        31.300  
  20365085.172 7      1665.686 7      1297.93448  -2270212.199 7  -1746322.35248
  20365080.67648        47.800          37.400  
  20860261.180 7      -454.237 7      -353.94848     35795.914 7     33182.70748
  20860256.29748        47.600          35.700  
  24851097.586 5      4233.048 5      3298.47346  -1520823.527 5   -953709.57446
  24851095.46946        39.500          19.000  
  24128313.984 6      3510.734 6      2735.63246  -1389739.023 6  -2815159.29746
  24128309.25046        42.600          24.100  
  22348212.414 5      3488.210 5      2718.07746  -4065462.836 5  -3122276.89146
  22348207.13746        41.900          20.400  
  20192922.563 7      1260.207 7       981.98047  -1757714.230 7  -1344201.60947
  20192918.14547        49.300          32.300  
  24413861.969 6      4657.505 6                  -2401442.766 6  -1698347.00056
  24413854.96546        42.500          21.100  
  20186731.852 6       720.293 6       561.25948  -1128851.508 6   -877072.15648
  20186727.95348        46.000          38.900  
  22988997.344 4     -2674.831 4     -2084.30746   2822356.637 4   2106082.21946
  22988994.33246        39.100          21.100  
 08  1 20 20 34 25.0000000  0 10G02G06G10G15G16G21G24G26G29G30   -0.000485733
  23872848.234 1     -2524.566 1                   2779288.531 1
                        32.500  
  20363502.586 7      1663.287 7      1296.06848  -2278528.633 7  -1752802.69148
  20363498.37948        48.000          37.600  
  20860695.914 6      -457.347 6      -356.37548     38082.648 6     34964.58248
  20860691.43048        47.500          36.800  
  24847069.938 4      4233.046 4      3298.47945  -1541988.758 4   -970201.96945
  24847068.00445        38.700          18.600  
  24124976.273 5      3508.751 5      2734.08946  -1407282.777 5  -2828829.74246
  24124970.66046        41.300          22.800  
  22344895.266 6      3487.307 6      2717.38346  -4082899.371 6  -3135863.80546
  22344888.96546        42.700          21.800  
  20191725.273 7      1258.159 7       980.38147  -1764005.023 7  -1349103.51647
  20191720.73047        48.700          31.500  
  24409431.063 5      4657.175 5      3628.96256  -2424728.641 5  -1716491.81346
  24409425.06346        41.700          20.400  
  20186049.234 6       717.757 6       559.29248  -1132440.293 6   -879868.61748
  20186045.38748        46.300          39.900  
  22991544.453 5     -2675.985 5     -2085.17746   2835736.563 5   2116508.10546
  22991540.52346        41.600          25.000  
 08  1 20 20 34 30.0000000  0 10G02G06G10G15G16G21G24G26G29G30   -0.000488417
  23875250.039 1     -2524.992 1                   2791913.492 1
                        31.900  
  20361921.648 6      1660.917 6      1294.22148  -2286833.219 6  -1759273.79748
  20361918.02748        46.700          36.800  
  20861134.891 6      -460.508 6      -358.83948     40385.188 6     36758.77748
  20861129.99248        47.200          36.100  
  24843041.883 3      4233.026 3      3298.45745  -1563153.891 3   -986694.25445
  24843040.38345        36.000          18.300  
  24121639.094 5      3506.800 5      2732.57146  -1424816.777 5  -2842492.59846
  24121633.85246        42.100          23.000  
  22341577.078 6      3486.420 6      2716.68046  -4100331.473 6  -3149447.20746
  22341572.31646        42.800          22.000  
  20190530.492 7      1256.121 7       978.79547  -1770285.629 7  -1353997.49247
  20190525.99247        49.800          31.500  
  24404998.883 5      4656.821 5      3628.70446  -2448012.746 5  -1734635.33246
  24404995.66846        40.100          19.300  
  20185368.594 6       715.223 6       557.31848  -1136016.406 6   -882655.20748
  20185364.21948        45.000          38.000  
  22994090.383 5     -2677.120 5     -2086.06246   2849122.164 5   2126938.41446
  22994087.35546        40.400          24.500  
 08  1 20 20 34 35.0000000  0 10G02G06G10G15G16G21G24G26G29G30   -0.000491104
  23877653.711 1                                   2804539.16411
                        30.500  
  20360343.891 6      1658.657 6      1292.46048  -2295126.504 6  -1765736.09848
  20360339.58248        47.300          37.000  
  20861575.953 7      -463.436 7      -361.11948     42702.367 7     38564.37148
  20861570.60948        48.500          36.500  
  24839013.953 2      4233.241 2      3298.62345  -1584320.098 2  -1003187.36745
  24839012.84045        35.200          17.400  
  24118305.070 6      3504.936 6      2731.12046  -1442341.457 6  -2856148.19546
  24118298.80946        42.800          22.300  
  22338260.023 5      3485.618 5      2716.06946  -4117759.563 5  -3163027.55146
  22338255.43046        42.400          21.100  
  20189336.641 7      1254.235 7       977.32747  -1776556.805 7  -1358884.12547
  20189332.19947        49.900          31.300  
  24400568.289 5      4656.709 5      3628.62445  -2471296.293 5  -1752778.44945
  24400564.76645        39.400          17.400  
  20184690.383 6       712.852 6       555.46948  -1139580.664 6   -885432.55148
  20184686.71148        45.800          37.600  
  22996639.234 5     -2678.089 5     -2086.82046   2862512.609 5   2137372.51246
  22996635.54746        41.000          25.900  
 08  1 20 20 34 40.0000000  0 10G02G06G10G15G16G21G24G26G29G30   -0.000493790
  23880051.563 1                                                
                        26.800  
  20358767.953 7      1656.097 7      1290.46648  -2303406.988 7  -1772188.42648
  20358763.92648        47.700          38.900  
  20862019.328 7      -466.681 7      -363.64348     45035.773 7     40382.58648
  20862014.64848        48.300          37.000  
  24834986.875 4      4233.149 4      3298.56745  -1605485.844 4  -1019680.20345
  24834985.17645        38.600          18.300  
  24114971.844 6      3502.792 6      2729.45346  -1459855.418 6  -2869795.46146
  24114966.27346        43.800          24.200  
  22334944.820 6      3484.549 6      2715.23146  -4135182.309 6  -3176603.70746
  22334939.94146        43.300          21.500  
  20188145.469 7      1252.045 7       975.62047  -1782817.031 7  -1363762.22747
  20188140.53547        50.200          33.400  
  24396138.508 6      4656.252 6      3628.21245  -2494577.555 6  -1770919.51245
  24396135.52045        42.700          16.300  
  20184014.547 6       710.186 6       553.39148  -1143131.594 6   -888199.50448
  20184010.74648        45.800          40.500  
  22999188.094 5     -2679.346 5     -2087.80947   2875909.340 5   2147811.55947
  22999184.71947        41.800          28.400  
