     2.11           OBSERVATION DATA    GPS(GPS)            RINEX VERSION / TYPE
convertToRinex 1.14 convertToRINEX OPR  21-Jan-08 20:39 UTC PGM / RUN BY / DATE 
----------------------------------------------------------- COMMENT             
nw1                                                         MARKER NAME         
                                                            MARKER NUMBER       
GNSS Observer       Trimble                                 OBSERVER / AGENCY   
4629118870          R8 Model 2          Version 3.20        REC # / TYPE / VERS 
                    TRM_R8_GNSS                             ANT # / TYPE        
 -1641901.0466 -3664874.5785  4939967.3778                  APPROX POSITION XYZ 
        0.0000        0.0000        0.0000                  ANTENNA: DELTA H/E/N
     1     1     0                                          WAVELENGTH FACT L1/2
     8    C1    D1    D2    L1    L2    P2    S1    S2      # / TYPES OF OBSERV 
  2008     1    20    18    42   20.0000000     GPS         TIME OF FIRST OBS   
  2008     1    20    21    41   30.0000000     GPS         TIME OF LAST OBS    
     0                                                      RCV CLOCK OFFS APPL 
    14                                                      LEAP SECONDS        
    19                                                      # OF SATELLITES     
   G02  1757  1730  1677  1751  1688  1688  1757  1688      PRN / # OF OBS      
   G04   587   580   563   586   567   567   587   567      PRN / # OF OBS      
   G05  1762  1754  1748  1762  1756  1756  1762  1756      PRN / # OF OBS      
   G06  2151  2150  2150  2151  2151  2151  2151  2151      PRN / # OF OBS      
   G10  2151  2134  2134  2151  2151  2151  2151  2151      PRN / # OF OBS      
   G12  1513  1502  1502  1513  1513  1513  1513  1513      PRN / # OF OBS      
   G13  1364  1359  1354  1363  1356  1356  1364  1356      PRN / # OF OBS      
   G15  1025  1004   986  1017   996   997  1025   997      PRN / # OF OBS      
   G16  1287  1282  1263  1287  1268  1268  1287  1268      PRN / # OF OBS      
   G18   982   975   975   982   982   982   982   982      PRN / # OF OBS      
   G21  1983  1975  1971  1983  1979  1979  1983  1979      PRN / # OF OBS      
   G23   425   417   411   422   412   412   425   412      PRN / # OF OBS      
   G24  2151  2136  2136  2151  2151  2151  2151  2151      PRN / # OF OBS      
   G25   497   496   479   497   480   480   497   480      PRN / # OF OBS      
   G26  1067  1060  1036  1067  1043  1043  1067  1043      PRN / # OF OBS      
   G27   262   261   247   262   248   248   262   248      PRN / # OF OBS      
   G29  2151  2148  2148  2151  2151  2151  2151  2151      PRN / # OF OBS      
   G30  2138  2130  2130  2138  2138  2138  2138  2138      PRN / # OF OBS      
   G31  1285  1282  1278  1284  1280  1280  1285  1280      PRN / # OF OBS      
                                                            END OF HEADER       
 08  1 20 18 42 20.0000000  0 11G02G04G05G06G10G12G13G24G29G30G31    0.000349516
  20721058.008 7                                    692893.05517    528274.71158
  20721051.17648        49.900          40.500  
  23576002.375 5                                   1964836.38715   1490830.27357
  23575997.11347        41.700          28.600  
  20695566.547 7                                    509103.10517    390124.78958
  20695561.39548        50.900          40.900  
  23295101.617 6                                  -1925132.59416  -1479257.15657
  23295097.03147        43.000          27.600  
  22389958.852 6                                  -2179820.31616  -1646549.94558
  22389954.44148        45.100          35.300  
  21293942.359 7                                    936613.96917    719758.94959
  21293936.83649        49.100          41.500  
  25027624.211 4                                    -27395.99614     -9320.85956
  25027619.21546        38.100          19.600  
  22782484.555 6                                  -2155011.63716  -1649840.31658
  22782481.28948        42.600          34.100  
  22187124.828 6                                  -1587494.16816  -1218584.98458
  22187119.84048        47.000          37.300  
  20763492.063 7                                   -428296.61717   -317929.17259
  20763487.39549        49.600          41.700  
  24258571.273 5                                   -458569.03515   -352320.77056
  24258565.59846        41.900          26.000  
 08  1 20 18 42 25.0000000  0 11G02G04G05G06G10G12G13G24G29G30G31    0.000348583
  20722207.164 7     -1207.46317      -940.88059    698930.367 7    532979.11349
  20722200.10549        50.300          41.600  
  23578955.914 6     -3104.64116     -2419.20057   1980359.590 6   1502926.27347
  23578951.00447        42.600          26.700  
  20696490.375 7      -971.10217      -756.69858    513958.617 7    393908.28148
  20696485.37548        50.400          40.600  
  23292016.734 6      3242.83516      2526.88857  -1941346.770 6  -1491891.59847
  23292011.80147        44.300          28.900  
  22386780.367 6      3340.40216      2602.91257  -2196522.324 6  -1659564.50447
  22386775.61747        43.600          33.100  
  21295490.289 7     -1627.13717     -1267.89858    944749.652 7    726098.44148
  21295485.24248        48.900          41.200  
  25025786.828 2      1929.82312      1503.75356    -37045.113 2    -16839.62546
  25025782.78146        34.900          19.300  
  22779260.891 6      3386.89516      2639.13757  -2171946.109 6  -1663036.00047
  22779258.73047        43.700          33.700  
  22184453.047 6      2808.32216      2188.30258  -1601535.777 6  -1229526.49648
  22184447.89848        47.000          37.500  
  20763027.969 7       488.34317       380.52958   -430738.332 7   -319831.81648
  20763023.05948        50.000          40.800  
  24257991.609 5       608.62315       474.24556   -461612.152 5   -354691.99246
  24257986.97346        42.400          21.800  
 08  1 20 18 42 30.0000000  0 11G02G04G05G06G10G12G13G24G29G30G31    0.000347641
  20723355.383 7     -1206.768 7      -940.33949    704964.207 7    537680.80949
  20723347.85949        50.800          41.300  
  23581907.102 6     -3102.289 6     -2417.36747   1995871.035 6   1515013.10947
  23581902.59847        42.700          28.600  
  20697414.719 7      -971.243 7      -756.81348    518814.832 7    397692.34848
  20697409.38748        51.400          40.400  
  23288928.930 5      3245.253 5      2528.76547  -1957573.035 5  -1504535.42247
  23288924.21547        41.100          26.900  
  22383602.008 6      3341.350 6      2603.64748  -2213229.074 6  -1672582.73848
  22383596.91448        44.900          34.300  
  21297037.906 7     -1626.787 7     -1267.62848    952883.590 7    732436.58248
  21297033.04748        48.500          40.300  
  25023951.250 4      1930.227 4      1504.07646    -46696.250 4    -24360.00446
  25023946.21946        38.400          19.900  
  22776037.203 6      3388.523 6      2640.40848  -2188888.727 6  -1676238.03948
  22776034.42248        42.700          33.900  
  22181778.625 6      2810.273 6      2189.82048  -1615587.141 6  -1240475.59448
  22181774.22348        46.400          35.900  
  20762563.422 7       487.924 7       380.19648   -433177.953 7   -321732.79748
  20762558.67248        50.200          40.900  
  24257412.977 5       608.612 5       474.24946   -464655.215 5   -357063.23846
  24257407.94146        41.100          22.800  
 08  1 20 18 42 35.0000000  0 11G02G04G05G06G10G12G13G24G29G30G31    0.000346689
  20724502.867 7     -1206.116 7      -939.82748    710994.785 7    542379.94548
  20724495.53548        50.700          40.700  
  23584857.164 5     -3099.922 5     -2415.52147   2011370.645 5   1527090.71547
  23584852.51247        41.600          28.800  
  20698338.977 7      -971.413 7      -756.94748    523671.898 7    401477.08248
  20698333.77348        50.900          40.500  
  23285839.063 5      3247.624 5      2530.61347  -1973811.156 5  -1517188.48847
  23285833.97747        41.800          26.800  
  22380420.906 6      3342.257 6      2604.35248  -2229940.359 6  -1685604.50048
  22380416.68048        45.200          35.500  
  21298585.875 7     -1626.483 7     -1267.38449    961016.004 7    738773.50449
  21298580.60249        48.800          41.700  
  25022114.148 4      1930.618 4      1504.37646    -56349.340 4    -31881.88346
  25022109.36746        37.800          20.400  
  22772811.930 6      3390.117 6      2641.65047  -2205839.313 6  -1689446.28947
  22772808.77047        43.000          33.400  
  22179102.914 6      2812.177 6      2191.30948  -1629648.027 6  -1251432.13748
  22179098.55148        47.300          37.000  
  20762099.602 7       487.470 7       379.84848   -435615.301 7   -323632.03948
  20762094.88348        49.900          41.000  
  24256833.547 5       608.638 5       474.26247   -467698.402 5   -359434.54747
  24256828.34047        42.200          26.400  
 08  1 20 18 42 40.0000000  0 11G02G04G05G06G10G12G13G24G29G30G31    0.000345726
  20725649.969 7     -1205.639 7      -939.46148    717022.980 7    547077.25048
  20725642.76648        49.500          40.200  
  23587804.633 5     -3097.798 5     -2413.86247   2026859.633 5   1539160.02347
  23587799.99647        40.300          26.400  
  20699263.477 7      -971.788 7      -757.23748    528530.840 7    405263.26648
  20699258.37148        49.100          40.100  
  23282746.531 5      3249.826 5      2532.33047  -1990060.285 5  -1529850.13747
  23282741.81347        42.000          26.400  
  22377240.430 6      3342.987 6      2604.92548  -2246655.293 6  -1698629.12548
  22377236.07848        44.000          35.000  
  21300132.844 7     -1626.359 7     -1267.29748    969147.797 7    745109.98848
  21300127.83248        48.200          40.900  
  25020276.648 4      1930.796 4      1504.52346    -66003.320 4    -39404.49646
  25020272.32046        37.900          19.900  
  22769585.281 6      3391.523 6      2642.74447  -2222796.926 6  -1702660.00847
  22769582.04347        43.100          32.900  
  22176425.633 6      2813.889 6      2192.64148  -1643717.473 6  -1262395.34448
  22176421.12548        46.300          35.500  
  20761636.484 7       486.825 7       379.34548   -438049.426 7   -325528.76248
  20761631.70748        49.500          40.300  
  24256254.578 5       608.434 5       474.10346   -470740.574 5   -361805.06346
  24256249.44946        41.000          24.700  
 08  1 20 18 42 45.0000000  0 12G02G04G05G06G10G12G13G23G24G29G30G31    0.000344757
  20726797.133 7                                    723049.680 7    551773.38348
  20726789.82848        49.600          40.700  
  23590749.875 5                                   2042338.758 5   1551221.71147
  23590745.71547        41.400          28.300  
  20700188.953 7                                    533392.504 7    409051.57048
  20700183.65648        50.000          40.800  
  23279652.734 6      3251.833 6      2533.89947  -2006319.453 6  -1542519.63347
  23279648.03147        44.200          29.400  
  22374059.461 6                                  -2263372.883 6  -1711655.82448
  22374054.85248        44.500          35.200  
  21301680.406 7                                    977279.836 7    751446.62149
  21301675.26649        48.700          41.700  
  25018439.648 4      1930.814 4      1504.52346    -75657.391 4    -46927.11346
  25018434.97746        38.800          20.400  
  25251912.195 1                                       995.09411       479.72356
  25251905.72346        33.600          21.500  
  22766357.242 6                                  -2239760.699 6  -1715878.51647
  22766353.84847        43.200          33.500  
  22173747.008 6      2815.423 6      2193.83448  -1657794.586 6  -1273364.51648
  22173742.36748        47.400          38.600  
  20761174.383 7                                   -440479.422 7   -327422.27048
  20761169.08248        49.700          40.300  
  24255675.742 5       608.060 5       473.82247   -473780.875 5   -364174.17247
  24255671.37947        41.800          29.300  
 08  1 20 18 42 50.0000000  0 12G02G04G05G06G10G12G13G23G24G29G30G31    0.000343779
  20727943.711 7     -1205.234 7      -939.14349    729075.852 7    556469.09849
  20727936.69149        50.700          41.500  
  23593694.719 5     -3094.008 5     -2410.91347   2057808.797 5   1563276.27347
  23593689.73847        42.200          28.400  
  20701115.055 7      -973.063 7      -758.23048    538257.816 7    412842.71948
  20701109.60948        51.400          41.000  
  23276556.750 6      3253.653 6      2535.31447  -2022587.719 6  -1555196.20347
  23276552.37147        43.700          30.300  
  22370877.469 6      3343.870 6      2605.61048  -2280092.230 6  -1724683.87548
  22370873.00448        44.100          35.300  
  21303228.344 7     -1626.655 7     -1267.52349    985413.109 7    757784.23849
  21303223.18049        49.100          42.100  
  25016603.047 5      1930.607 5      1504.37546    -85310.426 5    -54448.98846
  25016598.16046        39.300          20.600  
  25251938.422 2       -26.76412       -20.85356      1128.914 2       583.98846
  25251931.25846        34.900          19.300  
  22763127.617 5      3393.784 5      2644.50748  -2256729.617 5  -1729101.05148
  22763124.67648        42.400          34.500  
  22171067.086 7      2816.771 7      2194.88748  -1671878.441 7  -1284338.94948
  22171061.86748        48.200          39.500  
  20760712.484 7       484.990 7       377.91348   -442904.371 7   -329311.83248
  20760707.82448        50.100          40.300  
  24255098.352 5       607.492 5       473.37447   -476818.336 5   -366541.04347
  24255093.18847        41.400          29.400  
 08  1 20 18 42 55.0000000  0 12G02G04G05G06G10G12G13G23G24G29G30G31    0.000342794
  20729090.352 7     -1205.235 7      -939.14449    735102.027 7    561164.81649
  20729083.32049        51.200          41.900  
  23596636.813 5     -3092.359 5     -2409.62747   2073270.594 5   1575324.41047
  23596631.55547        42.100          28.100  
  20702041.484 7      -973.905 7      -758.88649    543127.344 7    416637.14849
  20702036.31649        51.600          41.500  
  23273459.609 6      3255.361 6      2536.64047  -2038864.523 6  -1567879.40247
  23273454.98047        44.300          30.200  
  22367695.867 6      3344.104 6      2605.79448  -2296812.750 6  -1737712.84848
  22367691.64848        44.700          35.400  
  21304776.125 7     -1627.009 7     -1267.79849    993548.152 7    764123.23049
  21304771.03549        49.100          41.800  
  25014765.969 5      1930.327 5      1504.15346    -94962.059 5    -61969.75446
  25014762.02746        39.300          20.600  
  25251962.836 2       -27.485 2       -21.42345      1266.340 2       691.10245
  25251957.96945        34.300          18.600  
  22759897.961 6      3394.714 6      2645.22748  -2273703.188 6  -1742327.18448
  22759894.85948        43.400          33.800  
  22168385.563 7      2818.001 7      2195.84348  -1685968.449 7  -1295318.16448
  22168381.14848        47.900          38.900  
  20760252.250 7       483.870 7       377.04348   -445323.719 7   -331197.04748
  20760247.27748        49.300          40.500  
  24254520.805 5       606.823 5       472.84447   -479852.449 5   -368905.26247
  24254515.55947        41.100          28.300  
 08  1 20 18 43  0.0000000  0 12G02G04G05G06G10G12G13G23G24G29G30G31    0.000341801
  20730237.258 7     -1205.488 7      -939.34049    741129.465 7    565861.51649
  20730230.54349        51.000          41.700  
  23599576.820 5     -3090.914 5     -2408.50747   2088725.164 5   1587366.94547
  23599572.59047        41.400          27.900  
  20702968.844 7      -974.991 7      -759.73449    548002.301 7    420435.82049
  20702963.57449        51.300          41.700  
  23270361.227 6      3256.800 6      2537.76947  -2055148.523 6  -1580568.24647
  23270356.55547        44.200          30.200  
  22364514.352 6      3344.082 6      2605.78048  -2313533.160 6  -1750741.74648
  22364509.59848        43.900          35.600  
  21306324.844 7     -1627.616 7     -1268.27249   1001686.230 7    770464.59049
  21306319.60249        48.800          41.600  
  25012929.852 4      1929.765 4      1503.71246   -104610.886 4    -69488.31346
  25012925.62946        38.400          21.700  
  25251992.063 2       -28.447 2       -22.16245      1408.574 2       801.91045
  25251984.86345        34.200          16.300  
  22756666.852 6      3395.374 6      2645.74848  -2290680.059 6  -1755555.92248
  22756664.16048        43.600          34.300  
  22165703.711 6      2818.995 6      2196.62048  -1700063.422 6  -1306301.26248
  22165698.82048        47.500          38.900  
  20759793.195 7       482.494 7       375.96848   -447736.188 7   -333076.88748
  20759788.39548        50.200          41.000  
  24253943.359 6       605.890 6       472.12647   -482881.898 6   -371265.89147
  24253938.87947        42.700          30.900  
 08  1 20 18 43  5.0000000  0 12G02G04G05G06G10G12G13G23G24G29G30G31    0.000340801
  20731384.758 7     -1205.846 7      -939.62049    747158.695 7    570559.61349
  20731377.80149        50.900          41.500  
  23602516.242 6     -3089.613 6     -2407.49047   2104173.227 6   1599404.39547
  23602511.73847        42.700          29.200  
  20703897.539 7      -976.192 7      -760.67049    552883.262 7    424239.17249
  20703892.84049        51.600          41.700  
  23267260.469 6      3258.148 6      2538.81347  -2071439.262 6  -1593262.30947
  23267256.34447        44.700          30.300  
  22361332.438 6      3343.959 6      2605.68048  -2330252.957 6  -1763770.14548
  22361327.83648        44.200          34.800  
  21307874.227 7     -1628.320 7     -1268.82049   1009827.828 7    776808.69149
  21307869.20749        48.600          41.700  
  25011094.852 3      1929.104 3      1503.19546   -114256.406 3    -77004.28946
  25011090.32446        36.600          21.100  
  25252020.563 3       -29.514 3       -23.00645      1556.145 3       916.94145
  25252013.38745        36.100          14.800  
  22753436.375 6      3395.944 6      2646.19148  -2307659.777 6  -1768786.87548
  22753433.00848        43.600          34.000  
  22163020.336 7      2819.863 7      2197.29648  -1714162.734 7  -1317287.74248
  22163015.48048        47.600          38.900  
  20759335.688 7       481.020 7       374.82348   -450141.289 7   -334951.00048
  20759330.65248        49.500          40.900  
  24253369.164 6       604.859 6       471.31847   -485906.191 6   -373622.48047
  24253363.82847        44.400          31.000  
 08  1 20 18 43 10.0000000  0 12G02G04G05G06G10G12G13G23G24G29G30G31    0.000339796
  20732532.219 7     -1206.277 7      -939.95749    753190.082 7    575259.39849
  20732525.23449        50.200          41.500  
  23605454.992 5     -3088.362 5     -2406.51647   2119615.035 5   1611436.97747
  23605450.49647        41.800          28.000  
  20704827.875 7      -977.485 7      -761.67448    557770.688 7    428047.54348
  20704822.86748        50.900          41.200  
  23264159.430 6      3259.424 6      2539.81147  -2087736.383 6  -1605961.36347
  23264154.66847        44.100          28.800  
  22358150.945 6      3343.747 6      2605.51648  -2346971.691 6  -1776797.72348
  22358146.29748        44.600          34.900  
  21309424.508 7     -1629.115 7     -1269.43849   1017973.402 7    783155.88349
  21309419.10549        48.900          42.000  
  25009259.398 3      1928.367 3      1502.62846   -123898.242 3    -84517.43046
  25009255.64846        37.100          20.400  
  25252048.320 3       -30.699 3       -23.90945      1709.641 3      1036.48445
  25252042.58645        36.900          16.900  
  22750204.000 6      3396.411 6      2646.55248  -2324641.832 6  -1782019.63348
  22750201.16448        43.000          34.000  
  22160336.641 7      2820.652 7      2197.90948  -1728265.992 7  -1328277.28948
  22160331.96148        48.000          39.100  
  20758879.180 7       479.447 7       373.59548   -452538.523 7   -336818.97348
  20758874.40248        50.200          41.000  
  24252794.094 6       603.738 6       470.44347   -488924.883 6   -375974.69547
  24252788.97747        45.000          29.400  
 08  1 20 18 43 15.0000000  0 12G02G04G05G06G10G12G13G23G24G29G30G31    0.000338785
  20733680.469 7     -1206.870 7      -940.41949    759224.430 7    579961.49249
  20733673.30549        50.900          41.300  
  23608392.438 6     -3087.272 6     -2405.66547   2135051.395 6   1623465.30147
  23608388.27747        42.700          29.300  
  20705759.094 7      -978.913 7      -762.79048    562665.254 7    431861.49248
  20705754.35548        51.500          41.200  
  23261057.242 6      3260.528 6      2540.67047  -2104039.023 6  -1618664.71547
  23261052.62947        43.400          29.100  
  22354969.508 6      3343.364 6      2605.21748  -2363688.512 6  -1789823.80948
  22354965.24648        45.000          35.300  
  21310974.883 7     -1630.052 7     -1270.17049   1026123.664 7    789506.73449
  21310970.25049        49.100          42.000  
  25007425.570 3      1927.470 3      1501.91846   -133535.594 3    -92027.02046
  25007421.57446        36.600          20.400  
  25252080.117 4       -31.991 4       -24.93146      1869.598 4      1161.14146
  25252072.80546        38.300          19.000  
  22746972.781 6      3396.745 6      2646.81248  -2341625.559 6  -1795253.69148
  22746969.38748        43.100          34.000  
  22157652.211 7      2821.282 7      2198.40148  -1742372.402 7  -1339269.29348
  22157647.64848        47.600          38.900  
  20758424.555 7       477.729 7       372.25648   -454927.168 7   -338680.25448
  20758419.94548        49.300          41.000  
  24252220.703 6       602.466 6       469.45647   -491937.211 6   -378321.97747
  24252216.07847        44.100          30.000  
 08  1 20 18 43 20.0000000  0 12G02G04G05G06G10G12G13G23G24G29G30G31    0.000337769
  20734829.875 7     -1207.548 7      -940.94748    765262.172 7    584666.22748
  20734822.61348        50.000          41.100  
  23611329.625 6     -3086.266 6     -2404.88047   2150482.727 6   1635489.70347
  23611324.69947        42.600          29.400  
  20706691.961 7      -980.430 7      -763.97148    567567.406 7    435681.34848
  20706686.98848        50.900          41.100  
  23257953.875 6      3261.547 6      2541.46747  -2120346.758 6  -1631372.05147
  23257948.89147        42.700          29.700  
  22351789.313 6      3342.903 6      2604.86048  -2380403.027 6  -1802848.10948
  22351784.64148        45.400          35.300  
  21312527.406 7     -1631.087 7     -1270.97549   1034279.098 7    795861.60949
  21312521.88749        48.900          42.100  
  25005593.039 3      1926.473 3      1501.15046   -143167.957 3    -99532.77046
  25005588.50446        37.200          20.900  
  25252110.938 2       -33.396 2       -26.02445      2036.578 2      1291.26245
  25252104.55945        35.600          17.800  
  22743740.273 6      3396.979 6      2646.99548  -2358610.453 6  -1808488.66848
  22743737.31648        43.600          34.100  
  22154967.555 6      2821.826 6      2198.82548  -1756481.531 6  -1350263.41848
  22154962.50448        46.700          38.900  
  20757971.961 7       475.922 7       370.85048   -457306.777 7   -340534.50448
  20757966.93048        49.900          41.100  
  24251649.570 6       601.108 6       468.39747   -494942.750 6   -380663.96147
  24251643.71947        44.500          30.300  
 08  1 20 18 43 25.0000000  0 12G02G04G05G06G10G12G13G23G24G29G30G31    0.000336746
  20735979.305 7     -1208.446 7      -941.64648    771304.402 7    589374.45748
  20735972.29348        50.700          40.900  
  23614264.727 6     -3085.485 6     -2404.27547   2165910.152 6   1647511.07847
  23614260.64547        43.300          28.900  
  20707626.445 7      -982.168 7      -765.32549    572478.246 7    439507.97349
  20707620.99649        50.800          41.400  
  23254849.977 6      3262.342 6      2542.08347  -2136658.469 6  -1644082.46547
  23254845.02747        43.700          30.000  
  22348609.250 6      3342.217 6      2604.32348  -2397114.113 6  -1815869.72748
  22348604.78148        46.100          35.900  
  21314080.711 7     -1632.330 7     -1271.94649   1042440.746 7    802221.34049
  21314075.44549        49.100          42.000  
  25003761.375 3      1925.264 3      1500.20546   -152794.277 3   -107033.79746
  25003756.97346        36.600          20.900  
  25252144.281 4       -35.014 4       -27.28245      2211.648 4      1427.67245
  25252137.85945        37.900          18.600  
  22740508.297 6      3396.995 6      2647.00948  -2375595.426 6  -1821723.71148
  22740505.11748        44.900          34.700  
  22152282.227 6      2822.146 6      2199.07548  -1770592.262 6  -1361258.79348
  22152277.52748        46.600          38.800  
  20757521.016 7       473.899 7       369.27148   -459676.273 7   -342380.85948
  20757516.12548        49.900          41.200  
  24251078.523 6       599.536 6       467.17047   -497940.430 6   -382999.80947
  24251073.57447        44.200          29.600  
 08  1 20 18 43 30.0000000  0 12G02G04G05G06G10G12G13G23G24G29G30G31    0.000335722
  20737130.258 7     -1209.488 7      -942.45948    777351.844 7    594086.75048
  20737122.77748        51.000          41.200  
  23617199.523 5     -3084.844 5     -2403.77247   2181334.371 5   1659529.93847
  23617195.23447        42.100          28.000  
  20708563.172 7      -984.043 7      -766.78749    577398.461 7    443341.90649
  20708558.18849        51.400          41.500  
  23251745.578 6      3262.991 6      2542.58847  -2152973.426 6  -1656795.40647
  23251740.69947        43.500          29.600  
  22345429.977 6      3341.385 6      2603.67648  -2413821.039 6  -1828888.10548
  22345425.53548        46.200          35.600  
  21315634.625 7     -1633.723 7     -1273.03049   1050609.359 7    808586.48849
  21315629.12149        49.000          41.800  
  25001930.242 4      1923.905 4      1499.15346   -162413.801 4   -114529.56346
  25001925.81346        37.900          20.400  
  25252178.664 2       -36.766 2       -28.65246      2395.480 2      1570.93446
  25252173.01246        34.800          19.600  
  22737275.953 6      3396.867 6      2646.91048  -2392579.762 6  -1834958.26248
  22737273.21148        46.000          34.900  
  22149596.781 7      2822.332 7      2199.21748  -1784703.922 7  -1372254.87948
  22149592.09048        48.500          39.000  
  20757072.250 7       471.721 7       367.57548   -462034.879 7   -344218.73448
  20757067.21548        49.600          40.800  
  24250509.719 6       597.800 6       465.81847   -500929.430 6   -385328.89847
  24250504.28147        43.400          29.400  
 08  1 20 18 43 35.0000000  0 12G02G04G05G06G10G12G13G23G24G29G30G31    0.000334690
  20738282.063 7     -1210.557 7      -943.28949    783404.629 7    598803.19549
  20738274.81349        50.600          41.500  
  23620133.969 6     -3084.230 6     -2403.29547   2196755.523 6   1671546.41447
  23620129.95347        42.500          27.900  
  20709501.039 7      -985.967 7      -768.28449    582328.297 7    447183.32849
  20709495.91449        51.100          41.700  
  23248639.547 6      3263.620 6      2543.07947  -2169291.527 6  -1669510.80147
  23248635.21547        43.200          29.700  
  22342251.273 6      3340.504 6      2602.98748  -2430523.559 6  -1841903.03948
  22342247.08248        45.800          35.200  
  21317190.828 7     -1635.148 7     -1274.14049   1058785.102 7    814957.18849
  21317185.30549        49.500          41.500  
  25000100.930 3      1922.505 3      1498.05746   -172026.324 3   -122019.84846
  25000096.98846        36.900          21.100  
  25252216.398 3       -38.597 3       -30.07545      2588.465 3      1721.30945
  25252210.03145        36.100          18.300  
  22734044.516 6      3396.693 6      2646.76848  -2409563.227 6  -1848192.10248
  22734041.40248        45.800          34.500  
  22146911.398 6      2822.473 6      2199.33148  -1798816.289 6  -1383251.53148
  22146906.30548        47.100          38.600  
  20756625.219 7       469.513 7       365.85548   -464382.445 7   -346048.00848
  20756620.95748        50.000          41.000  
  24249942.398 6       596.055 6       464.46247   -503909.703 6   -387651.21147
  24249937.04347        43.600          29.700  
 08  1 20 18 43 40.0000000  0 12G02G04G05G06G10G12G13G23G24G29G30G31    0.000333658
  20739434.914 7     -1211.763 7      -944.23249    789463.445 7    603524.35549
  20739427.97349        51.100          41.700  
  23623069.375 6     -3083.773 6     -2402.93947   2212174.391 6   1683561.10947
  23623063.91847        42.500          28.200  
  20710441.336 7      -988.013 7      -769.88249    587268.359 7    451032.73849
  20710436.01649        52.000          41.400  
  23245534.063 6      3264.098 6      2543.45447  -2185612.020 6  -1682228.07047
  23245530.00047        42.500          29.700  
  22339074.078 6      3339.494 6      2602.21048  -2447221.027 6  -1854914.09048
  22339069.94548        47.000          35.900  
  21318747.750 7     -1636.708 7     -1275.35549   1066968.641 7    821333.96549
  21318742.49249        47.800          41.300  
  24998273.258 3      1920.982 3      1496.86746   -181631.234 3   -129504.18446
  24998268.98446        37.300          20.400  
  25252253.117 3       -40.526 3       -31.57945      2791.094 3      1879.20345
  25252248.56645        36.600          17.400  
  22730812.945 6      3396.393 6      2646.54348  -2426545.191 6  -1861424.81648
  22730809.62548        45.800          34.500  
  22144225.375 7      2822.477 7      2199.33448  -1812928.672 7  -1394248.20348
  22144220.91448        48.200          38.500  
  20756181.070 7       467.173 7       364.03048   -466718.309 7   -347868.15648
  20756176.08248        48.800          40.800  
  24249377.805 6       594.171 6       462.98447   -506880.559 6   -389966.12947
  24249372.24647        44.200          30.400  
 08  1 20 18 43 45.0000000  0 12G02G04G05G06G10G12G13G23G24G29G30G31    0.000332621
  20740589.156 7     -1213.044 7      -945.23049    795528.664 7    608250.50449
  20740582.03149        51.000          41.400  
  23626002.508 5     -3083.369 5     -2402.63147   2227591.234 5   1695574.26647
  23625997.62547        41.700          27.200  
  20711382.961 7      -990.155 7      -771.54849    592219.133 7    454890.47749
  20711377.78549        51.800          41.400  
  23242428.234 6      3264.476 6      2543.74547  -2201934.398 6  -1694946.79747
  23242423.74247        43.700          29.300  
  22335897.805 6      3338.398 6      2601.34348  -2463913.016 6  -1867920.80548
  22335893.50448        46.400          36.100  
  21320306.523 7     -1638.356 7     -1276.64149   1075160.422 7    827717.17249
  21320301.20349        48.700          41.800  
  24996447.289 5      1919.344 5      1495.59846   -191227.957 5   -136982.17646
  24996442.69146        39.400          20.900  
  25252295.547 2       -42.544 2       -33.15545      3003.813 2      2044.98045
  25252289.21945        34.400          15.600  
  22727581.633 6      3395.990 6      2646.22448  -2443525.141 6  -1874655.93848
  22727578.71548        46.100          35.400  
  22141540.414 7      2822.390 7      2199.26648  -1827040.621 7  -1405244.53148
  22141535.42648        48.200          38.600  
  20755738.875 7       464.735 7       362.13249   -469041.984 7   -349678.81649
  20755734.10549        49.900          41.300  
  24248813.828 6       592.181 6       461.43847   -509841.465 6   -392273.32047
  24248808.73047        44.300          29.400  
 08  1 20 18 43 50.0000000  0 12G02G04G05G06G10G12G13G23G24G29G30G31    0.000331579
  20741744.734 7     -1214.443 7      -946.31749    801600.879 7    612982.09049
  20741737.66849        50.500          41.500  
  23628936.094 5     -3083.094 5     -2402.40647   2243006.707 5   1707586.29347
  23628931.34047        42.100          28.600  
  20712327.508 7      -992.401 7      -773.29948    597181.137 7    458756.97348
  20712322.64548        51.300          41.200  
  23239322.219 6      3264.767 6      2543.97147  -2218258.234 6  -1707666.65247
  23239317.44947        42.800          29.600  
  22332722.305 6      3337.182 6      2600.39948  -2480598.926 6  -1880922.80148
  22332718.13348        46.300          36.200  
  21321866.938 7     -1640.105 7     -1278.00349   1083360.945 7    834107.18849
  21321861.80949        48.700          42.200  
  24994622.367 4      1917.619 4      1494.24446   -200816.051 4   -144453.39546
  24994618.21946        37.500          21.300  
  25252337.211 4       -44.658 4       -34.78945      3227.102 4      2218.92645
  25252331.53945        37.900          18.300  
  22724351.125 6      3395.490 6      2645.83348  -2460502.590 6  -1887885.10548
  22724347.82448        45.400          35.500  
  22138855.375 7      2822.202 7      2199.11548  -1841151.629 7  -1416240.10548
  22138850.69548        47.900          39.000  
  20755299.219 7       462.195 7       360.15249   -471352.961 7   -351479.57849
  20755294.53549        50.200          41.300  
  24248252.867 6       590.096 6       459.81747   -512791.945 6   -394572.40647
  24248247.56647        43.800          29.400  
 08  1 20 18 43 55.0000000  0 12G02G04G05G06G10G12G13G23G24G29G30G31    0.000330538
  20742901.695 7     -1216.012 7      -947.54349    807680.938 7    617719.80549
  20742894.11749        50.300          41.600  
  23631869.039 5     -3082.979 5     -2402.32347   2258421.602 5   1719597.90647
  23631864.82447        41.300          28.900  
  20713273.930 7      -994.804 7      -775.17249    602155.156 7    462632.83249
  20713268.91449        51.400          41.300  
  23236215.469 6      3264.869 6      2544.05547  -2234582.578 6  -1720386.93047
  23236210.85947        43.600          29.700  
  22329548.492 6      3335.808 6      2599.33148  -2497277.965 6  -1893919.45748
  22329544.09448        47.000          35.800  
  21323429.281 7     -1642.019 7     -1279.49449   1091571.039 7    840504.65649
  21323424.43049        48.100          42.400  
  24992799.523 3      1915.700 3      1492.75446   -210394.551 3   -151917.16446
  24992795.66846        36.200          21.100  
  25252381.484 4       -46.968 4       -36.60246      3461.941 4      2401.93446
  25252376.46546        37.700          19.000  
  22721120.813 6      3394.817 6      2645.31348  -2477476.676 6  -1901111.66848
  22721118.01248        45.700          34.900  
  22136170.391 7      2821.833 7      2198.83348  -1855260.797 7  -1427234.27348
  22136165.81348        48.300          39.000  
  20754861.711 7       459.491 7       358.04548   -473650.418 7   -353269.80548
  20754856.83248        49.100          41.200  
  24247693.656 6       587.824 6       458.04847   -515731.066 6   -396862.64547
  24247688.30147        44.400          30.900  
 08  1 20 18 44  0.0000000  0 12G02G04G05G06G10G12G13G23G24G29G30G31    0.000329491
  20744060.094 7     -1217.549 7      -948.74049    813768.684 7    622463.50449
  20744052.86349        50.200          41.700  
  23634802.461 5     -3082.831 5     -2402.20447   2273835.754 5   1731608.92647
  23634798.18447        41.700          27.500  
  20714222.727 7      -997.190 7      -777.03149    607141.105 7    466517.98849
  20714217.91449        51.600          41.500  
  23233108.680 6      3265.020 6      2544.17147  -2250907.680 6  -1733107.78547
  23233104.03947        42.500          29.000  
  22326375.828 6      3334.446 6      2598.26848  -2513950.195 6  -1906910.79748
  22326371.61748        46.800          35.600  
  21324993.664 7     -1643.911 7     -1280.96949   1099790.594 7    846909.50049
  21324988.35949        48.800          41.900  
  24990979.336 3      1913.834 3      1491.30346   -219963.723 3   -159373.68046
  24990974.57846        36.600          19.300  
  25252428.977 4       -49.239 4       -38.37046      3708.137 4      2593.78546
  25252422.82846        37.700          20.400  
  22717891.234 6      3394.163 6      2644.80248  -2494447.492 6  -1914335.67648
  22717888.57048        45.500          35.300  
  22133485.445 7      2821.502 7      2198.57148  -1869368.309 7  -1438227.12948
  22133480.88748        47.900          38.900  
  20754427.141 7       456.809 7       355.95548   -475934.461 7   -355049.57848
  20754422.23848        49.600          40.900  
  24247136.930 6       585.595 6       456.30947   -518659.043 6   -399144.19147
  24247130.93847        43.900          30.200  
 08  1 20 18 44  5.0000000  0 12G02G04G05G06G10G12G13G23G24G29G30G31    0.000328444
  20745219.953 7     -1219.223 7      -950.04349    819864.801 7    627213.71949
  20745212.82049        50.100          41.700  
  23637735.570 5     -3082.810 5     -2402.19047   2289249.805 5   1743619.87547
  23637731.35947        41.300          28.300  
  20715173.945 7      -999.699 7      -778.98549    612139.602 7    470412.91449
  20715168.73049        51.000          41.400  
  23230002.391 5      3265.023 5      2544.17247  -2267232.793 5  -1745828.64547
  23229997.43447        42.400          29.300  
  22323204.820 6      3332.958 6      2597.10948  -2530614.984 6  -1919896.34448
  22323200.25048        47.100          35.200  
  21326560.328 7     -1645.917 7     -1282.53249   1108020.180 7    853322.16049
  21326554.30149        47.600          41.500  
  24989159.563 3      1911.813 3      1489.72746   -229522.789 3   -166822.31646
  24989155.50046        36.400          19.900  
  25252477.492 5       -51.633 5       -40.23046      3966.301 5      2794.93846
  25252472.30546        39.700          20.400  
  22714663.195 6      3393.388 6      2644.19748  -2511414.434 6  -1927556.66048
  22714659.80948        45.000          35.300  
  22130801.641 7      2821.035 7      2198.20948  -1883473.484 7  -1449218.17648
  22130796.75848        47.600          39.100  
  20753995.438 7       453.995 7       353.76348   -478204.434 7   -356818.39148
  20753990.62948        50.000          40.800  
  24246581.305 6       583.254 6       454.48247   -521575.313 6   -401416.60247
  24246575.84447        43.900          30.200  
 08  1 20 18 44 10.0000000  0 12G02G04G05G06G10G12G13G23G24G29G30G31    0.000327394
  20746382.250 7     -1221.056 7      -951.47249    825970.082 7    631971.07849
  20746375.13749        50.200          41.900  
  23640668.805 5     -3082.959 5     -2402.30547   2304664.602 5   1755631.39847
  23640664.77047        42.400          27.400  
  20716127.680 7     -1002.376 7      -781.07149    617151.480 7    474318.27049
  20716122.92249        51.400          41.500  
  23226895.422 5      3264.866 5      2544.05247  -2283557.121 5  -1758548.90647
  23226890.66847        41.900          29.600  
  22320035.141 6      3331.294 6      2595.81448  -2547271.457 6  -1932875.41448
  22320030.44548        47.400          34.900  
  21328127.758 7     -1648.100 7     -1284.23449   1116260.680 7    859743.32849
  21328122.35949        49.600          41.400  
  24987342.641 4      1909.646 4      1488.03946   -239071.020 4   -174262.51246
  24987338.68846        37.600          20.900  
  25252529.203 4       -54.197 4       -42.23246      4237.285 4      3006.09846
  25252523.91046        38.700          20.600  
  22711434.680 6      3392.440 6      2643.45848  -2528376.633 6  -1940773.94948
  22711431.75048        44.200          35.600  
  22128117.813 7      2820.403 7      2197.71648  -1897575.500 7  -1460206.75848
  22128113.18848        48.000          38.700  
  20753566.102 7       451.013 7       351.44048   -480459.500 7   -358575.59048
  20753561.09048        49.500          40.900  
  24246028.992 6       580.735 6       452.51647   -524478.988 6   -403679.18447
  24246023.30947        44.900          30.600  
 08  1 20 18 44 15.0000000  0 12G02G04G05G06G10G12G13G23G24G29G30G31    0.000326342
  20747545.773 7     -1222.973 7      -952.96649    832084.949 7    636735.91049
  20747538.93849        50.900          42.200  
  23643602.750 5     -3083.195 5     -2402.49047   2320080.574 5   1767643.84847
  23643598.10547        42.000          27.500  
  20717083.836 7     -1005.137 7      -783.22449    622177.164 7    478234.39149
  20717079.26649        51.300          41.500  
  23223790.039 5      3264.607 5      2543.85147  -2299880.156 5  -1771268.16047
  23223785.12947        42.200          30.200  
  22316867.320 6      3329.541 6      2594.44748  -2563919.160 6  -1945847.64848
  22316862.91048        46.700          35.500  
  21329698.273 7     -1650.380 7     -1286.00949   1124512.578 7    866173.37549
  21329692.87149        48.800          41.800  
  24985528.461 4      1907.376 4      1486.26246   -248607.898 4   -181693.82046
  24985523.71546        38.100          20.400  
  25252583.406 5       -56.841 5       -44.29246      4521.488 5      3227.55946
  25252578.14546        40.100          19.900  
  22708208.211 6      3391.409 6      2642.65548  -2545333.676 6  -1953987.22348
  22708205.02348        45.600          35.100  
  22125435.258 7      2819.677 7      2197.14848  -1911673.883 7  -1471192.50048
  22125430.61348        48.100          38.300  
  20753140.094 7       447.949 7       349.05148   -482699.246 7   -360320.84448
  20753135.12548        49.600          41.000  
  24245478.266 6       578.113 6       450.48047   -527369.555 6   -405931.58647
  24245472.98047        43.500          30.700  
 08  1 20 18 44 20.0000000  0 12G02G04G05G06G10G12G13G23G24G29G30G31    0.000325291
  20748711.141 7     -1224.909 7      -954.47549    838209.496 7    641508.28549
  20748704.05549        50.300          42.200  
  23646536.469 5     -3083.448 5     -2402.68747   2335497.816 5   1779657.28147
  23646531.43447        42.300          28.400  
  20718042.883 7     -1007.926 7      -785.39548    627216.793 7    482161.36748
  20718038.28148        51.500          41.100  
  23220684.086 5      3264.340 5      2543.64147  -2316201.855 5  -1783986.36347
  23220679.31347        42.400          29.600  
  22313701.188 6      3327.753 6      2593.05448  -2580557.926 6  -1958812.91848
  22313696.63348        46.000          35.500  
  21331270.844 7     -1652.679 7     -1287.80149   1132775.973 7    872612.37949
  21331265.32449        48.800          41.900  
  24983715.055 3      1905.073 3      1484.47446   -258133.266 3   -189116.19146
  24983710.74246        37.000          20.600  
  25252640.500 4       -59.523 4       -46.37646      4819.102 4      3459.43846
  25252634.49246        38.800          20.900  
  22704982.195 6      3390.343 6      2641.82548  -2562285.391 6  -1967196.34848
  22704979.14548        45.600          35.100  
  22122752.789 6      2818.936 6      2196.57548  -1925768.563 6  -1482175.37548
  22122748.37948        47.400          38.800  
  20752716.531 7       444.849 7       346.63548   -484923.492 7   -362054.02048
  20752711.61348        49.700          40.900  
  24244930.719 5       575.471 5       448.41847   -530246.910 5   -408173.67647
  24244925.83647        42.000          30.000  
 08  1 20 18 44 25.0000000  0 12G02G04G05G06G10G12G13G23G24G29G30G31    0.000324236
  20749878.594 7     -1226.948 7      -956.06449    844344.234 7    646288.60549
  20749871.37149        50.800          42.100  
  23649470.539 6     -3083.804 6     -2402.96547   2350916.836 6   1791672.10547
  23649465.98447        42.900          28.000  
  20719004.703 7     -1010.813 7      -787.64548    632270.855 7    486099.59448
  20718999.42648        51.800          41.200  
  23217578.359 5      3263.960 5      2543.34447  -2332521.656 5  -1796703.08247
  23217574.04347        42.300          29.800  
  22310536.969 6      3325.874 6      2591.58748  -2597187.293 6  -1971770.85548
  22310531.77748        46.300          35.100  
  21332845.352 7     -1655.070 7     -1289.66349   1141051.320 7    879060.69549
  21332839.98449        48.400          41.700  
  24981904.313 3      1902.673 3      1482.60246   -267646.629 3   -196529.20346
  24981900.47346        36.700          20.600  
  25252700.164 4       -62.304 4       -48.55046      5130.621 4      3702.18846
  25252693.50446        37.400          21.700  
  22701757.328 6      3389.171 6      2640.91248  -2579231.246 6  -1980400.90648
  22701754.74648        45.600          35.300  
  22120071.672 6      2818.084 6      2195.90848  -1939858.984 6  -1493154.91448
  22120067.23848        47.500          38.300  
  20752296.117 7       441.653 7       344.14548   -487131.758 7   -363774.74648
  20752291.56648        49.100          40.300  
  24244385.992 6       572.725 6       446.27947   -533110.535 6   -410405.07047
  24244381.05547        43.600          29.800  
 08  1 20 18 44 30.0000000  0 12G02G04G05G06G10G12G13G23G24G29G30G31    0.000323181
  20751047.844 7     -1229.110 7      -957.74749    850489.785 7    651077.34049
  20751041.09049        50.800          42.100  
  23652404.781 5     -3084.278 5     -2403.33147   2366338.227 5   1803688.75847
  23652400.63347        42.100          28.500  
  20719969.242 7     -1013.820 7      -789.99049    637339.953 7    490049.54349
  20719964.73049        51.100          41.500  
  23214473.852 6      3263.464 6      2542.95747  -2348838.977 6  -1809417.86747
  23214468.75047        42.500          28.700  
  22307373.922 6      3323.876 6      2590.03448  -2613806.676 6  -1984721.02348
  22307369.43848        47.000          35.900  
  21334422.547 7     -1657.584 7     -1291.62449   1149339.242 7    885518.81649
  21334417.07049        48.400          42.100  
  24980097.219 3      1900.146 3      1480.63746   -277147.359 3   -203932.39146
  24980092.98846        36.200          19.900  
  25252763.656 3       -65.202 3       -50.80546      5456.629 3      3956.21546
  25252755.88746        37.100          21.300  
  22698534.633 6      3387.895 6      2639.91648  -2596170.723 6  -1993600.48448
  22698531.22748        44.600          35.000  
  22117391.648 7      2817.112 7      2195.15148  -1953944.543 7  -1504130.66848
  22117386.65248        47.900          38.600  
  20751879.133 7       438.337 7       341.56248   -489323.445 7   -365482.55548
  20751874.15648        48.400          40.500  
  24243843.992 6       569.866 6       444.05247   -535959.863 6   -412625.32847
  24243838.74647        44.100          30.500  
 08  1 20 18 44 35.0000000  0 12G02G04G05G06G10G12G13G23G24G29G30G31    0.000322126
  20752219.633 7     -1231.282 7      -959.44249    856646.195 7    655874.55149
  20752212.80949        50.700          42.300  
  23655340.148 6     -3084.773 6     -2403.71847   2381762.094 6   1815707.34847
  23655336.00447        42.600          28.100  
  20720936.742 7     -1016.838 7      -792.34149    642424.141 7    494011.24649
  20720931.69949        51.300          41.700  
  23211368.758 6      3262.943 6      2542.55747  -2365153.691 6  -1822130.65247
  23211364.55947        43.000          29.800  
  22304213.469 6      3321.859 6      2588.46048  -2630415.969 6  -1997663.32448
  22304208.48048        46.800          36.000  
  21336001.883 7     -1660.112 7     -1293.59349   1157639.801 7    891986.78149
  21335996.27749        49.300          41.500  
  24978292.039 3      1897.616 3      1478.65646   -286635.438 3   -211325.67246
  24978287.38346        36.200          19.900  
  25252827.906 5       -68.116 5       -53.07146      5797.211 5      4221.57046
  25252820.22346        39.900          20.400  
  22695312.164 6      3386.579 6      2638.89448  -2613103.617 6  -2006794.95348
  22695308.75448        46.000          35.300  
  22114711.836 7      2816.117 7      2194.37948  -1968025.129 7  -1515102.56348
  22114707.13748        47.600          38.700  
  20751465.289 7       435.009 7       338.96748   -491498.488 7   -367177.39148
  20751460.28148        49.200          40.500  
  24243304.625 6       566.983 6       441.80747   -538794.777 6   -414834.36347
  24243299.33647        44.600          31.000  
 08  1 20 18 44 40.0000000  0 12G02G04G05G06G10G12G13G23G24G29G30G31    0.000321072
  20753392.883 7     -1233.452 7      -961.13149    862813.457 7    660680.20749
  20753386.24649        51.100          42.000  
  23658276.039 6     -3085.251 6     -2404.08847   2397188.348 6   1827727.78947
  23658271.12947        42.600          27.500  
  20721907.320 7     -1019.851 7      -794.68849    647523.395 7    497984.68849
  20721902.19949        50.700          41.500  
  23208264.336 5      3262.448 5      2542.16447  -2381465.930 5  -1834841.47347
  23208259.80547        42.200          29.300  
  22301054.563 6      3319.841 6      2586.88848  -2647015.176 6  -2010597.76648
  22301049.75848        46.600          36.100  
  21337584.102 7     -1662.625 7     -1295.55149   1165952.926 7    898464.53549
  21337578.71149        48.900          41.400  
  24976487.992 2      1895.081 2      1476.69346   -296110.844 2   -218709.13746
  24976483.87946        35.500          19.300  
  25252894.477 5       -71.016 5       -55.35146      6152.289 5      4498.32446
  25252887.41046        39.400          20.600  
  22692091.031 6      3385.289 6      2637.88748  -2630030.063 6  -2019984.38748
  22692087.75448        46.600          35.400  
  22112033.664 7      2815.145 7      2193.61948  -1982100.855 7  -1526070.65648
  22112028.95348        48.000          39.300  
  20751054.336 7       431.691 7       336.38548   -493656.945 7   -368859.31648
  20751049.71948        49.900          40.700  
  24242768.102 5       564.123 5       439.57747   -541615.395 5   -417032.24647
  24242762.75047        42.400          30.400  
 08  1 20 18 44 45.0000000  0 12G02G04G05G06G10G12G13G23G24G29G30G31    0.000320015
  20754568.938 7     -1235.786 7      -962.95049    868992.387 7    665494.95749
  20754561.91449        51.000          42.100  
  23661211.672 5     -3085.898 5     -2404.59647   2412617.836 5   1839750.77047
  23661207.64847        42.100          26.700  
  20722880.680 7     -1023.034 7      -797.16949    652638.563 7    501970.53149
  20722875.89549        51.300          41.900  
  23205161.211 5      3261.762 5      2541.63047  -2397774.738 5  -1847549.62547
  23205156.55547        40.900          29.300  
  22297898.563 6      3317.657 6      2585.18648  -2663603.461 6  -2023523.69548
  22297893.38348        46.500          35.300  
  21339168.398 7     -1665.309 7     -1297.64349   1174279.473 7    904952.75049
  21339163.15249        48.800          41.700  
  24974688.000 3      1892.378 3      1474.57846   -305572.734 3   -226082.02746
  24974683.43446        36.400          19.300  
  25252965.164 4       -74.099 4       -57.74046      6522.785 4      4787.02346
  25252957.62546        38.200          21.500  
  22688871.047 6      3383.816 6      2636.73748  -2646949.145 6  -2033168.07048
  22688867.80948        45.600          35.100  
  22109355.938 7      2813.984 7      2192.71648  -1996170.777 7  -1537034.23448
  22109351.43448        47.800          39.100  
  20750646.953 7       428.194 7       333.65648   -495797.914 7   -370527.59848
  20750642.19948        49.000          40.400  
  24242234.148 5       561.077 5       437.20347   -544420.781 5   -419218.26247
  24242228.36347        41.600          29.600  
 08  1 20 18 44 50.0000000  0 12G02G04G05G06G10G12G13G23G24G29G30G31    0.000318958
  20755746.938 7     -1238.097 7      -964.75049    875182.871 7    670318.70749
  20755739.71949        51.100          41.900  
  23664148.148 5     -3086.522 5     -2405.08247   2428050.445 5   1851776.18047
  23664144.10247        41.600          27.400  
  20723856.703 7     -1026.190 7      -799.62949    657769.512 7    505968.67649
  20723852.36349        51.200          41.800  
  23202058.633 5      3261.105 5      2541.12247  -2414080.262 5  -1860255.23447
  23202053.42247        41.100          28.300  
  22294743.648 6      3315.478 6      2583.48848  -2680180.852 6  -2036441.13748
  22294738.81648        45.700          35.200  
  21340755.641 7     -1667.972 7     -1299.71749   1182619.332 7    911451.33649
  21340750.09849        48.800          42.100  
  24972890.359 3      1889.686 3      1472.48246   -315021.164 3   -233444.43846
  24972885.41846        36.600          19.000  
  25253037.633 3       -77.152 3       -60.11846      6908.543 3      5087.61346
  25253031.35546        37.200          21.700  
  22685653.414 6      3382.380 6      2635.62048  -2663861.043 6  -2046346.16848
  22685650.26248        46.900          34.900  
  22106679.672 7      2812.856 7      2191.83548  -2010235.059 7  -1547993.41048
  22106675.25848        47.900          38.900  
  20750243.109 7       424.724 7       330.95348   -497921.535 7   -372182.36348
  20750237.85248        49.800          40.500  
  24241703.484 6       558.066 6       434.85947   -547211.113 6   -421392.55547
  24241697.58247        44.100          30.300  
 08  1 20 18 44 55.0000000  0 12G02G04G05G06G10G12G13G23G24G29G30G31    0.000317904
  20756927.117 7     -1240.477 7      -966.60449    881385.254 7    675151.72749
  20756920.11749        50.600          41.600  
  23667086.227 6     -3087.217 6     -2405.62047   2443486.531 6   1863804.28147
  23667081.45347        42.600          27.100  
  20724836.352 7     -1029.420 7      -802.14549    662916.609 7    509979.39849
  20724831.39849        51.700          41.800  
  23198956.117 5      3260.361 5      2540.54347  -2430382.066 5  -1872957.94947
  23198950.92647        42.000          29.200  
  22291590.938 6      3313.225 6      2581.73348  -2696746.977 6  -2049349.80148
  22291585.97348        46.300          35.200  
  21342345.188 7     -1670.706 7     -1301.84949   1190972.863 7    917960.58249
  21342339.89149        48.000          42.200  
  24971094.453 4      1886.923 4      1470.33346   -324455.777 4   -240796.10246
  24971090.45346        37.400          19.300  
  25253115.336 4       -80.276 4       -62.55046      7309.922 4      5400.36346
  25253108.29346        38.100          21.500  
  22682436.586 6      3380.851 6      2634.42948  -2680765.297 6  -2059518.31348
  22682432.89148        45.500          35.000  
  22104004.688 7      2811.643 7      2190.89148  -2024293.273 7  -1558947.86748
  22103999.97348        47.700          39.100  
  20749842.461 7       421.176 7       328.19048   -500027.414 7   -373823.31348
  20749837.39848        49.500          40.400  
  24241174.516 6       554.978 6       432.44847   -549986.004 6   -423554.79747
  24241169.24647        44.700          29.700  
 08  1 20 18 45  0.0000000  0 12G02G04G05G06G10G12G13G23G24G29G30G31    0.000316847
  20758109.461 7     -1242.955 7      -968.53749    887600.027 7    679994.41049
  20758103.05949        51.000          41.300  
  23670023.867 5     -3088.009 5     -2406.24447   2458926.578 5   1875835.50047
  23670020.09847        41.800          27.400  
  20725819.156 7     -1032.740 7      -804.73149    668080.309 7    514003.05549
  20725814.04749        51.700          41.700  
  23195855.148 5      3259.548 5      2539.90547  -2446679.805 5  -1885657.47347
  23195849.64147        41.700          29.400  
  22288440.844 6      3310.882 6      2579.90848  -2713301.387 6  -2062249.34048
  22288436.11748        45.300          35.100  
  21343937.438 6     -1673.533 6     -1304.05149   1199340.527 6    924480.83649
  21343932.27049        47.000          41.900  
  24969301.352 2      1884.064 2      1468.09846   -333876.098 2   -248136.59446
  24969298.08646        35.000          19.600  
  25253194.508 5       -83.492 5       -65.05946      7727.383 5      5725.65646
  25253187.81346        39.700          22.200  
  22679220.867 6      3379.226 6      2633.16248  -2697661.426 6  -2072684.12148
  22679217.87148        44.900          35.900  
  22101330.617 7      2810.337 7      2189.87148  -2038344.957 7  -1569897.22348
  22101325.72348        47.600          38.900  
  20749445.141 7       417.541 7       325.35648   -502115.121 7   -375450.09448
  20749440.23448        48.100          40.500  
  24240649.508 6       551.789 6       429.96747   -552744.949 6   -425704.63347
  24240644.37547        44.500          30.100  
 08  1 20 18 45  5.0000000  0 12G02G04G05G06G10G12G13G23G24G29G30G31    0.000315792
  20759295.047 7     -1245.501 7      -970.52048    893827.531 7    684847.01248
  20759288.12548        51.200          41.200  
  23672962.656 5     -3088.879 5     -2406.91747   2474370.973 5   1887870.08247
  23672958.82847        41.900          27.900  
  20726804.906 7     -1036.150 7      -807.38949    673261.059 7    518040.00049
  20726799.93449        51.500          41.500  
  23192754.320 5      3258.619 5      2539.18547  -2462972.898 5  -1898353.39847
  23192749.25047        41.600          29.300  
  22285293.117 6      3308.448 6      2578.01048  -2729843.625 6  -2075139.39148
  22285288.39148        45.500          35.300  
  21345532.461 7     -1676.436 7     -1306.31349   1207722.707 7    931012.40249
  21345527.27349        48.300          41.700  
  24967512.000 3      1881.105 3      1465.80246   -343281.625 3   -255465.60546
  24967507.97346        36.300          19.000  
  25253276.664 4       -86.795 4       -67.63446      8161.355 4      6063.82446
  25253270.69946        38.600          22.500  
  22676007.750 6      3377.534 6      2631.84148  -2714549.094 6  -2085843.32848
  22676004.25048        44.700          35.000  
  22098657.945 6      2808.950 6      2188.79348  -2052389.707 6  -1580841.18848
  22098653.37548        47.100          39.000  
  20749051.203 7       413.816 7       322.45548   -504184.203 7   -377062.37148
  20749046.57448        49.100          40.300  
  24240127.617 6       548.529 6       427.42347   -555487.594 6   -427841.75047
  24240122.50847        43.900          28.900  
 08  1 20 18 45 10.0000000  0 12G02G04G05G06G10G12G13G23G24G29G30G31    0.000314737
  20760482.078 7     -1247.951 7      -972.42949    900067.285 7    689709.15649
  20760475.13349        50.700          41.900  
  23675902.352 5     -3089.628 5     -2407.50147   2489819.113 5   1899907.58647
  23675899.08247        41.700          27.500  
  20727793.891 7     -1039.450 7      -809.96049    678458.309 7    522089.80149
  20727788.99649        51.600          41.700  
  23189654.844 5      3257.816 5      2538.55547  -2479261.977 5  -1911046.17647
  23189649.57447        42.000          29.600  
  22282147.086 6      3306.109 6      2576.18848  -2746374.168 6  -2088020.33248
  22282142.98048        45.000          35.700  
  21347130.102 7     -1679.248 7     -1308.50449   1216118.945 7    937554.92249
  21347125.14149        49.000          41.800  
  24965725.891 3      1878.281 3      1463.59346   -352673.031 3   -262783.57046
  24965720.92646        36.200          19.300  
  25253362.414 5       -89.998 5       -70.13046      8611.348 5      6414.47746
  25253355.86746        39.800          21.800  
  22672795.453 6      3375.929 6      2630.59548  -2731428.738 6  -2098996.30548
  22672791.99648        45.900          34.400  
  22095986.617 6      2807.670 6      2187.79448  -2066428.059 6  -1591780.15648
  22095981.78948        47.000          38.700  
  20748660.953 7       410.195 7       319.63148   -506235.176 7   -378660.52748
  20748656.34848        49.200          40.000  
  24239609.289 6       545.355 6       424.95247   -558214.367 6   -429966.51247
  24239603.60547        44.200          28.700  
 08  1 20 18 45 15.0000000  0 12G02G04G05G06G10G12G13G23G24G29G30G31    0.000313683
  20761672.031 7     -1250.465 7      -974.38849    906319.609 7    694581.09849
  20761665.18449        51.000          41.500  
  23678842.828 5     -3090.462 5     -2408.15047   2505271.426 5   1911948.33647
  23678839.09047        41.700          27.300  
  20728786.172 7     -1042.814 7      -812.58349    683672.379 7    526152.71549
  20728781.04749        50.900          41.600  
  23186555.469 5      3256.927 5      2537.86547  -2495546.613 5  -1923735.50047
  23186551.03947        42.000          29.100  
  22279004.078 6      3303.727 6      2574.33148  -2762892.801 6  -2100891.98848
  22278999.20748        45.200          35.400  
  21348730.844 7     -1682.116 7     -1310.73849   1224529.527 7    944108.61349
  21348725.60949        49.000          41.800  
  24963940.492 3      1875.367 3      1461.32746   -362049.867 3   -270090.20346
  24963936.25046        36.700          19.600  
  25253450.500 4       -93.259 4       -72.66546      9077.641 4      6777.80146
  25253444.91046        39.100          21.700  
  22669585.258 6      3374.262 6      2629.29348  -2748300.047 6  -2112142.77048
  22669581.50848        45.800          34.600  
  22093316.266 7      2806.308 7      2186.73348  -2080459.598 7  -1602713.82048
  22093311.90248        48.300          39.000  
  20748274.430 7       406.507 7       316.76048   -508267.711 7   -380244.32848
  20748269.57448        49.700          40.600  
  24239093.203 6       542.130 6       422.44147   -560925.016 6   -432078.71947
  24239087.79347        44.900          29.500  
 08  1 20 18 45 20.0000000  0 12G02G04G05G06G10G12G13G23G24G29G30G31    0.000312630
  20762864.297 7     -1252.958 7      -976.33049    912584.398 7    699462.74649
  20762856.85249        51.200          41.500  
  23681784.703 5     -3091.272 5     -2408.78146   2520727.785 5   1923992.24246
  23681780.71146        41.000          26.200  
  20729781.547 7     -1046.159 7      -815.18849    688903.176 7    530228.65649
  20729776.47349        51.200          41.700  
  23183457.500 5      3256.074 5      2537.20147  -2511826.984 5  -1936421.50447
  23183452.85947        42.400          29.700  
  22275863.234 6      3301.338 6      2572.47148  -2779399.492 6  -2113754.34448
  22275858.11748        45.900          35.500  
  21350333.898 7     -1684.963 7     -1312.95749   1232954.344 7    950673.39849
  21350328.47349        49.200          41.500  
  24962159.273 3      1872.472 3      1459.06446   -371412.227 3   -277385.52346
  24962154.45346        35.900          19.300  
  25253543.063 3       -96.505 3       -75.20546      9560.168 3      7153.82846
  25253536.73846        36.900          21.500  
  22666376.141 6      3372.616 6      2628.01248  -2765163.125 6  -2125282.83248
  22666372.65648        45.100          34.800  
  22090647.367 7      2804.975 7      2185.69548  -2094484.473 7  -1613642.29748
  22090643.12948        48.400          38.800  
  20747890.867 7       402.833 7       313.89548   -510281.875 7   -381813.80148
  20747886.30148        50.300          40.400  
  24238579.977 6       538.916 6       419.93447   -563619.598 6   -434178.39147
  24238575.54747        43.500          29.800  
 08  1 20 18 45 25.0000000  0 12G02G04G05G06G10G12G13G23G24G29G30G31    0.000311577
  20764058.945 7     -1255.669 7      -978.44349    918862.742 7    704354.96149
  20764051.87149        50.900          41.600  
  23684726.180 5     -3092.292 5     -2409.57846   2536189.246 5   1936040.13346
  23684722.66446        41.700          25.600  
  20730780.266 7     -1049.718 7      -817.96149    694151.766 7    534318.46149
  20730775.55549        51.300          41.700  
  23180360.125 6      3255.000 6      2536.36347  -2528101.984 6  -1949103.32047
  23180356.28947        43.000          29.900  
  22272724.273 6      3298.745 6      2570.44848  -2795893.215 6  -2126606.58248
  22272719.25448        45.700          34.900  
  21351940.063 7     -1688.029 7     -1315.34849   1241394.488 7    957250.14149
  21351934.40649        48.000          41.700  
  24960380.594 3      1869.370 3      1456.65446   -380759.078 3   -284668.79346
  24960375.73446        36.600          19.600  
  25253637.813 3       -99.952 3       -77.89146     10059.930 3      7543.28146
  25253631.55946        36.500          20.900  
  22663169.031 6      3370.752 6      2626.55848  -2782016.887 6  -2138415.62148
  22663165.61748        45.100          34.900  
  22087980.289 6      2803.426 6      2184.48748  -2108501.602 6  -1624564.73048
  22087975.51248        47.100          38.800  
  20747511.211 7       398.946 7       310.86648   -512276.605 7   -383368.13348
  20747506.50848        48.800          40.400  
  24238071.711 6       535.489 6       417.26547   -566297.043 6   -436264.71547
  24238065.89147        43.700          30.100  
 08  1 20 18 45 30.0000000  0 12G02G04G05G06G10G12G13G23G24G29G30G31    0.000310524
  20765256.227 7     -1258.266 7      -980.46649    925154.070 7    709257.29349
  20765249.16449        51.300          41.400  
  23687669.742 5     -3093.192 5     -2410.28146   2551655.207 5   1948091.53946
  23687665.41846        41.700          25.600  
  20731782.414 7     -1053.162 7      -820.64749    699417.578 7    538421.69549
  20731777.61349        51.300          41.400  
  23177264.266 6      3254.033 6      2535.61047  -2544372.148 6  -1961781.37147
  23177259.62147        42.800          30.100  
  22269587.289 6      3296.238 6      2568.49848  -2812374.406 6  -2139449.07048
  22269583.40648        46.100          35.100  
  21353549.133 7     -1690.973 7     -1317.64149   1249849.352 7    963838.34849
  21353543.77049        48.700          41.600  
  24958604.180 3      1866.388 3      1454.32346   -390091.020 3   -291940.41046
  24958599.76246        36.000          19.600  
  25253735.000 2      -103.307 2       -80.49146     10576.465 2      7945.73846
  25253730.03546        35.000          20.100  
  22659963.680 6      3368.993 6      2625.18948  -2798861.852 6  -2151541.56648
  22659959.95348        46.200          34.800  
  22085314.383 6      2801.986 6      2183.36548  -2122511.531 6  -1635481.55548
  22085309.54348        47.200          39.100  
  20747135.922 7       395.187 7       307.93948   -514252.539 7   -384907.82848
  20747130.21948        48.900          40.400  
  24237564.508 6       532.180 6       414.68547   -568957.945 6   -438338.14147
  24237559.84047        43.800          30.400  
 08  1 20 18 45 35.0000000  0 12G02G04G05G06G10G12G13G23G24G29G30G31    0.000309473
  20766455.820 7     -1260.974 7      -982.57848    931458.941 7    714170.18448
  20766448.85948        50.300          41.100  
  23690613.703 5     -3094.217 5     -2411.07746   2567126.293 5   1960146.92246
  23690609.47746        42.000          25.300  
  20732787.602 7     -1056.732 7      -823.42649    704701.238 7    542538.82449
  20732783.02349        51.500          41.400  
  23174168.883 5      3252.949 5      2534.76547  -2560636.895 5  -1974455.19547
  23174164.68847        41.500          30.400  
  22266453.680 6      3293.623 6      2566.45648  -2828842.520 6  -2152281.34848
  22266449.51648        46.500          34.800  
  21355160.836 7     -1694.035 7     -1320.02649   1258319.527 7    970438.47749
  21355155.54349        48.200          41.700  
  24956832.203 3      1863.239 3      1451.88446   -399407.215 3   -299199.83246
  24956827.68046        35.700          20.600  
  25253838.133 4      -106.773 4       -83.19546     11110.332 4      8361.71146
  25253831.62546        37.400          19.900  
  22656759.836 6      3367.121 6      2623.73048  -2815697.457 6  -2164660.21548
  22656756.86348        45.700          35.700  
  22082649.844 6      2800.425 6      2182.14948  -2136513.656 6  -1646392.30148
  22082645.02048        47.100          39.300  
  20746763.055 7       391.289 7       304.90048   -516208.984 7   -386432.32848
  20746758.37548        48.800          40.800  
  24237061.922 6       528.746 6       412.01147   -571601.676 6   -440398.19547
  24237056.55947        43.200          29.200  
 08  1 20 18 45 40.0000000  0 12G02G04G05G06G10G12G13G23G24G29G30G31    0.000308424
  20767658.031 7     -1263.687 7      -984.68948    937777.375 7    719093.62948
  20767651.11748        50.900          41.000  
  23693558.992 5     -3095.241 5     -2411.87646   2582602.496 5   1972206.30146
  23693555.18846        41.600          25.700  
  20733796.586 7     -1060.298 7      -826.20749    710002.727 7    546669.85949
  20733791.88349        51.600          41.300  
  23171075.281 5      3251.859 5      2533.91647  -2576896.191 5  -1987124.77347
  23171070.56347        40.700          29.300  
  22263322.648 6      3291.010 6      2564.42348  -2845297.570 6  -2165103.46148
  22263318.28548        44.800          35.100  
  21356775.633 7     -1697.114 7     -1322.42549   1266805.098 7    977050.60249
  21356769.96149        48.700          41.600  
  24955062.320 3      1860.111 3      1449.43446   -408707.770 3   -306447.00046
  24955058.02346        35.700          20.100  
  25253942.859 4      -110.240 4       -85.90846     11661.531 4      8791.25046
  25253936.55946        38.700          20.400  
  22653557.773 6      3365.239 6      2622.26248  -2832523.652 6  -2177771.52348
  22653554.21548        45.700          35.700  
  22079986.734 6      2798.865 6      2180.93348  -2150507.980 6  -1657296.96548
  22079981.92648        47.400          39.200  
  20746394.484 7       387.395 7       301.86648   -518145.957 7   -387941.66048
  20746389.79348        48.300          40.900  
  24236562.516 6       525.310 6       409.33147   -574228.227 6   -442444.85247
  24236556.66047        43.500          29.000  
 08  1 20 18 45 45.0000000  0 12G02G04G05G06G10G12G13G23G24G29G30G31    0.000307375
  20768863.383 7     -1266.440 7      -986.83749    944109.574 7    724027.81349
  20768855.82449        50.800          41.800  
  23696505.016 5     -3096.309 5     -2412.70547   2598084.043 5   1984269.82447
  23696501.07447        42.200          27.700  
  20734808.484 7     -1063.901 7      -829.01349    715322.230 7    550814.92249
  20734803.91849        51.700          41.500  
  23167982.414 5      3250.728 5      2533.03447  -2593149.832 5  -1999789.94547
  23167977.52047        41.100          29.200  
  22260193.719 6      3288.337 6      2562.33948  -2861739.258 6  -2177915.15648
  22260189.52048        45.800          34.800  
  21358393.367 7     -1700.216 7     -1324.84349   1275306.180 7    983674.81649
  21358387.88749        48.800          41.800  
  24953295.828 3      1856.951 3      1446.97446   -417992.523 3   -313681.87146
  24953291.32446        36.300          20.100  
  25254050.961 4      -113.751 4       -88.63646     12230.285 4      9234.43046
  25254044.84046        38.300          19.900  
  22650357.992 6      3363.323 6      2620.77048  -2849340.270 6  -2190875.37548
  22650354.56648        45.000          34.900  
  22077325.000 6      2797.259 6      2179.68348  -2164494.277 6  -1668195.37948
  22077320.46548        47.000          39.300  
  20746030.086 7       383.456 7       298.79748   -520063.238 7   -389435.64548
  20746024.60248        49.200          41.000  
  24236065.523 6       521.834 6       406.62647   -576837.398 6   -444477.98047
  24236060.61747        43.700          30.000  
 08  1 20 18 45 50.0000000  0 12G02G04G05G06G10G12G13G23G24G29G30G31    0.000306328
  20770071.023 7     -1269.132 7      -988.93449    950455.234 7    728972.48049
  20770063.51649        50.500          41.800  
  23699451.258 5     -3097.323 5     -2413.49947   2613570.656 5   1996337.31647
  23699448.16047        42.300          26.500  
  20735824.273 7     -1067.448 7      -831.77849    720659.473 7    554973.81349
  20735819.57049        51.500          41.600  
  23164890.891 6      3249.653 6      2532.19647  -2609398.098 6  -2012450.92647
  23164885.22347        42.700          28.400  
  22257067.391 6      3285.745 6      2560.32048  -2878167.980 6  -2190716.75848
  22257063.10248        44.700          34.700  
  21360013.656 7     -1703.267 7     -1327.22149   1283822.516 7    990310.92249
  21360008.45349        48.000          41.500  
  24951531.320 3      1853.830 3      1444.54446   -427261.676 3   -320904.59046
  24951526.91846        36.300          19.300  
  25254163.172 4      -117.209 4       -91.32346     12816.328 4      9691.04346
  25254156.16446        38.900          20.100  
  22647159.148 6      3361.452 6      2619.31248  -2866147.531 6  -2203971.93448
  22647155.97748        45.600          35.300  
  22074665.375 6      2795.712 6      2178.47748  -2178472.840 6  -1679087.76248
  22074660.33248        46.700          39.400  
  20745668.633 6       379.572 6       295.77048   -521961.098 6   -390914.49648
  20745663.84848        47.200          41.000  
  24235572.109 6       518.421 6       403.96147   -579429.504 6   -446497.78547
  24235566.96947        43.300          29.900  
 08  1 20 18 45 55.0000000  0 12G02G04G05G06G10G12G13G23G24G29G30G31    0.000305281
  20771280.656 7     -1271.794 7      -991.00949    956814.203 7    733927.52749
  20771273.32849        51.300          42.100  
  23702399.484 5     -3098.292 5     -2414.25146   2629062.113 5   2008408.57446
  23702395.96946        42.100          26.100  
  20736843.469 7     -1070.961 7      -834.51648    726014.277 7    559146.39148
  20736838.78948        51.500          41.000  
  23161798.984 5      3248.601 5      2531.37647  -2625641.102 5  -2025107.80547
  23161794.71947        41.500          30.200  
  22253943.734 6      3283.167 6      2558.31148  -2894583.813 6  -2203508.31348
  22253939.26248        44.700          34.700  
  21361637.414 7     -1706.285 7     -1329.57349   1292353.941 7    996958.78549
  21361632.01649        48.300          41.700  
  24949770.141 2      1850.752 2      1442.14646   -436515.438 2   -328115.32046
  24949766.10546        34.400          19.000  
  25254278.797 4      -120.612 4       -93.98246     13419.387 4     10160.95346
  25254271.19546        38.400          20.900  
  22643962.531 6      3359.625 6      2617.89048  -2882945.656 6  -2217061.38348
  22643959.28948        45.700          35.500  
  22072006.586 6      2794.196 6      2177.29648  -2192443.820 6  -1689974.24248
  22072002.09448        46.500          39.400  
  20745311.102 7       375.719 7       292.76848   -523839.691 7   -392378.33648
  20745306.09048        48.000          40.600  
  24235081.633 6       515.028 6       401.32147   -582004.645 6   -448504.39147
  24235077.05547        42.800          29.500  
 08  1 20 18 46  0.0000000  0 12G02G04G05G06G10G12G13G23G24G29G30G31    0.000304235
  20772493.625 7     -1274.647 7      -993.23049    963187.438 7    738893.68049
  20772486.28149        51.200          42.000  
  23705348.594 5     -3099.450 5     -2415.15246   2644559.363 5   2020484.33646
  23705344.88746        42.000          26.200  
  20737865.867 7     -1074.660 7      -837.39548    731387.578 7    563333.36348
  20737861.12948        51.300          40.800  
  23158709.563 6      3247.374 6      2530.41947  -2641877.969 6  -2037759.90247
  23158705.34847        42.600          30.200  
  22250822.594 6      3280.394 6      2556.15248  -2910985.781 6  -2216289.07048
  22250817.73848        44.900          34.000  
  21363263.922 7     -1709.484 7     -1332.06549   1300901.359 7   1003619.10949
  21363258.37949        49.300          41.700  
  24948012.180 3      1847.466 3      1439.58046   -445752.770 3   -335313.22346
  24948008.07446        35.800          19.300  
  25254397.234 5      -124.230 5       -96.79846     14040.539 5     10644.94546
  25254389.40646        40.900          22.200  
  22640768.375 6      3357.599 6      2616.31148  -2899733.652 6  -2230142.93848
  22640764.91848        46.000          35.900  
  22069349.625 6      2792.488 6      2175.96348  -2206406.258 6  -1700854.05948
  22069345.05548        47.300          39.400  
  20744957.281 7       371.695 7       289.63448   -525698.164 7   -393826.50448
  20744952.39848        49.100          40.300  
  24234595.828 6       511.454 6       398.53847   -584561.914 6   -450497.08247
  24234589.99247        43.800          30.200  
 08  1 20 18 46  5.0000000  0 12G02G04G05G06G10G12G13G23G24G29G30G31    0.000303192
  20773708.992 7     -1277.430 7      -995.40149    969574.586 7    743870.68449
  20773701.61749        51.300          41.700  
  23708298.242 5     -3100.539 5     -2416.00547   2660062.059 5   2032564.36347
  23708294.59047        42.400          26.400  
  20738891.969 7     -1078.301 7      -840.23748    736779.082 7    567534.54748
  20738887.45748        51.300          40.900  
  23155620.602 5      3246.198 5      2529.50647  -2658108.957 5  -2050407.43447
  23155616.28147        41.800          30.400  
  22247703.781 6      3277.684 6      2554.03848  -2927374.203 6  -2229059.25848
  22247699.62148        45.000          34.600  
  21364893.242 7     -1712.619 7     -1334.50949   1309464.453 7   1010291.65249
  21364888.00449        49.200          41.900  
  24946257.781 3      1844.263 3      1437.08846   -454974.086 3   -342498.66046
  24946253.71146        36.800          19.900  
  25254517.852 5      -127.755 5       -99.55746     14679.316 5     11142.73046
  25254510.68046        41.000          22.900  
  22637574.953 6      3355.634 6      2614.77748  -2916511.824 6  -2243216.82448
  22637571.98848        46.000          35.100  
  22066694.523 7      2790.840 7      2174.68048  -2220360.457 7  -1711727.46148
  22066689.42648        47.700          39.500  
  20744607.375 7       367.727 7       286.53848   -527536.801 7   -395259.19148
  20744602.73848        49.300          40.600  
  24234111.734 6       507.949 6       395.80247   -587101.660 6   -452476.09047
  24234106.62147        43.400          29.600  
 08  1 20 18 46 10.0000000  0 12G02G04G05G06G10G12G13G23G24G29G30G31    0.000302151
  20774927.297 7     -1280.169 7      -997.53449    975975.430 7    748858.35549
  20774920.02049        51.200          41.300  
  23711249.523 5     -3101.581 5     -2416.81546   2675569.961 5   2044648.43846
  23711245.65646        42.000          25.700  
  20739921.297 7     -1081.894 7      -843.03348    742188.551 7    571749.71148
  20739916.55948        50.900          41.100  
  23152533.813 6      3245.060 6      2528.61647  -2674334.258 6  -2063050.51247
  23152528.52747        42.600          30.400  
  22244587.867 6      3275.013 6      2551.95848  -2943749.270 6  -2241819.04748
  22244583.16048        44.700          34.900  
  21366525.820 7     -1715.710 7     -1336.91649   1318043.004 7   1016976.23049
  21366520.33249        48.200          42.200  
  24944506.133 3      1841.084 3      1434.61146   -464179.504 3   -349671.71546
  24944502.44546        35.800          19.300  
  25254642.414 5      -131.277 5      -102.29146     15335.703 5     11654.18846
  25254635.46146        40.100          22.500  
  22634384.352 6      3353.712 6      2613.28448  -2933280.387 6  -2256283.24248
  22634380.74248        46.100          35.600  
  22064040.070 6      2789.231 6      2173.42848  -2234306.613 6  -1722594.60248
  22064035.48448        47.200          39.000  
  20744261.516 7       363.791 7       283.47648   -529355.758 7   -396676.57048
  20744256.50848        49.100          40.400  
  24233632.320 6       504.474 6       393.09847   -589624.031 6   -454441.57847
  24233626.87147        44.100          29.900  
 08  1 20 18 46 15.0000000  0 12G02G04G05G06G10G12G13G23G24G29G30G31    0.000301109
  20776147.836 7     -1283.003 7      -999.74248    982390.445 7    753857.06648
  20776140.10248        50.800          41.200  
  23714201.930 6     -3102.723 6     -2417.70647   2691083.578 6   2056736.96947
  23714197.61347        42.800          26.400  
  20740954.359 7     -1085.573 7      -845.90248    747616.418 7    575979.21948
  20740949.34048        51.200          41.200  
  23149446.805 5      3243.841 5      2527.66747  -2690553.461 5  -2075688.84447
  23149442.34447        41.800          29.500  
  22241474.414 6      3272.247 6      2549.80148  -2960110.504 6  -2254568.05148
  22241469.92248        45.300          34.900  
  21368161.398 7     -1718.894 7     -1339.39649   1326637.473 7   1023673.21149
  21368155.67649        48.400          41.800  
  24942757.289 3      1837.813 3      1432.06246   -473368.570 3   -356832.02346
  24942752.78546        37.000          20.100  
  25254771.477 5      -134.870 5      -105.09846     16010.051 5     12179.68046
  25254764.06346        40.800          22.600  
  22631195.969 6      3351.701 6      2611.71248  -2950038.891 6  -2269341.80148
  22631192.29748        47.000          35.300  
  22061388.547 6      2787.538 6      2172.10548  -2248244.305 6  -1733455.12548
  22061383.14848        47.500          39.000  
  20743919.109 7       359.775 7       280.34548   -531154.633 7   -398078.29348
  20743914.14548        48.800          40.100  
  24233155.523 6       500.920 6       390.32847   -592128.629 6   -456393.21947
  24233149.64847        43.400          29.300  
 08  1 20 18 46 20.0000000  0 12G02G04G05G06G10G12G13G23G24G29G30G31    0.000300070
  20777371.164 7     -1285.786 7     -1001.91248    988819.375 7    758866.62948
  20777364.35548        50.700          41.200  
  23717155.094 5     -3103.824 5     -2418.56347   2706602.699 5   2068829.78547
  23717151.55147        42.000          27.500  
  20741990.469 7     -1089.215 7      -848.73849    753062.492 7    580222.91049
  20741985.80949        50.300          41.300  
  23146361.938 5      3242.661 5      2526.75047  -2706766.766 5  -2088322.59447
  23146357.21947        41.900          29.800  
  22238363.195 6      3269.525 6      2547.68148  -2976458.129 6  -2267306.45748
  22238358.84048        45.800          34.900  
  21369799.609 7     -1722.033 7     -1341.84549   1335247.637 7   1030382.43849
  21369794.32849        48.200          42.000  
  24941011.523 3      1834.594 3      1429.55546   -482541.539 3   -363979.79746
  24941007.42246        37.000          19.300  
  25254901.883 5      -138.412 5      -107.85046     16702.109 5     12718.93046
  25254895.57446        40.600          22.000  
  22628008.469 6      3349.726 6      2610.17548  -2966787.520 6  -2282392.67648
  22628005.12148        45.800          35.200  
  22058737.898 6      2785.880 6      2170.81648  -2262173.703 6  -1744309.20748
  22058732.66448        46.700          39.400  
  20743580.883 7       355.795 7       277.24248   -532933.605 7   -399464.50448
  20743575.74248        49.500          40.300  
  24232682.086 6       497.399 6       387.58447   -594615.625 6   -458331.14147
  24232676.51647        43.100          28.900  
 08  1 20 18 46 25.0000000  0 12G02G04G05G06G10G12G13G23G24G29G30G31    0.000299032
  20778597.484 7     -1288.673 7     -1004.16149    995262.742 7    763887.43449
  20778590.18449        51.200          41.600  
  23720109.250 5     -3105.029 5     -2419.50147   2722127.844 5   2080927.29347
  23720105.65647        42.200          27.400  
  20743030.375 7     -1092.968 7      -851.66249    758527.332 7    584481.22349
  20743025.77349        51.100          41.400  
  23143277.539 5      3241.367 5      2525.73947  -2722973.602 5  -2100951.28947
  23143272.77047        42.000          29.000  
  22235254.875 6      3266.684 6      2545.46648  -2992791.547 6  -2280033.78948
  22235250.93448        44.600          35.500  
  21371441.203 7     -1725.287 7     -1344.37849   1343874.074 7   1037104.32849
  21371435.79349        48.200          42.100  
  24939269.219 3      1831.263 3      1426.95246   -491697.855 3   -371114.55546
  24939265.15246        37.100          19.300  
  25255037.742 5      -142.080 5      -110.71346     17412.508 5     13272.49246
  25255030.80546        40.200          22.200  
  22624823.227 6      3347.641 6      2608.55148  -2983525.727 6  -2295435.43048
  22624819.82848        46.200          35.600  
  22056088.172 6      2784.109 6      2169.43548  -2276094.250 6  -1755156.38348
  22056083.64848        47.300          39.500  
  20743245.836 7       351.696 7       274.04848   -534692.086 7   -400834.74648
  20743240.88748        49.100          40.500  
  24232212.445 6       493.764 6       384.75147   -597084.445 6   -460254.89547
  24232206.54747        44.300          28.700  
 08  1 20 18 46 30.0000000  0 12G02G04G05G06G10G12G13G23G24G29G30G31    0.000297997
  20779826.391 7     -1291.427 7     -1006.30849   1001719.879 7    768918.97349
  20779818.65249        51.000          41.300  
  23723064.750 5     -3106.101 5     -2420.33347   2737658.348 5   2093028.96147
  23723060.79347        42.300          27.600  
  20744073.703 7     -1096.578 7      -854.47649    764010.223 7    588753.60249
  20744069.04749        50.500          41.500  
  23140194.922 5      3240.204 5      2524.83747  -2739174.621 5  -2113575.47347
  23140190.12547        42.100          29.300  
  22232149.977 6      3263.979 6      2543.36048  -3009111.441 6  -2292750.59048
  22232145.43448        45.900          35.100  
  21373085.859 7     -1728.396 7     -1346.80249   1352516.055 7   1043838.34049
  21373080.62149        48.000          41.900  
  24937529.766 3      1828.048 3      1424.45046   -500838.098 3   -378236.80546
  24937526.10246        37.100          19.300  
  25255175.789 5      -145.595 5      -113.45546     18140.480 5     13839.77046
  25255169.04746        39.700          21.800  
  22621639.758 6      3345.694 6      2607.03248  -3000254.195 6  -2308470.59048
  22621636.28548        45.900          35.300  
  22053441.234 6      2782.480 6      2168.16648  -2290006.648 6  -1765997.21148
  22053436.06648        46.900          39.800  
  20742915.258 7       347.745 7       270.97048   -536430.809 7   -402189.59848
  20742910.30548        48.800          40.500  
  24231745.375 6       490.275 6       382.03147   -599535.820 6   -462165.05147
  24231740.04347        43.600          29.900  
 08  1 20 18 46 35.0000000  0 12G02G04G05G06G10G12G13G23G24G29G30G31    0.000296961
  20781057.383 7     -1294.131 7     -1008.41348   1008190.535 7    773961.03948
  20781050.18048        50.900          41.000  
  23726021.484 5     -3107.100 5     -2421.11447   2753193.848 5   2105134.53147
  23726017.09847        42.200          27.900  
  20745120.461 7     -1100.134 7      -857.24849    769510.895 7    593039.84049
  20745115.98049        50.900          41.600  
  23137113.078 5      3239.098 5      2523.97247  -2755370.113 5  -2126195.33247
  23137108.04347        41.600          29.700  
  22229046.797 6      3261.341 6      2541.30448  -3025418.148 6  -2305457.10948
  22229042.08248        45.600          35.100  
  21374732.961 7     -1731.455 7     -1349.18549   1361173.328 7   1050584.26649
  21374727.51249        48.000          41.700  
  24935793.688 3      1824.885 3      1421.98845   -509962.523 3   -385346.74245
  24935789.66045        36.300          18.600  
  25255318.039 5      -149.061 5      -116.15446     18885.785 5     14420.53946
  25255310.78146        39.600          21.700  
  22618458.305 6      3343.799 6      2605.55848  -3016973.191 6  -2321498.37948
  22618454.72348        46.600          35.900  
  22050794.867 6      2780.892 6      2166.92848  -2303911.109 6  -1776831.85248
  22050790.03948        46.500          39.600  
  20742588.211 7       343.840 7       267.92748   -538150.008 7   -403529.23448
  20742582.92248        49.300          40.800  
  24231282.148 6       486.836 6       379.35547   -601970.000 6   -464061.82847
  24231277.44147        44.500          29.600  
 08  1 20 18 46 40.0000000  0 12G02G04G05G06G10G12G13G23G24G29G30G31    0.000295927
  20782291.164 7     -1296.921 7     -1010.58849   1014675.141 7    779013.98049
  20782283.87949        51.200          41.300  
  23728978.484 5     -3108.187 5     -2421.96447   2768734.781 5   2117244.35247
  23728974.37547        42.300          27.900  
  20746170.805 7     -1103.777 7      -860.08648    775029.781 7    597340.27048
  20746166.14548        50.500          41.100  
  23134032.039 5      3237.913 5      2523.04847  -2771559.676 5  -2138810.57447
  23134027.46947        42.000          29.800  
  22225946.086 6      3258.591 6      2539.16148  -3041711.102 6  -2318152.91448
  22225941.94148        44.500          34.200  
  21376383.813 7     -1734.594 7     -1351.63049   1369846.297 7   1057342.41449
  21376378.52049        48.800          41.700  
  24934060.625 3      1821.668 3      1419.47846   -519070.863 3   -392444.13346
  24934056.17246        36.900          19.600  
  25255463.180 5      -152.614 5      -118.91746     19648.855 5     15015.12546
  25255456.07446        39.400          21.800  
  22615279.023 6      3341.813 6      2604.00948  -3033682.254 6  -2334518.42248
  22615275.18048        45.900          35.500  
  22048150.531 6      2779.214 6      2165.62148  -2317807.180 6  -1787659.95748
  22048145.62948        47.300          39.500  
  20742264.766 7       339.852 7       264.82048   -539849.266 7   -404853.33248
  20742259.53948        48.700          41.100  
  24230821.656 6       483.309 6       376.60547   -604386.543 6   -465944.85547
  24230817.62547        44.100          30.000  
 08  1 20 18 46 45.0000000  0 12G02G04G05G06G10G12G13G23G24G29G30G31    0.000294895
  20783528.063 7     -1299.811 7     -1012.84148   1021174.195 7    784078.18448
  20783520.94948        50.800          41.200  
  23731936.813 6     -3109.387 6     -2422.89947   2784281.715 6   2129358.84847
  23731932.87147        43.000          27.000  
  20747224.398 7     -1107.516 7      -862.99948    780567.363 7    601655.26648
  20747219.96948        50.500          41.100  
  23130952.266 5      3236.616 5      2522.04047  -2787742.758 5  -2151420.77347
  23130947.90647        41.500          30.300  
  22222848.336 6      3255.728 6      2536.92948  -3057989.742 6  -2330837.55948
  22222844.04348        44.300          34.800  
  21378037.195 6     -1737.837 6     -1354.15949   1378535.480 6   1064113.20749
  21378031.72749        47.500          41.400  
  24932331.055 4      1818.311 4      1416.86946   -528162.418 4   -399528.47746
  24932326.05146        37.800          19.000  
  25255611.867 5      -156.267 5      -121.76446     20430.191 5     15623.94546
  25255605.36346        40.200          22.600  
  22612101.266 6      3339.725 6      2602.38148  -3050380.879 6  -2347530.32848
  22612097.58248        45.100          35.100  
  22045508.313 6      2777.444 6      2164.24248  -2331694.398 6  -1798481.16848
  22045503.14148        46.800          39.400  
  20741945.250 7       335.759 7       261.63048   -541528.063 7   -406161.48048
  20741940.75848        47.900          41.100  
  24230366.195 6       479.677 6       373.77347   -606784.926 6   -467813.71947
  24230361.64847        43.900          29.400  
 08  1 20 18 46 50.0000000  0 12G02G04G05G06G10G12G13G23G24G29G30G31    0.000293865
  20784767.477 7     -1302.789 7     -1015.16149   1027688.141 7    789153.98849
  20784760.56649        50.000          41.300  
  23734896.844 6     -3110.674 6     -2423.90347   2799835.086 6   2141478.36347
  23734893.15647        42.800          27.300  
  20748282.086 7     -1111.348 7      -865.98549    786124.102 7    605985.19149
  20748277.53549        51.100          41.500  
  23127874.523 5      3235.215 5      2520.94447  -2803918.832 5  -2164025.49247
  23127869.77747        41.300          29.400  
  22219753.547 5      3252.794 5      2534.64548  -3074253.711 5  -2343510.78148
  22219749.35948        42.300          34.600  
  21379693.984 7     -1741.163 7     -1356.74949   1387241.297 7   1070896.95349
  21379688.21149        49.000          41.300  
  24930603.914 3      1814.879 3      1414.18746   -537236.813 3   -406599.41046
  24930599.35546        36.700          20.400  
  25255764.195 5      -160.038 5      -124.70246     21230.383 5     16247.45746
  25255757.19946        39.900          22.200  
  22608925.703 6      3337.551 6      2600.68948  -3067068.633 6  -2360533.77348
  22608921.94548        44.600          35.500  
  22042867.313 6      2775.577 6      2162.78648  -2345572.285 6  -1809295.09848
  22042862.37548        46.400          39.100  
  20741629.617 7       331.575 7       258.37048   -543185.938 7   -407453.33248
  20741624.87548        49.400          41.000  
  24229913.320 6       475.953 6       370.87447   -609164.691 6   -469668.09047
  24229908.26647        43.400          30.000  
 08  1 20 18 46 55.0000000  0 12G02G04G05G06G10G12G13G23G24G29G30G31    0.000292835
  20786009.984 7     -1305.596 7     -1017.34648   1034216.121 7    794240.71948
  20786002.73448        50.700          41.000  
  23737857.508 5     -3111.788 5     -2424.76747   2815394.023 5   2153602.19947
  23737853.90247        42.400          27.200  
  20749342.711 7     -1115.013 7      -868.84149    791699.168 7    610329.39849
  20749338.67649        50.800          41.700  
  23124797.359 5      3234.005 5      2520.00247  -2820088.855 5  -2176625.50447
  23124792.98847        40.300          29.700  
  22216661.930 6      3250.020 6      2532.48248  -3090503.813 6  -2356173.19148
  22216657.21948        43.200          34.700  
  21381353.445 7     -1744.328 7     -1359.21748   1395962.938 7   1077693.03948
  21381348.11348        48.300          41.200  
  24928880.391 4      1811.602 4      1411.63546   -546294.824 4   -413657.58646
  24928875.49646        37.900          20.400  
  25255919.727 5      -163.607 5      -127.48846     22048.418 5     16884.89546
  25255912.84046        39.500          22.000  
  22605751.594 6      3335.535 6      2599.11748  -3083746.309 6  -2373529.35948
  22605748.53948        43.800          35.400  
  22040227.922 6      2773.879 6      2161.46448  -2359441.680 6  -1820102.41848
  22040223.38348        46.900          39.600  
  20741318.219 7       327.563 7       255.24448   -544823.750 7   -408729.55148
  20741313.30948        50.200          41.000  
  24229464.328 6       472.411 6       368.11247   -611526.746 6   -471508.65247
  24229459.29747        44.000          30.200  
 08  1 20 18 47  0.0000000  0 12G02G04G05G06G10G12G13G23G24G29G30G31    0.000291809
  20787254.609 7     -1308.491 7     -1019.60548   1040758.578 7    799338.74248
  20787247.57048        50.500          41.200  
  23740819.453 5     -3112.991 5     -2425.70847   2830958.980 5   2165730.73847
  23740815.75447        42.300          27.900  
  20750407.219 7     -1118.764 7      -871.76349    797292.988 7    614688.21149
  20750402.78149        50.600          41.600  
  23121721.758 5      3232.685 5      2518.97747  -2836252.281 5  -2189220.38747
  23121717.27747        40.600          30.000  
  22213571.688 6      3247.156 6      2530.25148  -3106739.590 6  -2368824.44948
  22213567.01248        44.400          34.700  
  21383016.000 7     -1747.573 7     -1361.74548   1404700.805 7   1084501.76248
  21383011.05548        48.500          41.200  
  24927159.391 4      1808.243 4      1409.01546   -555336.039 4   -420702.66046
  24927155.17646        39.000          19.900  
  25256079.242 5      -167.270 5      -130.33446     22884.766 5     17536.56646
  25256071.80546        40.500          22.500  
  22602580.445 6      3333.435 6      2597.48248  -3100413.484 6  -2386516.77048
  22602576.91448        44.800          35.700  
  22037590.383 6      2772.098 6      2160.07648  -2373302.172 6  -1830902.79748
  22037585.69148        46.600          39.600  
  20741010.234 7       323.462 7       252.04849   -546441.063 7   -409989.79349
  20741005.27749        49.900          41.300  
  24229018.078 6       468.775 6       365.27747   -613870.621 6   -473335.03547
  24229012.75447        43.600          29.600  
 08  1 20 18 47  5.0000000  0 12G02G04G05G06G10G12G13G23G24G29G30G31    0.000290783
  20788502.453 7     -1311.274 7     -1021.77349   1047314.949 7    804447.60549
  20788495.07449        50.700          41.300  
  23743783.063 6     -3114.069 6     -2426.54447   2846529.324 6   2177863.45747
  23743778.93847        42.900          27.100  
  20751475.313 7     -1122.404 7      -874.60049    802905.008 7    619061.21149
  20751470.67649        50.300          41.700  
  23118646.383 5      3231.489 5      2518.04447  -2852409.727 5  -2201810.60547
  23118642.58647        40.300          30.200  
  22210484.930 6      3244.397 6      2528.10148  -3122961.574 6  -2381464.95348
  22210480.23048        44.300          34.600  
  21384682.211 7     -1750.709 7     -1364.18849   1413454.348 7   1091322.70349
  21384676.73849        48.400          41.400  
  24925441.906 4      1804.988 4      1406.48846   -564360.980 4   -427735.10246
  24925438.00046        38.100          19.900  
  25256240.773 5      -170.819 5      -133.10846     23738.859 5     18202.10546
  25256234.68446        40.600          21.500  
  22599410.422 6      3331.443 6      2595.92648  -3117070.699 6  -2399496.39848
  22599406.99248        45.200          35.800  
  22034954.453 6      2770.425 6      2158.77348  -2387154.297 6  -1841696.66448
  22034949.63348        47.000          39.800  
  20740706.508 7       319.474 7       248.94149   -548038.434 7   -411234.49649
  20740701.27349        50.200          41.400  
  24228575.219 6       465.243 6       362.52747   -616196.836 6   -475147.67247
  24228569.96947        43.400          30.200  
 08  1 20 18 47 10.0000000  0 12G02G04G05G06G10G12G13G23G24G29G30G31    0.000289761
  20789753.055 7     -1314.136 7     -1024.00248   1053885.629 7    809567.61348
  20789745.66848        50.700          40.800  
  23746746.039 6     -3115.241 6     -2427.45847   2862105.531 6   2190000.75047
  23746742.73047        42.900          27.100  
  20752546.891 7     -1126.119 7      -877.49549    808535.602 7    623448.68849
  20752541.83649        50.800          41.600  
  23115572.852 5      3230.206 5      2517.04347  -2868560.758 5  -2214395.82047
  23115569.05547        40.300          29.400  
  22207400.828 6      3241.561 6      2525.89148  -3139169.379 6  -2394094.40648
  22207396.08248        44.900          34.900  
  21386351.000 7     -1753.917 7     -1366.68849   1422223.934 7   1098156.14149
  21386345.42649        48.300          41.500  
  24923727.727 4      1801.657 4      1403.88446   -573369.266 4   -434754.52346
  24923723.87546        37.900          20.600  
  25256406.813 5      -174.457 5      -135.94546     24611.145 5     18881.83246
  25256400.09046        40.000          21.300  
  22596242.555 6      3329.371 6      2594.31648  -3133717.555 6  -2412467.97748
  22596239.26648        44.800          35.600  
  22032320.125 6      2768.666 6      2157.40048  -2400997.625 6  -1852483.66448
  22032315.12148        46.200          39.900  
  20740406.070 7       315.402 7       245.76848   -549615.445 7   -412463.33648
  20740401.18048        49.400          41.000  
  24228136.891 6       461.648 6       359.72347   -618505.074 6   -476946.28547
  24228130.79747        42.900          30.200  
 08  1 20 18 47 15.0000000  0 12G02G04G05G06G10G12G13G23G24G29G30G31    0.000288738
  20791006.000 7     -1316.944 7     -1026.18948   1060470.348 7    814698.55948
  20790998.58248        50.500          40.900  
  23749711.586 6     -3116.356 6     -2428.33147   2877687.313 6   2202142.40647
  23749707.79347        43.400          27.600  
  20753621.609 7     -1129.781 7      -880.34849    814184.504 7    627850.43049
  20753617.15649        50.100          41.500  
  23112501.102 5      3228.982 5      2516.08747  -2884705.668 5  -2226976.25847
  23112496.98847        41.300          30.400  
  22204318.555 6      3238.766 6      2523.71248  -3155363.211 6  -2406712.96948
  22204314.79748        44.500          34.600  
  21388022.961 7     -1757.087 7     -1369.15949   1431009.367 7   1105001.93449
  21388017.15649        48.300          41.800  
  24922017.438 4      1798.377 4      1401.33846   -582361.148 4   -441761.21146
  24922012.90246        39.000          19.900  
  25256576.500 5      -178.048 5      -138.73646     25501.387 5     19575.51246
  25256569.80546        39.400          21.700  
  22593076.680 6      3327.348 6      2592.73748  -3150354.297 6  -2425431.66048
  22593073.19548        45.000          35.100  
  22029687.594 6      2766.957 6      2156.07048  -2414832.410 6  -1863264.01248
  22029682.33648        47.200          40.300  
  20740110.508 7       311.377 7       242.63349   -551172.332 7   -413676.50049
  20740105.15649        49.600          41.400  
  24227700.977 6       458.086 6       356.95247   -620795.504 6   -478731.04747
  24227694.88747        43.600          29.600  
 08  1 20 18 47 20.0000000  0 12G02G04G05G06G10G12G13G23G24G29G30G31    0.000287718
  20792261.555 7     -1319.786 7     -1028.40548   1067069.277 7    819840.58248
  20792254.60248        50.800          40.800  
  23752678.258 6     -3117.509 6     -2429.22447   2893274.855 6   2214288.52747
  23752674.17247        42.900          27.700  
  20754700.289 7     -1133.488 7      -883.23448    819851.941 7    632266.60248
  20754695.29748        50.100          40.800  
  23109430.297 5      3227.689 5      2515.08347  -2900844.113 5  -2239551.67247
  23109425.91447        41.400          29.900  
  22201239.680 6      3235.925 6      2521.49848  -3171542.836 6  -2419320.45748
  22201235.44948        44.500          33.900  
  21389697.367 7     -1760.291 7     -1371.65449   1439810.820 7   1111860.20349
  21389691.97349        47.700          42.100  
  24920309.375 4      1795.036 4      1398.72146   -591336.328 4   -448754.81646
  24920304.80546        38.400          19.000  
  25256750.109 5      -181.661 5      -141.55546     26409.691 5     20283.28946
  25256742.59846        40.400          22.300  
  22589912.453 6      3325.278 6      2591.12648  -3166980.688 6  -2438387.28948
  22589908.92648        45.600          35.100  
  22027056.547 6      2765.215 6      2154.71548  -2428658.484 6  -1874037.58648
  22027051.48848        46.700          40.100  
  20739817.531 7       307.317 7       239.46748   -552708.918 7   -414873.83648
  20739812.93048        49.100          41.100  
  24227267.578 6       454.491 6       354.14547   -623067.957 6   -480501.77347
  24227262.86747        43.600          29.800  
 08  1 20 18 47 25.0000000  0 12G02G04G05G06G10G12G13G23G24G29G30G31    0.000286697
  20793520.055 7     -1322.582 7     -1030.58448   1073682.188 7    824993.50048
  20793512.98848        50.500          40.600  
  23755645.023 6     -3118.605 6     -2430.08147   2908867.879 6   2226438.93047
  23755641.00847        43.200          27.700  
  20755782.078 7     -1137.148 7      -886.09148    825537.680 7    636697.05548
  20755777.68448        50.400          41.000  
  23106359.656 5      3226.474 5      2514.13447  -2916976.484 5  -2252122.34047
  23106355.51247        42.000          30.200  
  22198163.500 6      3233.158 6      2519.34348  -3187708.625 6  -2431917.17248
  22198159.25048        44.700          35.000  
  21391375.398 7     -1763.445 7     -1374.11349   1448628.043 7   1118730.76649
  21391369.92649        49.100          42.000  
  24918604.352 4      1791.755 4      1396.17646   -600295.102 4   -455735.69546
  24918600.00846        38.900          19.600  
  25256925.211 5      -185.237 5      -144.33746     27335.875 5     21004.97746
  25256919.52746        39.900          22.500  
  22586751.078 6      3323.261 6      2589.55148  -3183596.992 6  -2451335.04348
  22586747.12548        45.800          35.600  
  22024426.922 6      2763.510 6      2153.38348  -2442476.035 6  -1884804.50048
  22024422.32048        47.100          39.700  
  20739529.086 7       303.298 7       236.33649   -554225.410 7   -416055.51649
  20739524.26249        49.800          41.400  
  24226839.273 6       450.935 6       351.38447   -625322.633 6   -482258.69147
  24226833.35247        43.600          29.700  
 08  1 20 18 47 30.0000000  0 12G02G04G05G06G10G12G13G23G24G29G30G31    0.000285681
  20794781.203 7     -1325.430 7     -1032.80248   1080309.336 7    830157.51248
  20794773.86748        51.000          40.900  
  23758613.094 6     -3119.764 6     -2430.98547   2924466.699 6   2238593.85547
  23758609.59447        42.600          27.100  
  20756867.570 7     -1140.844 7      -888.96948    831241.902 7    641141.89848
  20756863.05948        50.500          41.200  
  23103291.844 6      3225.195 6      2513.13847  -2933102.457 6  -2264688.03147
  23103286.80947        42.500          29.700  
  22195090.125 6      3230.288 6      2517.10848  -3203860.063 6  -2444502.71148
  22195086.21148        44.800          34.500  
  21393056.352 7     -1766.640 7     -1376.60149   1457461.242 7   1125613.77049
  21393050.60249        49.100          41.500  
  24916903.047 4      1788.416 4      1393.57146   -609237.180 4   -462703.55146
  24916898.30146        38.300          20.400  
  25257106.602 5      -188.865 5      -147.17046     28280.199 5     21740.82446
  25257098.87546        39.900          22.000  
  22583590.414 6      3321.189 6      2587.93948  -3200202.938 6  -2464274.73848
  22583587.42248        46.000          35.600  
  22021799.281 6      2761.764 6      2152.02348  -2456284.855 6  -1895564.61748
  22021794.54748        47.000          40.100  
  20739244.266 7       299.238 7       233.17349   -555721.602 7   -417221.38349
  20739239.28949        50.100          41.300  
  24226413.703 6       447.347 6       348.58247   -627559.367 6   -484001.60247
  24226407.93847        43.600          29.400  
 08  1 20 18 47 35.0000000  0 12G02G04G05G06G10G12G13G23G24G29G30G31    0.000284664
  20796044.859 7     -1328.161 7     -1034.93048   1086950.141 7    835332.16448
  20796037.56648        50.400          41.000  
  23761582.977 6     -3120.799 6     -2431.79247   2940070.695 6   2250752.81347
  23761578.71947        42.500          26.700  
  20757956.891 7     -1144.438 7      -891.76949    836964.094 7    645600.74249
  20757951.84449        50.200          41.300  
  23100224.094 5      3224.024 5      2512.22347  -2949222.578 5  -2277249.14847
  23100219.82447        42.100          29.600  
  22192019.719 6      3227.552 6      2514.97348  -3219997.820 6  -2457077.57848
  22192014.60248        44.900          34.400  
  21394740.586 7     -1769.726 7     -1379.00649   1466309.871 7   1132508.80149
  21394734.49249        48.800          41.300  
  24915204.672 4      1785.203 4      1391.05946   -618163.195 4   -469658.84446
  24915199.63746        38.100          20.100  
  25257289.070 5      -192.370 5      -149.89946     29242.047 5     22490.32046
  25257281.96146        39.900          20.900  
  22580432.539 6      3319.226 6      2586.40848  -3216799.066 6  -2477206.77748
  22580428.82848        45.900          35.600  
  22019173.234 6      2760.120 6      2150.74248  -2470085.453 6  -1906318.32848
  22019168.18848        46.300          39.900  
  20738963.578 7       295.285 7       230.09249   -557198.027 7   -418371.84449
  20738958.58249        49.600          41.300  
  24225990.375 6       443.858 6       345.86247   -629778.656 6   -485730.91447
  24225985.27747        44.400          29.900  
 08  1 20 18 47 40.0000000  0 12G02G04G05G06G10G12G13G23G24G29G30G31    0.000283649
  20797311.094 7     -1330.966 7     -1037.11848   1093604.973 7    840517.75448
  20797304.17248        50.200          41.000  
  23764552.664 5     -3121.912 5     -2432.65646   2955680.254 5   2262916.09446
  23764549.39546        42.200          26.200  
  20759049.234 7     -1148.105 7      -894.62849    842704.621 7    650073.88349
  20759044.31649        50.300          41.500  
  23097157.297 5      3222.773 5      2511.25547  -2965336.441 5  -2289805.42647
  23097153.13347        41.800          29.600  
  22188950.945 6      3224.738 6      2512.78248  -3236121.512 6  -2469641.48848
  22188946.79348        44.500          34.300  
  21396427.016 7     -1772.892 7     -1381.47349   1475174.332 7   1139416.16849
  21396421.56649        48.900          41.700  
  24913509.227 4      1781.889 4      1388.48546   -627072.641 4   -476601.27046
  24913504.07846        38.600          20.600  
  25257475.922 5      -195.954 5      -152.69546     30221.816 5     23253.79346
  25257467.99646        41.400          22.000  
  22577276.375 6      3317.188 6      2584.82148  -3233385.008 6  -2490130.88348
  22577272.75448        46.000          35.300  
  22016548.625 6      2758.396 6      2149.39848  -2483877.434 6  -1917065.32048
  22016544.00848        46.600          40.100  
  20738686.375 7       291.257 7       226.95349   -558654.313 7   -419506.60949
  20738681.25849        49.500          41.400  
  24225571.367 6       440.293 6       343.08447   -631980.121 6   -487446.33647
  24225565.83247        43.900          29.100  
 08  1 20 18 47 45.0000000  0 12G02G04G05G06G10G12G13G23G24G29G30G31    0.000282637
  20798580.266 7     -1333.779 7     -1039.30649   1100273.867 7    845714.28549
  20798573.36749        50.500          41.300  
  23767523.984 5     -3123.038 5     -2433.53547   2971295.441 5   2275083.77047
  23767520.65647        42.400          27.100  
  20760144.813 7     -1151.777 7      -897.48849    848463.508 7    654561.32449
  20760140.09049        49.900          41.800  
  23094092.578 5      3221.527 5      2510.27947  -2981444.078 5  -2302356.82047
  23094088.12947        42.300          29.700  
  22185885.930 6      3221.913 6      2510.58148  -3252231.074 6  -2482194.39548
  22185881.04348        44.100          34.400  
  21398116.945 7     -1776.056 7     -1383.94049   1484054.613 7   1146335.86749
  21398111.25449        49.800          41.600  
  24911815.656 3      1778.588 3      1385.91746   -635965.578 3   -483530.85546
  24911812.05146        36.400          20.400  
  25257664.914 5      -199.546 5      -155.49246     31219.547 5     24031.25446
  25257657.80946        41.200          22.600  
  22574121.898 6      3315.144 6      2583.22948  -3249960.727 6  -2503047.02748
  22574118.60548        45.200          35.100  
  22013925.586 6      2756.664 6      2148.05148  -2497660.754 6  -1927805.57448
  22013921.09848        46.400          40.200  
  20738412.727 7       287.214 7       223.80249   -560090.383 7   -420625.62149
  20738407.95349        49.200          41.500  
  24225156.211 6       436.723 6       340.30547   -634163.734 6   -489147.85947
  24225151.24247        44.000          29.600  
 08  1 20 18 47 50.0000000  0 12G02G04G05G06G10G12G13G23G24G29G30G31    0.000281626
  20799852.156 7     -1336.668 7     -1041.56048   1106957.207 7    850922.08648
  20799844.77348        51.200          41.100  
  23770496.930 6     -3124.209 6     -2434.44946   2986916.488 6   2287256.01646
  23770493.24646        42.500          26.100  
  20761244.398 7     -1155.510 7      -900.39649    854241.059 7    659063.30549
  20761239.73049        50.800          41.600  
  23091029.188 5      3220.209 5      2509.25247  -2997545.125 5  -2314903.08247
  23091024.34047        41.600          30.000  
  22182822.867 6      3219.025 6      2508.32848  -3268326.199 6  -2494736.03548
  22182818.28148        44.100          34.400  
  21399809.883 7     -1779.291 7     -1386.45949   1492951.070 7   1153268.16449
  21399804.07049        48.800          41.300  
  24910127.195 3      1775.209 3      1383.27246   -644841.625 3   -490447.21546
  24910122.84446        37.200          20.600  
  25257858.242 5      -203.219 5      -158.35246     32235.641 5     24823.01646
  25257851.52746        41.700          24.100  
  22570969.813 6      3313.028 6      2581.57748  -3266525.867 6  -2515954.91448
  22570966.21148        45.600          35.000  
  22011304.633 6      2754.870 6      2146.65148  -2511435.102 6  -1938538.82848
  22011299.90248        47.000          39.200  
  20738143.711 7       283.113 7       220.60949   -561505.949 7   -421728.66449
  20738138.35249        48.800          41.700  
  24224744.477 6       433.097 6       337.47847   -636329.219 6   -490835.25047
  24224738.97347        43.700          30.200  
 08  1 20 18 47 55.0000000  0 12G02G04G05G06G10G12G13G23G24G29G30G31    0.000280617
  20801126.797 7     -1339.523 7     -1043.78448   1113654.820 7    856141.00848
  20801119.32448        50.700          41.200  
  23773470.734 5     -3125.386 5     -2435.35947   3002543.418 5   2299432.81347
  23773467.07847        42.300          26.500  
  20762347.266 7     -1159.235 7      -903.29949    860037.234 7    663579.80149
  20762342.71949        50.800          41.300  
  23087966.117 5      3218.902 5      2508.23547  -3013639.633 5  -2327444.25847
  23087961.71547        39.900          29.900  
  22179762.648 6      3216.148 6      2506.09148  -3284406.938 6  -2507266.48848
  22179758.28148        44.600          34.100  
  21401505.867 7     -1782.514 7     -1388.97049   1501863.641 7   1160213.01649
  21401500.33249        48.800          41.700  
  24908441.992 4      1771.829 4      1380.64446   -653700.770 4   -497350.43446
  24908437.14846        37.900          20.100  
  25258054.867 5      -206.861 5      -161.19546     33269.945 5     25628.99246
  25258048.78946        40.800          24.700  
  22567819.180 6      3310.930 6      2579.94548  -3283080.516 6  -2528854.63748
  22567816.00848        44.600          34.800  
  22008685.258 6      2753.085 6      2145.26048  -2525200.527 6  -1949265.12948
  22008680.37548        47.200          39.600  
  20737877.977 7       279.022 7       217.42049   -562901.059 7   -422815.76649
  20737873.36749        48.600          41.900  
  24224335.688 6       429.467 6       334.64947   -638476.555 6   -492508.49647
  24224330.28147        43.700          29.200  
 08  1 20 18 48  0.0000000  0 12G02G04G05G06G10G12G13G23G24G29G30G31    0.000279608
  20802403.797 7     -1342.329 7     -1045.97048   1120366.465 7    861370.85948
  20802396.74248        51.000          41.100  
  23776445.266 5     -3126.484 5     -2436.22346   3018175.836 5   2311613.92646
  23776441.45746        42.000          25.800  
  20763454.320 7     -1162.900 7      -906.15549    865851.734 7    668110.57449
  20763449.14549        50.200          41.500  
  23084903.703 5      3217.648 5      2507.25747  -3029727.871 5  -2339980.54347
  23084899.46547        40.800          29.400  
  22176704.984 6      3213.312 6      2503.87648  -3300473.496 6  -2519785.87148
  22176701.04348        44.500          33.800  
  21403204.773 7     -1785.674 7     -1391.43549   1510792.012 7   1167170.19149
  21403199.23849        48.500          41.700  
  24906759.898 4      1768.527 4      1378.07946   -662543.406 4   -504240.82846
  24906754.63746        38.400          19.900  
  25258255.297 5      -210.461 5      -163.99246     34322.250 5     26448.95346
  25258249.23846        40.000          22.300  
  22564671.563 6      3308.877 6      2578.34348  -3299624.902 6  -2541746.35248
  22564667.63748        44.100          35.100  
  22006067.250 6      2751.355 6      2143.91348  -2538957.305 6  -1959984.69548
  22006062.50448        47.500          39.700  
  20737616.461 7       274.988 7       214.27649   -564276.000 7   -423887.14549
  20737611.68449        48.400          41.800  
  24223930.672 6       425.910 6       331.87947   -640606.105 6   -494167.89147
  24223924.87147        43.600          29.900  
 08  1 20 18 48  5.0000000  0 12G02G04G05G06G10G12G13G23G24G29G30G31    0.000278601
  20803683.461 7     -1345.007 7     -1048.05649   1127091.500 7    866611.14149
  20803676.53149        50.900          41.300  
  23779420.914 5     -3127.471 5     -2436.98847   3033813.191 5   2323798.86747
  23779417.15247        41.700          26.300  
  20764563.836 7     -1166.428 7      -908.90549    871683.875 7    672655.09849
  20764558.90249        50.800          41.800  
  23081844.188 5      3216.503 5      2506.36547  -3045810.387 5  -2352512.36747
  23081839.64547        41.400          29.800  
  22173649.992 6      3210.603 6      2501.76948  -3316526.512 6  -2532294.71548
  22173646.16048        45.000          34.200  
  21404907.055 7     -1788.702 7     -1393.79549   1519735.520 7   1174139.16849
  21404901.28949        48.700          41.300  
  24905078.719 4      1765.338 4      1375.58046   -671370.098 4   -511118.73046
  24905074.68846        37.600          19.600  
  25258459.516 5      -213.913 5      -166.67946     35391.816 5     27282.34846
  25258453.02746        40.300          22.600  
  22561524.500 6      3306.962 6      2576.85348  -3316159.711 6  -2554630.61748
  22561521.71148        45.200          34.600  
  22003451.266 7      2749.765 7      2142.67348  -2552706.129 7  -1970698.05948
  22003445.86348        47.900          39.800  
  20737358.438 7       271.077 7       211.22949   -565631.383 7   -424943.28949
  20737353.86749        48.800          41.700  
  24223529.039 6       422.470 6       329.19847   -642718.457 6   -495813.88347
  24223522.85247        43.900          30.400  
 08  1 20 18 48 10.0000000  0 12G02G04G05G06G10G12G13G23G24G29G30G31    0.000277596
  20804966.000 7     -1347.921 7     -1050.32948   1133831.105 7    871862.78548
  20804958.89148        51.200          41.200  
  23782398.438 5     -3128.680 5     -2437.93447   3049456.594 5   2335988.53947
  23782394.28147        41.700          26.800  
  20765677.055 7     -1170.204 7      -911.84749    877534.895 7    677214.33249
  20765672.41049        50.500          41.500  
  23078785.078 6      3215.149 6      2505.31347  -3061886.133 6  -2365038.93047
  23078779.82847        43.200          30.400  
  22170598.203 6      3207.673 6      2499.48448  -3332564.879 6  -2544792.13748
  22170593.99648        43.800          34.100  
  21406611.469 7     -1791.977 7     -1396.34448   1528695.402 7   1181120.88748
  21406606.27748        48.900          40.800  
  24903402.703 4      1761.909 4      1372.91246   -680179.645 4   -517983.29346
  24903398.18046        38.800          19.900  
  25258666.047 5      -217.611 5      -169.57046     36479.871 5     28130.19946
  25258660.23846        40.900          24.000  
  22558380.203 6      3304.792 6      2575.16248  -3332683.672 6  -2567506.42648
  22558377.42248        45.500          34.400  
  22000835.828 6      2747.913 6      2141.23148  -2566445.695 6  -1981404.21548
  22000831.52748        47.500          39.900  
  20737104.719 7       266.922 7       207.99049   -566965.992 7   -425983.23849
  20737100.04349        49.100          41.900  
  24223129.727 6       418.792 6       326.33047   -644812.418 6   -497445.53547
  24223124.30547        43.500          29.800  
 08  1 20 18 48 15.0000000  0 12G02G04G05G06G10G12G13G23G24G29G30G31    0.000276592
  20806250.672 7     -1350.823 7     -1052.59048   1140585.219 7    877125.73448
  20806243.88348        51.200          41.100  
  23785376.641 5     -3129.897 5     -2438.87947   3065106.078 5   2348182.93447
  23785372.21547        40.900          27.500  
  20766794.188 7     -1173.971 7      -914.78249    883404.750 7    681788.24249
  20766789.05949        50.800          41.800  
  23075727.648 6      3213.801 6      2504.26247  -3077955.137 6  -2377560.23847
  23075722.30547        42.500          29.600  
  22167548.508 6      3204.730 6      2497.19148  -3348588.531 6  -2557278.09048
  22167544.89548        44.500          34.100  
  21408319.938 7     -1795.214 7     -1398.86748   1537671.473 7   1188115.22348
  21408314.21548        48.500          40.700  
  24901729.609 4      1758.483 4      1370.25046   -688972.059 4   -524834.54346
  24901725.09046        37.700          19.900  
  25258877.406 5      -221.307 5      -172.44246     37586.406 5     28992.41046
  25258870.52046        40.900          22.800  
  22555238.414 6      3302.644 6      2573.48448  -3349196.891 6  -2580373.84848
  22555234.83648        45.600          34.000  
  21998223.734 7      2746.091 7      2139.81048  -2580176.148 7  -1992103.26648
  21998218.94548        47.800          39.800  
  20736854.648 7       262.793 7       204.77549   -568279.957 7   -427007.11349
  20736849.84849        49.200          42.100  
  24222735.367 6       415.134 6       323.48247   -646888.086 6   -499062.94547
  24222729.95347        44.000          29.200  
 08  1 20 18 48 20.0000000  0 12G02G04G05G06G10G12G13G23G24G29G30G31    0.000275591
  20807539.117 7     -1353.676 7     -1054.81348   1147353.598 7    882399.79748
  20807532.01648        51.200          41.000  
  23788355.102 5     -3131.037 5     -2439.77047   3080761.262 5   2360381.78547
  23788350.77047        40.800          26.300  
  20767914.789 7     -1177.680 7      -917.67349    889293.148 7    686376.60949
  20767909.58249        50.700          41.800  
  23072671.109 5      3212.470 5      2503.22047  -3094017.488 5  -2390076.34047
  23072665.84847        42.400          29.000  
  22164502.773 6      3201.834 6      2494.93548  -3364597.703 6  -2569752.76648
  22164498.28948        44.700          34.200  
  21410031.063 7     -1798.423 7     -1401.36848   1546663.590 7   1195122.06348
  21410025.38748        48.900          41.100  
  24900059.414 4      1755.103 4      1367.60546   -697747.574 4   -531672.56646
  24900054.87946        38.400          20.100  
  25259090.734 5      -224.938 5      -175.27546     38711.094 5     29868.78546
  25259084.36746        41.300          22.500  
  22552097.883 6      3300.547 6      2571.85548  -3365699.625 6  -2593233.12148
  22552094.68848        46.200          34.900  
  21995612.445 6      2744.303 6      2138.41748  -2593897.664 6  -2002795.35248
  21995608.03148        46.500          39.600  
  20736608.141 7       258.704 7       201.58749   -569573.477 7   -428015.05149
  20736603.35549        49.500          41.700  
  24222343.430 6       411.515 6       320.66147   -648945.660 6   -500666.25047
  24222338.52047        44.100          29.300  
 08  1 20 18 48 25.0000000  0 12G02G04G05G06G10G12G13G23G24G29G30G31    0.000274591
  20808829.555 7     -1356.397 7     -1056.93249   1154135.582 7    887684.45749
  20808822.53549        51.100          41.300  
  23791335.445 5     -3132.072 5     -2440.57047   3096421.621 5   2372584.63747
  23791331.59847        41.200          26.700  
  20769038.930 7     -1181.255 7      -920.45849    895199.422 7    690978.89849
  20769033.99649        51.100          42.000  
  23069614.688 5      3211.291 5      2502.30547  -3110073.941 5  -2402587.86347
  23069610.35247        42.100          29.600  
  22161458.313 6      3199.080 6      2492.78748  -3380593.102 6  -2582216.69948
  22161454.79348        45.500          34.600  
  21411745.156 7     -1801.494 7     -1403.76048   1555671.059 7   1202140.86348
  21411739.66448        49.300          41.200  
  24898392.695 3      1751.874 3      1365.10046   -706506.945 3   -538498.06646
  24898388.52346        36.500          20.600  
  25259307.680 5      -228.439 5      -178.00746     39853.289 5     30758.82046
  25259301.27346        39.500          23.200  
  22548959.063 6      3298.570 6      2570.31548  -3382192.477 6  -2606084.69548
  22548955.85248        45.300          34.400  
  21993003.000 6      2742.649 6      2137.12948  -2607610.910 6  -2013480.99648
  21992998.28148        46.700          39.700  
  20736366.078 7       254.740 7       198.49849   -570847.176 7   -429007.54349
  20736360.98049        50.200          41.400  
  24221956.055 5       408.032 5       317.94847   -650985.820 5   -502255.99247
  24221950.19547        42.200          28.500  
 08  1 20 18 48 30.0000000  0 12G02G04G05G06G10G12G13G23G24G29G30G31    0.000273592
  20810122.703 7     -1359.146 7     -1059.07448   1160931.313 7    892979.82848
  20810115.81648        51.300          41.200  
  23794316.047 5     -3133.112 5     -2441.38646   3112087.180 5   2384791.56646
  23794312.48046        41.000          26.100  
  20770165.977 7     -1184.870 7      -923.27449    901123.773 7    695595.27049
  20770161.10949        50.600          41.400  
  23066560.484 5      3210.072 5      2501.35447  -3126124.301 5  -2415094.63347
  23066556.31347        42.100          29.600  
  22158417.805 6      3196.273 6      2490.60148  -3396574.465 6  -2594669.70348
  22158413.39148        45.600          34.700  
  21413462.305 7     -1804.603 7     -1406.18448   1564694.074 7   1209171.78148
  21413456.12148        49.300          41.200  
  24896729.586 4      1748.588 4      1362.53146   -715249.887 4   -545310.71946
  24896724.46146        38.100          20.100  
  25259529.102 5      -231.993 5      -180.77146     41013.254 5     31662.67646
  25259522.49646        41.300          24.400  
  22545822.852 6      3296.564 6      2568.74948  -3398675.297 6  -2618928.43848
  22545818.94948        45.700          34.700  
  21990395.203 6      2740.949 6      2135.80448  -2621315.656 6  -2024160.01648
  21990390.21948        47.400          39.800  
  20736127.469 7       250.752 7       195.39149   -572100.934 7   -429984.50049
  20736122.48449        50.300          41.700  
  24221570.719 5       404.513 5       315.20247   -653008.383 5   -503832.00047
  24221565.01247        42.100          28.700  
 08  1 20 18 48 35.0000000  0 12G02G04G05G06G10G12G13G23G24G29G30G31    0.000272596
  20811418.758 7     -1361.960 7     -1061.26848   1167741.113 7    898286.16848
  20811411.64148        50.700          40.500  
  23797298.773 5     -3134.218 5     -2442.24846   3127758.270 5   2397002.80546
  23797294.49246        41.600          25.600  
  20771296.859 7     -1188.543 7      -926.13749    907066.488 7    700225.95349
  20771292.13349        50.800          41.600  
  23063507.242 5      3208.802 5      2500.36447  -3142168.309 5  -2427596.45347
  23063503.13347        42.400          29.200  
  22155378.859 6      3193.403 6      2488.36648  -3412541.480 6  -2607111.53148
  22155374.98048        44.200          34.200  
  21415182.031 7     -1807.767 7     -1408.64949   1573732.910 7   1216215.02749
  21415176.54349        48.600          41.400  
  24895069.352 5      1745.221 5      1359.91646   -723975.992 5   -552110.30146
  24895063.80946        39.400          19.000  
  25259752.813 5      -235.590 5      -183.57946     42191.203 5     32580.57046
  25259746.06346        40.900          22.600  
  22542687.734 6      3294.480 6      2567.12848  -3415147.699 6  -2631764.07848
  22542684.57048        43.900          35.200  
  21987788.625 7      2739.196 7      2134.43948  -2635011.637 7  -2034832.21148
  21987783.98048        47.600          40.200  
  20735892.898 7       246.699 7       192.23349   -573334.430 7   -430945.66449
  20735887.85549        49.100          41.300  
  24221189.156 6       400.927 6       312.41347   -655013.016 6   -505394.06347
  24221183.63747        43.200          28.800  
 08  1 20 18 48 40.0000000  0 12G02G04G05G06G10G12G13G23G24G29G30G31    0.000271601
  20812717.102 7     -1364.828 7     -1063.50248   1174565.254 7    903603.68048
  20812710.27048        51.100          40.900  
  23800281.414 5     -3135.403 5     -2443.17346   3143435.285 5   2409218.66846
  23800277.55546        41.100          25.400  
  20772431.359 7     -1192.274 7      -929.04549    913027.859 7    704871.18049
  20772426.34049        49.600          41.400  
  23060455.719 6      3207.466 6      2499.32647  -3158205.641 6  -2440093.08247
  23060451.84047        42.600          29.900  
  22152343.594 6      3190.480 6      2486.08848  -3428493.883 6  -2619541.97348
  22152339.52048        44.700          34.300  
  21416905.141 7     -1810.990 7     -1411.16149   1582787.859 7   1223270.83249
  21416899.73049        49.300          41.400  
  24893411.273 3      1741.832 3      1357.27746   -732685.152 3   -558896.68446
  24893406.67246        37.200          19.600  
  25259981.547 5      -239.253 5      -186.43546     43387.469 5     33512.74646
  25259973.62946        41.100          22.300  
  22539555.250 6      3292.356 6      2565.46948  -3431609.480 6  -2644591.42648
  22539551.89548        45.000          35.400  
  21985184.453 6      2737.386 6      2133.02748  -2648698.566 6  -2045497.34448
  21985179.50448        46.300          40.500  
  20735661.766 7       242.595 7       189.03549   -574547.402 7   -431890.84049
  20735656.96549        50.600          41.300  
  24220811.430 6       397.291 6       309.57747   -656999.473 6   -506941.94947
  24220805.53947        43.200          29.700  
 08  1 20 18 48 45.0000000  0 12G02G04G05G06G10G12G13G23G24G29G30G31    0.000270605
  20814018.609 7     -1367.427 7     -1065.52748   1181402.387 7    908931.31348
  20814011.63748        51.200          41.200  
  23803265.852 5     -3136.296 5     -2443.86546   3159116.766 5   2421437.99246
  23803261.99646        40.600          26.200  
  20773568.664 7     -1195.738 7      -931.74549    919006.551 7    709529.90249
  20773564.09449        50.500          41.500  
  23057404.797 5      3206.391 5      2498.48647  -3174237.594 5  -2452585.51247
  23057400.59447        41.800          29.400  
  22149310.773 6      3187.820 6      2484.01448  -3444432.984 6  -2631962.04348
  22149306.25848        42.700          34.000  
  21418630.953 7     -1813.943 7     -1413.46049   1591857.574 7   1230338.13349
  21418625.43449        49.300          41.300  
  24891756.781 3      1738.695 3      1354.81246   -741378.625 3   -565670.74246
  24891752.56346        36.600          19.600  
  25260211.594 5      -242.645 5      -189.07346     44600.691 5     34458.10946
  25260204.59846        41.500          22.300  
  22536424.680 6      3290.484 6      2564.01248  -3448061.902 6  -2657411.48848
  22536420.90248        44.700          34.200  
  21982581.102 6      2735.838 6      2131.82348  -2662377.758 6  -2056156.45748
  21982576.10948        47.300          40.300  
  20735434.766 7       238.747 7       186.03649   -575741.137 7   -432821.02049
  20735429.67649        50.200          42.000  
  24220436.070 6       393.915 6       306.94647   -658969.047 6   -508476.68047
  24220431.53147        44.400          29.300  
 08  1 20 18 48 50.0000000  0 12G02G04G05G06G10G12G13G23G24G29G30G31    0.000269613
  20815321.891 7     -1370.144 7     -1067.64548   1188253.105 7    914269.53948
  20815314.97748        51.800          40.900  
  23806250.547 5     -3137.337 5     -2444.67747   3174803.449 5   2433661.37947
  23806247.10247        39.900          26.300  
  20774710.164 7     -1199.314 7      -934.52749    925003.121 7    714202.53949
  20774704.87949        50.600          41.400  
  23054355.188 5      3205.190 5      2497.54947  -3190263.543 5  -2465073.25847
  23054351.07847        40.000          30.200  
  22146280.023 6      3185.043 6      2481.85248  -3460358.199 6  -2644371.30148
  22146275.57848        44.300          34.700  
  21420360.266 7     -1817.018 7     -1415.85749   1600942.664 7   1237417.41849
  21420354.60249        49.300          41.300  
  24890105.953 4      1735.424 4      1352.28746   -750055.746 4   -572432.17646
  24890101.57846        38.300          20.400  
  25260445.125 5      -246.164 5      -191.82146     45831.512 5     35417.21546
  25260438.57846        41.300          22.800  
  22533295.523 6      3288.501 6      2562.46648  -3464504.410 6  -2670223.82048
  22533292.35948        43.900          34.700  
  21979979.703 7      2734.173 7      2130.52348  -2676048.625 7  -2066809.07048
  21979974.86748        48.200          39.900  
  20735211.563 7       234.781 7       182.94649   -576915.043 7   -433735.75049
  20735206.44549        50.400          42.000  
  24220064.227 6       390.429 6       304.23147   -660921.191 6   -509997.83647
  24220059.96947        44.300          29.800  
 08  1 20 18 48 55.0000000  0 12G02G04G05G06G10G12G13G23G24G29G30G31    0.000268621
  20816628.000 7     -1372.818 7     -1069.72748   1195117.195 7    919618.17648
  20816620.89148        51.300          40.800  
  23809236.961 5     -3138.309 5     -2445.43446   3190494.996 5   2445888.55146
  23809232.61746        40.100          26.100  
  20775854.656 7     -1202.858 7      -937.29449    931017.410 7    718889.00849
  20775849.82449        49.600          41.300  
  23051306.664 5      3204.048 5      2496.66047  -3206283.785 5  -2477556.55947
  23051302.37147        40.500          30.600  
  22143252.352 6      3182.283 6      2479.70048  -3476269.613 6  -2656769.80148
  22143248.16048        45.000          34.600  
  21422091.484 7     -1820.052 7     -1418.22149   1610042.922 7   1244508.52349
  21422085.89849        49.600          41.500  
  24888456.383 3      1732.202 3      1349.76546   -758716.754 3   -579181.00046
  24888453.02746        37.300          20.400  
  25260683.055 4      -249.645 4      -194.53046     47079.734 4     36389.86746
  25260676.06346        38.300          22.200  
  22530168.133 6      3286.552 6      2560.95148  -3480937.168 6  -2683028.57448
  22530164.82448        44.300          35.100  
  21977379.859 7      2732.542 7      2129.25548  -2689711.336 7  -2077455.34448
  21977374.88748        47.600          40.300  
  20734991.516 7       230.859 7       179.89149   -578069.336 7   -434635.20349
  20734986.98449        50.500          42.100  
  24219695.797 6       386.969 6       301.53447   -662856.035 6   -511505.50447
  24219691.85247        44.100          31.100  
 08  1 20 18 49  0.0000000  0 12G02G04G05G06G10G12G13G23G24G29G30G31    0.000267630
  20817937.273 7     -1375.512 7     -1071.82748   1201994.758 7    924977.31348
  20817929.64848        50.700          40.800  
  23812224.063 5     -3139.308 5     -2446.21446   3206191.535 5   2458119.62146
  23812219.69146        39.800          25.800  
  20777002.734 7     -1206.427 7      -940.07249    937049.547 7    723589.36749
  20776997.63749        50.500          41.400  
  23048259.445 5      3202.857 5      2495.73247  -3222298.070 5  -2490035.21947
  23048255.09447        40.500          30.000  
  22140227.547 6      3179.515 6      2477.54448  -3492167.188 6  -2669157.52048
  22140223.16848        45.000          34.900  
  21423826.367 7     -1823.112 7     -1420.60549   1619158.480 7   1251611.55149
  21423820.67649        49.500          41.900  
  24886812.609 4      1728.957 4      1347.23046   -767361.539 4   -585917.14846
  24886807.82846        38.400          19.900  
  25260923.984 5      -253.137 5      -197.25846     48345.418 5     37376.15646
  25260916.66846        40.600          21.800  
  22527043.711 6      3284.573 6      2559.40648  -3497360.035 6  -2695825.60548
  22527040.07848        44.500          34.700  
  21974781.148 6      2730.880 6      2127.95748  -2703365.738 6  -2088095.12948
  21974776.79748        47.200          39.700  
  20734775.938 7       226.903 7       176.80649   -579203.852 7   -435519.23449
  20734770.88749        50.800          42.300  
  24219331.586 6       383.487 6       298.82647   -664773.469 6   -512999.63347
  24219326.89847        43.100          30.800  
 08  1 20 18 49  5.0000000  0 12G02G04G05G06G10G12G13G23G24G29G30G31    0.000266642
  20819248.742 7     -1378.363 7     -1074.04848   1208886.570 7    930347.55548
  20819241.58248        50.300          40.700  
  23815211.547 5     -3140.472 5     -2447.11946   3221893.895 5   2470355.21546
  23815207.29746        40.600          25.000  
  20778153.898 7     -1210.127 7      -942.95749    943100.184 7    728304.15249
  20778149.23449        50.700          41.600  
  23045213.328 5      3201.523 5      2494.69447  -3238305.688 5  -2502508.68847
  23045209.05547        40.300          29.600  
  22137204.742 6      3176.585 6      2475.25948  -3508050.113 6  -2681533.81348
  22137200.51248        44.600          35.000  
  21425564.102 7     -1826.311 7     -1423.10049   1628290.035 7   1258727.05149
  21425558.38349        49.000          41.700  
  24885170.680 4      1725.551 4      1344.59246   -775989.293 4   -592640.10946
  24885166.16046        37.900          19.900  
  25261168.406 5      -256.793 5      -200.09346     49629.383 5     38376.62146
  25261161.10946        42.300          22.900  
  22523920.250 6      3282.449 6      2557.75148  -3513772.281 6  -2708614.35948
  22523916.87148        44.600          35.100  
  21972184.797 6      2729.073 6      2126.55248  -2717011.105 6  -2098727.88748
  21972179.92248        47.000          39.800  
  20734564.000 7       222.798 7       173.60949   -580317.844 7   -436387.28149
  20734559.35249        50.600          41.800  
  24218969.844 5       379.859 5       295.99247   -666672.766 5   -514479.59447
  24218965.60247        41.800          30.400  
 08  1 20 18 49 10.0000000  0 12G02G04G05G06G10G12G13G23G24G29G30G31    0.000265656
  20820562.984 7     -1381.212 7     -1076.26948   1215792.629 7    935728.89848
  20820555.48848        50.900          40.800  
  23818200.977 5     -3141.604 5     -2448.00146   3237601.914 5   2482595.22346
  23818197.05546        39.600          24.400  
  20779308.813 7     -1213.839 7      -945.84849    949169.379 7    733033.39549
  20779304.08649        49.900          41.500  
  23042168.766 5      3200.198 5      2493.65747  -3254306.680 5  -2514976.97347
  23042163.81647        40.600          29.600  
  22134184.805 6      3173.661 6      2472.98048  -3523918.418 6  -2693898.71548
  22134180.86348        45.300          34.800  
  21427304.688 7     -1829.514 7     -1425.59449   1637437.605 7   1265855.02349
  21427299.41049        49.200          41.900  
  24883532.117 4      1722.150 4      1341.93046   -784600.043 4   -599349.75846
  24883527.94946        37.500          20.100  
  25261415.867 5      -260.430 5      -202.93046     50931.531 5     39391.27046
  25261409.22346        40.200          24.300  
  22520798.953 6      3280.324 6      2556.09848  -3530173.902 6  -2721394.84848
  22520795.15248        43.300          34.800  
  21969589.992 6      2727.256 6      2125.13548  -2730647.387 6  -2109353.56348
  21969585.36748        47.300          39.800  
  20734355.805 7       218.703 7       170.41949   -581411.359 7   -437239.37549
  20734351.03949        50.700          41.600  
  24218612.297 6       376.246 6       293.17847   -668553.996 6   -515945.48447
  24218607.89147        43.100          30.200  
 08  1 20 18 49 15.0000000  0 12G02G04G05G06G10G12G13G23G24G29G30G31    0.000264668
  20821879.508 7     -1383.752 7     -1078.24848   1222711.387 7    941120.14148
  20821872.00048        51.100          40.900  
  23821191.180 5     -3142.440 5     -2448.65246   3253314.113 5   2494838.48446
  23821187.02346        39.700          25.400  
  20780466.836 7     -1217.240 7      -948.49848    955255.578 7    737775.88348
  20780461.68848        50.200          41.200  
  23039124.250 5      3199.159 5      2492.85547  -3270302.477 5  -2527441.24647
  23039119.75047        41.100          29.700  
  22131167.250 6      3171.048 6      2470.94648  -3539773.660 6  -2706253.44548
  22131163.40648        45.000          35.600  
  21429048.195 7     -1832.400 7     -1427.84449   1646599.605 7   1272994.24249
  21429042.57849        49.500          41.400  
  24881895.977 4      1719.062 4      1339.52446   -793195.352 4   -606047.37946
  24881892.04346        37.900          20.600  
  25261666.656 5      -263.761 5      -205.52646     52250.336 5     40418.89846
  25261660.06646        40.400          23.000  
  22517679.797 6      3278.513 6      2554.68248  -3546566.469 6  -2734168.25848
  22517676.09448        44.300          34.900  
  21966996.273 6      2725.766 6      2123.97048  -2744276.215 6  -2119973.41448
  21966991.49248        47.300          39.900  
  20734151.359 7       214.913 7       167.46449   -582485.922 7   -438076.69549
  20734146.50449        50.300          41.700  
  24218257.375 6       372.930 6       290.59547   -670418.648 6   -517398.46147
  24218252.16847        42.600          29.800  
 08  1 20 18 49 20.0000000  0 12G02G04G05G06G10G12G13G23G24G29G30G31    0.000263683
  20823198.727 7     -1386.500 7     -1080.39048   1229643.887 7    946522.09048
  20823191.15648        50.200          41.000  
  23824181.133 4     -3143.501 4     -2449.48246   3269031.617 4   2507085.89546
  23824177.50446        38.500          26.000  
  20781628.789 7     -1220.852 7      -951.31248    961359.836 7    742532.44148
  20781623.57048        50.800          41.200  
  23036081.203 5      3197.924 5      2491.88747  -3286292.098 5  -2539900.68047
  23036077.11347        41.900          30.500  
  22128153.156 6      3168.208 6      2468.73348  -3555614.699 6  -2718597.10948
  22128149.24648        45.100          34.700  
  21430794.586 7     -1835.512 7     -1430.26849   1655777.168 7   1280145.58249
  21430789.09849        49.600          41.500  
  24880264.313 4      1715.743 4      1336.94146   -801774.066 4   -612732.08246
  24880259.60246        38.300          20.100  
  25261922.094 5      -267.320 5      -208.29846     53586.934 5     41460.38746
  25261914.76246        40.300          22.600  
  22514562.336 6      3276.473 6      2553.09548  -3562948.832 6  -2746933.73448
  22514558.45348        44.900          34.800  
  21964404.492 7      2724.047 7      2122.63448  -2757896.449 7  -2130586.58648
  21964400.08648        47.600          39.900  
  20733950.250 7       210.902 7       164.34049   -583540.434 7   -438898.39549
  20733945.39849        50.200          41.900  
  24217905.695 5       369.402 5       287.84747   -672265.656 5   -518837.69547
  24217900.87547        41.800          29.600  
 08  1 20 18 49 25.0000000  0 12G02G04G05G06G10G12G13G23G24G29G30G31    0.000262699
  20824519.844 7     -1389.096 7     -1082.41348   1236589.367 7    951934.15648
  20824512.96548        50.700          40.900  
  23827173.609 4     -3144.397 4     -2450.17746   3284753.602 4   2519336.77746
  23827169.28946        38.900          24.700  
  20782793.445 7     -1224.315 7      -954.01149    967481.410 7    747302.49649
  20782788.86749        50.400          41.400  
  23033039.977 6      3196.840 6      2491.04447  -3302276.297 6  -2552355.90247
  23033035.35247        42.500          30.200  
  22125141.328 6      3165.492 6      2466.61848  -3571442.160 6  -2730930.19948
  22125137.47748        44.100          34.800  
  21432543.742 7     -1838.466 7     -1432.57149   1664969.500 7   1287308.43849
  21432538.23449        47.900          41.300  
  24878634.375 4      1712.569 4      1334.46646   -810336.910 4   -619404.41046
  24878629.98846        37.700          19.900  
  25262178.695 5      -270.713 5      -210.95246     54940.500 5     42515.14546
  25262172.34446        41.600          23.200  
  22511446.820 6      3274.590 6      2551.62848  -3579321.781 6  -2759691.87548
  22511442.92248        45.200          35.100  
  21961814.086 6      2722.491 6      2121.42048  -2771508.902 6  -2141193.68848
  21961809.52048        47.300          39.500  
  20733753.297 7       207.054 7       161.34049   -584575.703 7   -439705.09449
  20733748.53149        49.000          41.900  
  24217557.852 5       366.016 5       285.20747   -674095.738 5   -520263.73047
  24217552.25447        41.400          30.500  
 08  1 20 18 49 30.0000000  0 12G02G04G05G06G10G12G13G23G24G29G30G31    0.000261717
  20825844.570 7     -1391.873 7     -1084.57548   1243548.734 7    957357.03148
  20825837.77348        50.400          41.000  
  23830167.203 5     -3145.458 5     -2451.00546   3300480.895 5   2531591.80546
  23830162.36346        40.600          24.700  
  20783961.875 7     -1227.943 7      -956.84049    973621.125 7    752086.69549
  20783956.75449        50.700          41.700  
  23029999.820 6      3195.568 6      2490.05247  -3318254.137 6  -2564806.16447
  23029995.31347        42.900          30.300  
  22122132.266 6      3162.624 6      2464.38048  -3587255.277 6  -2743252.09848
  22122128.11348        44.800          34.900  
  21434295.789 7     -1841.591 7     -1435.00549   1674177.453 7   1294483.46549
  21434290.48849        48.700          41.500  
  24877007.859 4      1709.228 4      1331.86546   -818883.051 4   -626063.73446
  24877003.69546        37.800          20.900  
  25262438.969 5      -274.300 5      -213.73346     56312.000 5     43583.80946
  25262433.26246        40.400          22.200  
  22508332.898 6      3272.532 6      2550.02248  -3595684.441 6  -2772441.98448
  22508329.25448        44.300          34.900  
  21959225.281 6      2720.739 6      2120.05848  -2785112.598 6  -2151793.97748
  21959220.70748        47.200          39.800  
  20733560.203 7       203.020 7       158.19749   -585590.801 7   -440496.07849
  20733555.27749        49.000          42.000  
  24217213.133 5       362.464 5       282.44147   -675908.059 5   -521675.93847
  24217207.42247        41.400          29.200  
 08  1 20 18 49 35.0000000  0 12G02G04G05G06G10G12G13G23G24G29G30G31    0.000260736
  20827171.406 7     -1394.580 7     -1086.68648   1250521.637 7    962790.46148
  20827164.15648        50.700          41.000  
  23833160.766 5     -3146.469 5     -2451.79246   3316213.242 5   2543850.76246
  23833155.85946        40.200          25.800  
  20785133.563 7     -1231.516 7      -959.62349    979778.707 7    756884.80949
  20785128.52749        50.200          41.400  
  23026960.281 5      3194.363 5      2489.11347  -3334225.949 5  -2577251.72747
  23026955.49647        42.300          30.300  
  22119126.547 6      3159.805 6      2462.18648  -3603054.301 6  -2755563.02748
  22119122.11748        44.200          34.900  
  21436051.242 7     -1844.648 7     -1437.38649   1683400.691 7   1301670.39549
  21436045.57849        50.000          41.600  
  24875385.375 4      1705.938 4      1329.30646   -827412.742 4   -632710.26646
  24875380.65646        38.100          21.100  
  25262704.492 5      -277.810 5      -216.48046     57701.051 5     44666.21146
  25262697.42646        39.400          22.300  
  22505221.289 6      3270.536 6      2548.46948  -3612037.121 6  -2785184.33248
  22505217.59448        45.700          35.000  
  21956638.516 6      2719.054 6      2118.74148  -2798707.867 6  -2162387.68048
  21956633.80148        47.200          39.900  
  20733371.188 7       199.058 7       155.11149   -586586.090 7   -441271.63349
  20733366.30949        50.800          41.900  
  24216871.336 5       358.973 5       279.71847   -677702.922 5   -523074.52747
  24216865.69547        41.700          28.900  
 08  1 20 18 49 40.0000000  0 12G02G04G05G06G10G12G13G23G24G29G30G31    0.000259756
  20828500.938 7     -1397.236 7     -1088.75648   1257507.816 7    968234.24248
  20828493.91048        50.500          40.600  
  23836154.992 5     -3147.413 5     -2452.53146   3331950.305 5   2556113.41846
  23836151.25046        40.600          25.600  
  20786308.555 7     -1235.036 7      -962.36649    985953.887 7    761696.63749
  20786303.89549        50.000          41.800  
  23023922.156 5      3193.212 5      2488.21647  -3350192.008 5  -2589692.80547
  23023917.32447        41.600          29.600  
  22116121.961 6      3157.071 6      2460.05448  -3618839.656 6  -2767863.29748
  22116117.69548        44.500          35.300  
  21437809.375 7     -1847.660 7     -1439.73649   1692638.992 7   1308869.07449
  21437804.04749        49.800          41.700  
  24873765.148 4      1702.718 4      1326.78746   -835926.332 4   -639344.19946
  24873760.88746        37.700          20.400  
  25262971.172 5      -281.256 5      -219.16146     59107.332 5     45762.01646
  25262964.90646        40.300          22.500  
  22502111.109 6      3268.587 6      2546.95248  -3628380.055 6  -2797919.09048
  22502107.85548        45.100          35.200  
  21954052.406 7      2717.424 7      2117.47348  -2812294.988 7  -2172975.04748
  21954047.82048        47.900          40.200  
  20733184.984 7       195.137 7       152.05549   -587561.773 7   -442031.91049
  20733180.58249        51.200          42.200  
  24216532.836 6       355.530 6       277.03547   -679480.570 6   -524459.70347
  24216527.43447        42.500          29.700  
 08  1 20 18 49 45.0000000  0 12G02G04G05G06G10G12G13G23G24G29G30G31    0.000258778
  20829833.055 7     -1399.966 7     -1090.88148   1264507.645 7    973688.64848
  20829825.58648        50.000          40.300  
  23839150.828 4     -3148.452 4     -2453.33747   3347692.563 4   2568380.10247
  23839146.98047        38.900          26.500  
  20787487.148 7     -1238.627 7      -965.16349    992147.023 7    766522.45349
  20787482.31349        50.200          41.700  
  23020885.242 5      3191.980 5      2487.25747  -3366151.906 5  -2602129.09047
  23020880.22347        41.100          29.700  
  22113120.734 6      3154.230 6      2457.84148  -3634610.809 6  -2780152.50048
  22113117.05948        43.600          34.900  
  21439570.109 7     -1850.743 7     -1442.13648   1701892.707 7   1316079.75448
  21439564.73848        49.000          41.100  
  24872147.891 4      1699.409 4      1324.21146   -844423.379 4   -645965.25446
  24872143.68846        37.500          19.600  
  25263241.805 4      -284.801 4      -221.92646     60531.336 4     46871.64546
  25263235.51646        38.500          22.600  
  22499003.414 6      3266.550 6      2545.36048  -3644712.805 6  -2810645.89148
  22498999.69948        44.600          35.300  
  21951468.984 7      2715.712 7      2116.13748  -2825873.547 7  -2183555.73448
  21951464.36348        48.300          40.100  
  20733003.227 7       191.149 7       148.94649   -588517.520 7   -442776.64149
  20732998.89549        50.900          41.800  
  24216198.070 6       352.015 6       274.29647   -681240.645 6   -525831.18447
  24216192.53547        43.400          30.200  
 08  1 20 18 49 50.0000000  0 12G02G04G05G06G10G12G13G23G24G29G30G31    0.000257801
  20831167.594 7     -1402.689 7     -1093.00448   1271521.090 7    979153.66848
  20831160.25848        50.200          40.800  
  23842147.297 5     -3149.477 5     -2454.13646   3363439.949 5   2580650.78146
  23842143.52046        39.900          26.000  
  20788668.938 7     -1242.215 7      -967.95949    998358.098 7    771362.25049
  20788663.91449        50.100          41.600  
  23017848.531 5      3190.741 5      2486.29247  -3382105.609 5  -2614560.55147
  23017844.42647        40.800          29.900  
  22110122.273 6      3151.388 6      2455.62648  -3650367.750 6  -2792430.63348
  22110118.34448        43.600          34.800  
  21441333.938 7     -1853.819 7     -1444.53449   1711161.801 7   1323302.42249
  21441328.46549        49.200          41.300  
  24870534.617 4      1696.093 4      1321.63446   -852903.844 4   -652573.42246
  24870529.87546        38.100          19.900  
  25263516.633 5      -288.334 5      -224.67146     61973.004 5     47995.00046
  25263510.13346        40.000          22.200  
  22495897.016 6      3264.526 6      2543.78748  -3661035.434 6  -2823364.82448
  22495893.87148        44.000          35.000  
  21948886.734 7      2714.005 7      2114.80948  -2839443.570 7  -2194129.77748
  21948881.89148        47.600          40.200  
  20732825.250 7       187.156 7       145.83749   -589453.301 7   -443505.82449
  20732820.60549        51.100          41.500  
  24215866.734 6       348.500 6       271.55947   -682983.145 6   -527188.97747
  24215860.76647        43.300          29.400  
 08  1 20 18 49 55.0000000  0 12G02G04G05G06G10G12G13G23G24G29G30G31    0.000256824
  20832504.672 7     -1405.291 7     -1095.03348   1278547.543 7    984628.83248
  20832497.35248        50.700          40.700  
  23845144.891 5     -3150.374 5     -2454.83846   3379191.816 5   2592924.97346
  23845140.71946        39.300          26.000  
  20789854.156 7     -1245.682 7      -970.66248   1004586.508 7    776215.55948
  20789849.40248        50.800          41.200  
  23014814.414 5      3189.631 5      2485.42747  -3398053.766 5  -2626987.68447
  23014809.34847        40.300          30.000  
  22107126.883 6      3148.659 6      2453.49948  -3666111.043 6  -2804698.12948
  22107122.27348        43.800          34.900  
  21443100.531 7     -1856.776 7     -1446.83948   1720445.680 7   1330536.61748
  21443095.53948        49.100          41.000  
  24868922.680 4      1692.902 4      1319.14346   -861368.355 4   -659169.13746
  24868919.43846        38.100          19.900  
  25263794.797 5      -291.742 5      -227.33346     63431.715 5     49131.66446
  25263787.73446        39.300          21.800  
  22492792.586 6      3262.627 6      2542.30648  -3677348.570 6  -2836076.35548
  22492789.24648        44.000          34.100  
  21946305.828 6      2712.425 6      2113.57848  -2853005.695 6  -2204697.66848
  21946301.38748        47.200          39.500  
  20732651.242 7       183.292 7       142.82449   -590369.762 7   -444219.94549
  20732646.58249        50.800          41.300  
  24215538.242 6       345.106 6       268.91447   -684708.676 6   -528533.54747
  24215533.02347        43.000          30.100  
 08  1 20 18 50  0.0000000  0 12G02G04G05G06G10G12G13G23G24G29G30G31    0.000255850
  20833844.469 7     -1407.909 7     -1097.07348   1285587.086 7    990114.19548
  20833836.69548        50.700          40.600  
  23848143.625 5     -3151.297 5     -2455.55246   3394948.301 5   2605202.73446
  23848139.13346        39.900          24.900  
  20791042.977 7     -1249.166 7      -973.37749   1010832.340 7    781082.44149
  20791037.75049        50.900          41.300  
  23011780.563 5      3188.492 5      2484.54047  -3413996.227 5  -2639410.38347
  23011775.80947        40.800          29.900  
  22104133.336 6      3145.914 6      2451.35948  -3681840.613 6  -2816954.92648
  22104129.13348        44.500          34.900  
  21444870.047 7     -1859.746 7     -1449.15248   1729744.410 7   1337782.37948
  21444864.55148        49.100          41.200  
  24867315.523 4      1689.691 4      1316.65046   -869816.809 4   -665752.38746
  24867311.48046        37.700          20.900  
  25264075.773 5      -295.164 5      -229.99646     64907.535 5     50281.64346
  25264068.09446        39.400          21.100  
  22489690.250 6      3260.707 6      2540.80948  -3693652.105 6  -2848780.39848
  22489686.62948        43.600          34.800  
  21943726.398 6      2710.820 6      2112.32648  -2866559.793 6  -2215259.29748
  21943722.11348        47.300          39.800  
  20732480.117 7       179.408 7       139.79849   -591266.801 7   -444918.93849
  20732475.66049        50.800          41.500  
  24215213.133 6       341.697 6       266.25947   -686417.160 6   -529864.84447
  24215207.88747        43.100          29.900  
 08  1 20 18 50  5.0000000  0 12G02G04G05G06G10G12G13G23G24G29G30G31    0.000254875
  20835186.133 7     -1410.515 7     -1099.10348   1292639.660 7    995609.71148
  20835178.77348        50.900          40.600  
  23851143.055 5     -3152.209 5     -2456.26846   3410709.348 5   2617484.07446
  23851138.19946        40.200          24.800  
  20792234.734 7     -1252.642 7      -976.08449   1017095.551 7    785962.85949
  20792229.66049        50.900          41.300  
  23008747.539 5      3187.375 5      2483.66947  -3429933.102 5  -2651828.73047
  23008743.46947        39.900          30.700  
  22101142.211 6      3143.180 6      2449.23248  -3697556.512 6  -2829201.08648
  22101138.48448        45.100          35.400  
  21446642.320 7     -1862.712 7     -1451.46348   1739057.969 7   1345039.69148
  21446637.13348        48.500          40.800  
  24865710.445 4      1686.505 4      1314.14546   -878249.336 4   -672323.10946
  24865706.83646        37.400          20.600  
  25264359.695 5      -298.573 5      -232.66046     66400.402 5     51444.94146
  25264352.63346        39.400          21.100  
  22486589.352 6      3258.789 6      2539.31548  -3709946.051 6  -2861476.97348
  22486586.53548        43.800          34.400  
  21941148.820 7      2709.215 7      2111.07648  -2880105.867 7  -2225814.67648
  21941144.26648        47.800          40.100  
  20732313.117 7       175.527 7       136.77549   -592144.434 7   -445602.81349
  20732308.22349        50.300          41.500  
  24214891.234 6       338.300 6       263.60747   -688108.660 6   -531182.87947
  24214886.05147        43.800          29.700  
 08  1 20 18 50 10.0000000  0 12G02G04G05G06G10G12G13G23G24G29G30G31    0.000253902
  20836530.867 7     -1413.081 7     -1101.10248   1299705.066 7   1001115.21948
  20836523.24248        51.100          40.800  
  23854142.891 5     -3153.068 5     -2456.93547   3426474.688 5   2629768.75047
  23854138.58247        41.100          26.700  
  20793429.859 7     -1256.073 7      -978.75849   1023375.918 7    790856.64849
  20793424.80549        51.000          41.300  
  23005716.164 5      3186.298 5      2482.82747  -3445864.594 5  -2664242.86747
  23005711.68847        40.700          30.900  
  22098154.594 6      3140.481 6      2447.12648  -3713258.918 6  -2841436.71948
  22098150.04348        46.000          35.700  
  21448417.547 7     -1865.626 7     -1453.73248   1748386.098 7   1352308.35248
  21448412.16048        48.900          40.700  
  24864109.055 4      1683.346 4      1311.69646   -886666.066 4   -678881.59046
  24864105.09046        38.400          20.400  
  25264647.047 5      -301.958 5      -235.29546     67910.191 5     52621.41446
  25264639.97746        40.500          22.200  
  22483490.969 6      3256.912 6      2537.85148  -3726230.609 6  -2874166.22748
  22483487.29348        44.000          35.200  
  21938572.492 6      2707.662 6      2109.86548  -2893644.176 6  -2236364.00048
  21938568.09848        47.300          39.900  
  20732149.953 7       171.694 7       133.78649   -593002.902 7   -446271.74249
  20732144.66049        49.900          41.300  
  24214572.281 6       334.937 6       260.99147   -689783.344 6   -532487.83647
  24214567.00047        43.600          29.600  
 08  1 20 18 50 15.0000000  0 12G02G04G05G06G10G12G13G23G24G29G30G31    0.000252932
  20837877.727 7     -1415.793 7     -1103.21648   1306784.031 7   1006631.30148
  20837870.28548        50.200          40.700  
  23857143.648 5     -3154.071 5     -2457.71647   3442245.043 5   2642057.32847
  23857139.63747        40.400          27.600  
  20794628.266 7     -1259.641 7      -981.53949   1029674.121 7    795764.34449
  20794623.56349        51.100          41.300  
  23002685.695 5      3185.065 5      2481.86847  -3461789.918 5  -2676652.20747
  23002681.16447        41.300          31.000  
  22095169.289 6      3137.630 6      2444.90648  -3728947.070 6  -2853661.24648
  22095165.05148        45.600          35.600  
  21450195.367 7     -1868.691 7     -1456.12348   1757729.555 7   1359588.96948
  21450190.00048        49.500          40.600  
  24862510.719 4      1680.008 4      1309.10546   -895066.105 4   -685427.11746
  24862506.50446        38.100          20.600  
  25264937.664 5      -305.470 5      -238.02746     69437.543 5     53811.55146
  25264930.27746        40.800          22.000  
  22480393.563 6      3254.880 6      2536.27048  -3742505.008 6  -2886847.57448
  22480390.37548        44.100          34.800  
  21935997.734 7      2705.952 7      2108.53548  -2907173.938 7  -2246906.67648
  21935992.98848        48.200          40.300  
  20731990.383 7       167.707 7       130.68049   -593841.438 7   -446925.14549
  20731985.29349        50.400          41.300  
  24214257.359 6       331.436 6       258.26447   -691440.523 6   -533779.15647
  24214251.75447        43.400          28.800  
 08  1 20 18 50 20.0000000  0 12G02G04G05G06G10G12G13G23G24G29G30G31    0.000251961
  20839227.234 7     -1418.427 7     -1105.26848   1313876.168 7   1012157.64148
  20839220.02748        50.600          40.700  
  23860145.539 5     -3155.019 5     -2458.45646   3458020.137 5   2654349.60546
  23860141.27346        40.400          26.200  
  20795830.156 7     -1263.148 7      -984.27049   1035989.863 7    800685.69549
  20795825.24249        51.300          41.300  
  22999655.992 5      3183.903 5      2480.96447  -3477709.434 5  -2689057.02747
  22999651.82847        41.900          30.900  
  22092186.578 6      3134.845 6      2442.73448  -3744621.297 6  -2865874.91848
  22092182.28548        45.800          35.300  
  21451976.508 7     -1871.680 7     -1458.45248   1767087.957 7   1366881.23048
  21451970.97748        49.300          40.400  
  24860914.891 3      1676.792 3      1306.59146   -903450.066 3   -691960.07046
  24860910.91846        36.600          19.900  
  25265231.242 4      -308.930 4      -240.73146     70982.192 4     55015.20546
  25265224.57846        38.400          22.900  
  22477298.867 6      3252.926 6      2534.74648  -3758769.637 6  -2899521.30548
  22477294.97348        45.700          35.000  
  21933424.875 7      2704.317 7      2107.25948  -2920695.523 7  -2257442.97348
  21933419.81348        47.700          39.800  
  20731834.633 7       163.792 7       127.63149   -594660.398 7   -447563.30149
  20731829.69549        51.000          41.300  
  24213945.125 6       327.999 6       255.58447   -693080.520 6   -535057.07447
  24213939.55547        43.300          29.700  
 08  1 20 18 50 25.0000000  0 12G02G04G05G06G10G12G13G23G24G29G30G31    0.000250992
  20840579.719 7     -1421.083 7     -1107.33848   1320981.582 7   1017694.33248
  20840571.87948        50.700          40.500  
  23863148.039 5     -3155.963 5     -2459.18946   3473799.953 5   2666645.55146
  23863144.27046        40.700          26.000  
  20797035.367 7     -1266.668 7      -987.01449   1042323.203 7    805620.76649
  20797030.39149        50.900          41.300  
  22996628.391 5      3182.723 5      2480.04247  -3493623.051 5  -2701457.23847
  22996623.28547        41.800          30.500  
  22089206.484 6      3132.058 6      2440.56548  -3760281.586 6  -2878077.74248
  22089202.43848        45.800          35.500  
  21453759.797 7     -1874.690 7     -1460.79548   1776461.406 7   1374185.20348
  21453754.67248        48.900          40.700  
  24859322.930 4      1673.531 4      1304.03846   -911817.719 4   -698480.26246
  24859318.68846        37.700          20.400  
  25265529.063 4      -312.394 4      -243.42146     72544.164 4     56232.31346
  25265521.97746        39.100          22.800  
  22474205.773 6      3250.959 6      2533.21548  -3775024.434 6  -2912187.37948
  22474201.84848        45.200          35.300  
  21930853.109 6      2702.666 6      2105.97248  -2934208.852 6  -2267972.83248
  21930848.36748        47.500          39.700  
  20731682.305 7       159.863 7       124.57049   -595459.715 7   -448186.14849
  20731677.44149        50.200          41.500  
  24213635.875 6       324.542 6       252.89147   -694703.230 6   -536321.52747
  24213630.73047        43.600          29.400  
 08  1 20 18 50 30.0000000  0 12G02G04G05G06G10G12G13G23G24G29G30G31    0.000250023
  20841934.352 7     -1423.695 7     -1109.37248   1328100.059 7   1023241.19148
  20841926.53148        50.900          40.500  
  23866151.406 5     -3156.855 5     -2459.88746   3489584.230 5   2678944.98446
  23866147.88346        40.600          25.700  
  20798244.000 7     -1270.136 7      -989.71649   1048673.883 7    810569.34449
  20798239.21149        51.300          41.300  
  22993600.797 6      3181.591 6      2479.16347  -3509531.004 6  -2713853.05147
  22993596.25847        42.500          30.900  
  22086228.797 6      3129.301 6      2438.41548  -3775928.090 6  -2890269.81648
  22086225.00848        45.900          35.800  
  21455546.398 7     -1877.655 7     -1463.10948   1785849.680 7   1381500.74648
  21455541.09448        49.600          40.900  
  24857734.039 4      1670.312 4      1301.53946   -920169.277 4   -704987.95746
  24857729.65246        37.700          21.500  
  25265829.969 4      -315.820 4      -246.09246     74123.262 4     57462.77146
  25265822.34046        38.900          23.600  
  22471114.805 6      3249.021 6      2531.70448  -3791269.539 6  -2924845.89848
  22471110.94148        45.500          35.500  
  21928283.219 7      2701.055 7      2104.71948  -2947714.129 7  -2278496.43048
  21928278.87148        47.600          39.800  
  20731533.906 7       155.978 7       121.54148   -596239.605 7   -448793.85548
  20731529.41848        50.200          41.200  
  24213330.555 6       321.145 6       250.24447   -696308.953 6   -537572.74647
  24213325.03147        43.200          29.300  
 08  1 20 18 50 35.0000000  0 12G02G04G05G06G10G12G13G23G24G29G30G31    0.000249056
  20843291.148 7     -1426.228 7     -1111.34848   1335231.199 7   1028797.93048
  20843283.51248        51.500          40.700  
  23869156.469 5     -3157.696 5     -2460.54246   3505372.711 5   2691247.69146
  23869152.58246        40.100          26.200  
  20799455.422 7     -1273.539 7      -992.36848   1055041.578 7    815531.18448
  20799450.37148        50.900          41.100  
  22990574.281 5      3180.526 5      2478.33347  -3525433.633 5  -2726244.71547
  22990570.21947        42.300          31.800  
  22083253.859 6      3126.625 6      2436.32948  -3791561.215 6  -2902451.46148
  22083249.79748        46.200          35.700  
  21457335.648 7     -1880.548 7     -1465.36148   1795252.422 7   1388827.55148
  21457330.12148        48.900          40.800  
  24856148.266 4      1667.148 4      1299.07946   -928505.020 4   -711483.35246
  24856143.78546        37.800          21.500  
  25266131.711 5      -319.159 5      -248.70446     75719.059 5     58706.28946
  25266126.18846        40.400          23.400  
  22468024.930 6      3247.167 6      2530.25948  -3807505.375 6  -2937497.19148
  22468021.69148        45.500          35.300  
  21925715.148 6      2699.516 6      2103.51748  -2961211.707 6  -2289014.01648
  21925710.27048        47.100          39.700  
  20731389.164 7       152.158 7       118.56449   -597000.395 7   -449386.67649
  20731384.51649        50.600          41.800  
  24213028.570 6       317.805 6       247.64047   -697897.977 6   -538810.94547
  24213022.42647        44.500          29.100  
 08  1 20 18 50 40.0000000  0 12G02G04G05G06G10G12G13G23G24G29G30G31    0.000248089
  20844650.531 7     -1428.806 7     -1113.35548   1342375.230 7   1034364.70348
  20844643.44948        50.800          40.600  
  23872162.102 5     -3158.578 5     -2461.22747   3521165.602 5   2703553.82847
  23872157.79347        40.900          26.700  
  20800670.617 7     -1276.984 7      -995.05248   1061426.500 7    820506.44148
  20800665.80148        51.800          41.000  
  22987549.461 6      3179.398 6      2477.45247  -3541330.625 6  -2738631.97347
  22987545.39547        42.800          30.900  
  22080281.961 6      3123.867 6      2434.18248  -3807180.551 6  -2914622.37148
  22080277.61748        46.600          35.700  
  21459127.891 7     -1883.484 7     -1467.65049   1804669.844 7   1396165.80149
  21459122.57849        49.900          41.500  
  24854564.617 4      1663.948 4      1296.58246   -936824.758 4   -717966.26246
  24854560.20746        37.800          20.600  
  25266439.805 5      -322.568 5      -251.34946     77331.898 5     59963.03546
  25266433.12946        39.800          22.900  
  22464936.969 6      3245.257 6      2528.77148  -3823731.660 6  -2950141.04748
  22464933.60248        45.200          35.200  
  21923148.039 6      2697.925 6      2102.28048  -2974701.332 6  -2299525.41448
  21923143.25048        47.500          39.800  
  20731248.211 7       148.301 7       115.56049   -597741.898 7   -449964.47749
  20731243.27049        50.900          41.700  
  24212728.883 6       314.421 6       245.00147   -699470.082 6   -540035.94947
  24212723.35247        42.800          29.300  
 08  1 20 18 50 45.0000000  0 12G02G04G05G06G10G12G13G23G24G29G30G31    0.000247124
  20846012.438 7     -1431.407 7     -1115.38248   1349532.266 7   1039941.61348
  20846005.09848        50.800          40.600  
  23875167.875 5     -3159.480 5     -2461.93447   3536963.000 5   2715863.49647
  23875163.69547        41.900          26.300  
  20801888.781 7     -1280.456 7      -997.75948   1067828.781 7    825495.23848
  20801883.98848        51.500          41.100  
  22984525.469 6      3178.273 6      2476.57647  -3557221.992 6  -2751014.85247
  22984521.15247        42.700          31.100  
  22077311.945 6      3121.109 6      2432.03248  -3822786.094 6  -2926782.53148
  22077307.80148        46.400          35.700  
  21460922.766 7     -1886.431 7     -1469.94549   1814102.000 7   1403515.52749
  21460917.43849        49.600          41.300  
  24852984.125 4      1660.735 4      1294.08546   -945128.434 4   -724436.68846
  24852979.92246        38.300          20.900  
  25266749.492 4      -325.987 4      -254.02046     78961.832 4     61233.13346
  25266743.01646        38.600          22.200  
  22461851.156 6      3243.327 6      2527.26448  -3839948.293 6  -2962777.36748
  22461847.44148        46.500          34.800  
  21920582.781 7      2696.315 7      2101.02448  -2988182.906 7  -2310030.53548
  21920577.55548        47.600          39.800  
  20731110.680 7       144.409 7       112.52649   -598463.945 7   -450527.10549
  20731106.04349        50.000          41.500  
  24212433.516 6       311.020 6       242.35347   -701025.180 6   -541247.71547
  24212427.65647        44.100          29.400  
 08  1 20 18 50 50.0000000  0 12G02G04G05G06G10G12G13G23G24G29G30G31    0.000246161
  20847376.758 7     -1434.087 7     -1117.47048   1356702.699 7   1045528.96548
  20847369.66848        51.000          40.600  
  23878175.102 5     -3160.456 5     -2462.69347   3552765.281 5   2728176.96147
  23878170.62147        41.300          27.100  
  20803110.398 7     -1283.999 7     -1000.51948   1074248.777 7    830497.83248
  20803105.69548        51.000          41.200  
  22981502.781 5      3177.047 5      2475.62147  -3573107.227 5  -2763392.95747
  22981498.10947        42.100          30.400  
  22074345.016 6      3118.251 6      2429.80448  -3838377.348 6  -2938931.55148
  22074340.89848        46.600          36.200  
  21462720.773 7     -1889.467 7     -1472.31249   1823549.336 7   1410877.08649
  21462715.10249        48.900          41.400  
  24851407.820 4      1657.427 4      1291.49846   -953415.570 4   -730894.18046
  24851402.98446        37.700          21.700  
  25267064.297 4      -329.500 4      -256.75246     80609.332 4     62516.89546
  25267056.72346        38.400          22.800  
  22458766.969 6      3241.314 6      2525.69848  -3856154.863 6  -2975405.85948
  22458763.49648        46.100          34.800  
  21918018.258 7      2694.614 7      2099.69848  -3001655.977 7  -2320529.02748
  21918013.86348        47.800          39.700  
  20730977.031 7       140.445 7       109.43849   -599166.172 7   -451074.29349
  20730971.84849        50.500          41.700  
  24212140.930 6       307.540 6       239.64447   -702562.879 6   -542445.93447
  24212135.31347        43.300          29.200  
 08  1 20 18 50 55.0000000  0 12G02G04G05G06G10G12G13G23G24G29G30G31    0.000245197
  20848743.781 7     -1436.574 7     -1119.40948   1363885.570 7   1051126.01248
  20848736.77348        51.500          40.400  
  23881182.570 5     -3161.238 5     -2463.29947   3568571.469 5   2740493.45747
  23881179.24647        41.400          27.600  
  20804335.609 7     -1287.355 7     -1003.13349   1080685.555 7    835513.49649
  20804330.67249        51.200          41.300  
  22978480.922 5      3176.011 5      2474.81447  -3588987.281 5  -2775767.02747
  22978476.82047        40.900          31.100  
  22071380.805 6      3115.598 6      2427.73848  -3853955.340 6  -2951070.23848
  22071376.77048        45.300          36.600  
  21464520.836 7     -1892.312 7     -1474.52948   1833010.895 7   1418249.73048
  21464515.83248        49.300          41.200  
  24849833.703 4      1654.304 4      1289.06046   -961687.090 4   -737339.48046
  24849828.76646        37.800          22.000  
  25267379.617 4      -332.789 4      -259.32646     82273.277 4     63813.52346
  25267373.29346        38.400          22.500  
  22455684.422 6      3239.488 6      2524.27548  -3872352.301 6  -2988027.23448
  22455681.08648        45.900          34.600  
  21915455.961 7      2693.109 7      2098.52648  -3015121.523 7  -2331021.65648
  21915451.63748        47.800          39.400  
  20730847.383 7       136.671 7       106.49749   -599849.527 7   -451606.77749
  20730842.26249        50.800          41.300  
  24211850.984 6       304.234 6       237.06847   -704084.051 6   -543631.27347
  24211845.55547        43.900          30.000  
 08  1 20 18 51  0.0000000  0 12G02G04G05G06G10G12G13G23G24G29G30G31    0.000244234
  20850113.250 7     -1439.059 7     -1121.34348   1371080.863 7   1056732.72748
  20850105.92248        51.200          40.900  
  23884190.781 5     -3162.018 5     -2463.90947   3584381.559 5   2752813.00047
  23884187.31347        40.500          27.000  
  20805563.438 7     -1290.699 7     -1005.74049   1087139.051 7    840542.19549
  20805558.25849        51.100          41.500  
  22975459.648 5      3174.995 5      2474.02147  -3604862.258 5  -2788137.13347
  22975455.60947        41.900          30.200  
  22068418.859 6      3112.954 6      2425.67748  -3869520.109 6  -2963198.62548
  22068414.98448        45.000          36.400  
  21466324.086 7     -1895.143 7     -1476.73448   1842486.609 7   1425633.39848
  21466318.65248        49.500          41.200  
  24848261.852 4      1651.210 4      1286.66246   -969943.141 4   -743772.78946
  24848258.14146        38.300          21.700  
  25267699.805 4      -336.098 4      -261.88846     83953.766 4     65122.96546
  25267693.03546        38.100          22.500  
  22452603.680 6      3237.672 6      2522.85948  -3888540.660 6  -3000641.52748
  22452600.69148        45.700          34.600  
  21912894.828 7      2691.612 7      2097.36048  -3028579.582 7  -2341508.45748
  21912890.33648        48.200          39.900  
  20730720.438 7       132.904 7       103.56249   -600514.047 7   -452124.58649
  20730715.58649        50.600          41.300  
  24211565.031 6       300.960 6       234.51247   -705588.852 6   -544803.83647
  24211559.34447        43.500          30.100  
 08  1 20 18 51  5.0000000  0 12G02G04G05G06G10G12G13G23G24G29G30G31    0.000243273
  20851484.688 7     -1441.545 7     -1123.28148   1378288.590 7   1062349.13348
  20851477.72348        51.100          41.100  
  23887200.680 5     -3162.816 5     -2464.52946   3600195.637 5   2765135.64546
  23887197.08646        41.300          25.200  
  20806794.680 7     -1294.066 7     -1008.36349   1093609.379 7    845584.01249
  20806789.97349        51.200          41.900  
  22972440.102 5      3173.958 5      2473.21447  -3620732.047 5  -2800503.20347
  22972435.94547        42.200          30.100  
  22065459.594 6      3110.278 6      2423.59248  -3885071.500 6  -2975316.58648
  22065455.77048        45.500          36.000  
  21468130.180 7     -1897.990 7     -1478.95448   1851976.559 7   1433028.16848
  21468124.78548        49.200          40.900  
  24846694.883 4      1648.063 4      1284.20646   -978183.457 4   -750193.82046
  24846689.48046        38.200          21.500  
  25268021.961 5      -339.401 5      -264.46746     85650.770 5     66445.30146
  25268016.19946        39.500          23.000  
  22449525.297 6      3235.841 6      2521.43448  -3904719.863 6  -3013248.69948
  22449521.54748        45.300          35.000  
  21910335.211 7      2690.096 7      2096.17748  -3042030.063 7  -2351989.34448
  21910330.75048        48.000          39.700  
  20730597.852 7       129.120 7       100.61349   -601159.648 7   -452627.65249
  20730593.15249        50.800          41.600  
  24211281.617 6       297.658 6       231.94147   -707077.141 6   -545963.53947
  24211276.12147        43.300          29.800  
 08  1 20 18 51 10.0000000  0 12G02G04G05G06G10G12G13G23G24G29G30G31    0.000242311
  20852858.867 7     -1444.083 7     -1125.25948   1385509.004 7   1067975.43048
  20852851.38348        50.400          40.900  
  23890210.906 5     -3163.648 5     -2465.17946   3616013.879 5   2777461.53946
  23890206.69946        41.900          26.100  
  20808029.023 7     -1297.469 7     -1011.01348   1100096.723 7    850639.07848
  20808024.43848        50.400          41.200  
  22969421.258 5      3172.866 5      2472.35947  -3636596.375 5  -2812864.99647
  22969416.65647        42.000          30.000  
  22062502.891 6      3107.561 6      2421.47548  -3900609.305 6  -2987423.96148
  22062498.81648        46.700          35.800  
  21469938.617 7     -1900.887 7     -1481.21048   1861480.996 7   1440434.21948
  21469933.63748        49.300          40.900  
  24845129.234 4      1644.893 4      1281.73046   -986407.922 4   -756602.47346
  24845124.45746        37.500          21.700  
  25268348.281 5      -342.773 5      -267.09846     87364.637 5     67780.78946
  25268342.26246        39.400          22.800  
  22446448.305 6      3233.951 6      2519.95848  -3920889.617 6  -3025848.48848
  22446444.77048        46.600          35.100  
  21907777.531 7      2688.527 7      2094.95648  -3055472.695 7  -2362464.12148
  21907772.62548        47.900          39.600  
  20730478.492 7       125.284 7        97.62348   -601786.066 7   -453115.77048
  20730473.68048        50.200          41.200  
  24211001.547 6       294.308 6       229.33047   -708548.680 6   -547110.18847
  24210996.35547        43.800          30.200  
 08  1 20 18 51 15.0000000  0 12G02G04G05G06G10G12G13G23G24G29G30G31    0.000241350
  20854235.172 7     -1446.634 7     -1127.24748   1392742.172 7   1073611.66448
  20854227.98048        50.300          40.800  
  23893222.180 5     -3164.501 5     -2465.84147   3631836.387 5   2789790.74647
  23893217.78147        42.100          27.100  
  20809267.016 7     -1300.884 7     -1013.67548   1106601.145 7    855707.45348
  20809261.89148        50.300          41.200  
  22966403.313 5      3171.757 5      2471.50247  -3652455.160 5  -2825222.50847
  22966399.12147        41.800          31.000  
  22059549.156 6      3104.820 6      2419.34148  -3916133.406 6  -2999520.66848
  22059544.80548        47.000          36.500  
  21471749.703 7     -1903.794 7     -1483.47548   1870999.965 7   1447851.59448
  21471744.78948        48.900          40.700  
  24843567.758 4      1641.702 4      1279.25146   -994616.430 4   -762998.72746
  24843562.59446        38.000          21.800  
  25268678.055 4      -346.138 4      -269.71946     89095.324 4     69129.38346
  25268671.92246        37.600          22.200  
  22443373.305 6      3232.052 6      2518.48348  -3937049.875 6  -3038440.90248
  22443369.71948        45.300          35.500  
  21905220.922 7      2686.959 7      2093.73348  -3068907.492 7  -2372932.78548
  21905216.97748        48.000          39.700  
  20730362.688 7       121.446 7        94.63348   -602393.297 7   -453588.93448
  20730358.32848        49.800          41.200  
  24210724.563 6       290.953 6       226.71447   -710003.445 6   -548243.75847
  24210719.34047        43.700          30.600  
 08  1 20 18 51 20.0000000  0 12G02G04G05G06G10G12G13G23G24G29G30G31    0.000240393
  20855613.969 7     -1449.187 7     -1129.23548   1399988.105 7   1079257.84048
  20855606.47348        50.800          40.900  
  23896234.078 5     -3165.342 5     -2466.50347   3647663.098 5   2802123.26247
  23896229.34047        42.000          26.500  
  20810508.133 7     -1304.307 7     -1016.34548   1113122.680 7    860789.17648
  20810503.18848        51.000          40.900  
  22963386.461 5      3170.657 5      2470.64147  -3668308.445 5  -2837575.71147
  22963382.05947        41.600          30.400  
  22056597.375 6      3102.083 6      2417.20748  -3931643.824 6  -3011606.70348
  22056593.15248        47.500          37.100  
  21473564.305 7     -1906.695 7     -1485.73548   1880533.438 7   1455280.27048
  21473559.07848        49.600          40.800  
  24842008.063 4      1638.505 4      1276.75246  -1002808.957 4   -769382.48846
  24842003.58246        38.000          20.600  
  25269010.641 4      -349.516 4      -272.34946     90842.902 4     70491.12946
  25269004.48046        38.700          22.000  
  22440299.750 6      3230.148 6      2516.99748  -3953200.613 6  -3051025.88748
  22440296.42648        45.800          35.500  
  21902665.750 7      2685.378 7      2092.50448  -3082334.383 7  -2383395.30548
  21902661.40648        48.400          39.800  
  20730251.008 7       117.596 7        91.63448   -602981.277 7   -454047.10548
  20730246.36748        50.900          41.200  
  24210450.367 6       287.579 6       224.08747   -711441.340 6   -549364.19547
  24210445.53947        43.000          29.800  
 08  1 20 18 51 25.0000000  0 12G02G04G05G06G10G12G13G23G24G29G30G31    0.000239433
  20856995.477 7     -1451.695 7     -1131.19148   1407246.578 7   1084913.79348
  20856987.85548        50.900          40.900  
  23899246.305 6     -3166.147 6     -2467.12947   3663493.832 6   2814458.90647
  23899241.90647        42.600          27.100  
  20811752.484 7     -1307.685 7     -1018.97348   1119661.105 7    865884.04348
  20811747.23448        51.100          41.200  
  22960370.484 5      3169.588 5      2469.80847  -3684156.387 5  -2849924.75047
  22960366.32847        41.100          31.200  
  22053647.977 7      3099.374 7      2415.09448  -3947140.695 7  -3023682.17248
  22053644.29348        47.800          37.000  
  21475381.156 7     -1909.559 7     -1487.96748   1890081.234 7   1462720.10548
  21475376.03948        49.700          40.800  
  24840452.570 4      1635.347 4      1274.30146  -1010985.691 4   -775753.99246
  24840447.62146        38.300          20.600  
  25269346.961 4      -352.859 4      -274.95546     92607.199 4     71865.90246
  25269340.32046        37.500          22.000  
  22437228.031 6      3228.290 6      2515.54948  -3969342.063 6  -3063603.63348
  22437224.45348        46.400          35.100  
  21900111.898 7      2683.829 7      2091.29348  -3095753.527 7  -2393851.77048
  21900107.89148        47.600          40.300  
  20730142.992 7       113.784 7        88.66249   -603550.195 7   -454490.41849
  20730138.50449        51.600          41.400  
  24210180.563 6       284.259 6       221.50247   -712862.633 6   -550471.70347
  24210175.14147        43.000          30.000  
 08  1 20 18 51 30.0000000  0 12G02G04G05G06G10G12G13G23G24G29G30G31    0.000238476
  20858378.922 7     -1454.202 7     -1133.14548   1414517.590 7   1090579.51648
  20858371.55148        50.800          41.100  
  23902259.000 6     -3166.942 6     -2467.74547   3679328.543 6   2826797.63347
  23902255.31647        42.800          26.800  
  20812999.563 7     -1311.052 7     -1021.59848   1126216.363 7    870992.03548
  20812994.62948        50.300          40.900  
  22957356.008 5      3168.529 5      2468.98447  -3699999.031 5  -2862269.67247
  22957351.74247        41.800          31.500  
  22050701.781 6      3096.662 6      2412.98348  -3962624.004 6  -3035747.08648
  22050697.91048        47.200          36.800  
  21477200.445 7     -1912.406 7     -1490.18648   1899643.266 7   1470171.03548
  21477195.38748        49.200          40.800  
  24838899.531 4      1632.197 4      1271.84046  -1019146.676 4   -782113.19146
  24838894.14846        38.000          20.900  
  25269685.250 4      -356.173 4      -277.53246     94388.063 4     73253.56346
  25269678.94546        38.200          22.000  
  22434158.359 6      3226.428 6      2514.10048  -3985474.203 6  -3076174.13348
  22434154.85548        46.800          34.900  
  21897560.211 7      2682.294 7      2090.09848  -3109164.996 7  -2404302.26248
  21897555.93448        48.000          40.400  
  20730037.906 7       109.992 7        85.70749   -604100.156 7   -454918.95349
  20730033.70349        51.000          41.400  
  24209913.156 6       280.951 6       218.92447   -714267.387 6   -551566.32447
  24209907.85547        43.400          30.200  
 08  1 20 18 51 35.0000000  0 12G02G04G05G06G10G12G13G23G24G29G30G31    0.000237520
  20859764.680 7     -1456.684 7     -1135.07848   1421801.012 7   1096254.90648
  20859757.89548        50.200          40.900  
  23905272.953 5     -3167.730 5     -2468.36046   3695167.195 5   2839139.43446
  23905269.19546        42.000          25.700  
  20814250.797 7     -1314.404 7     -1024.21048   1132788.383 7    876113.08648
  20814245.40248        50.700          40.700  
  22954342.102 5      3167.481 5      2468.16747  -3715836.438 5  -2874610.50447
  22954337.63347        41.400          31.300  
  22047757.992 6      3093.990 6      2410.90048  -3978093.953 6  -3047801.58648
  22047753.70748        46.300          36.900  
  21479022.734 7     -1915.253 7     -1492.40548   1909219.531 7   1477633.05948
  21479017.88748        49.200          41.200  
  24837349.445 4      1629.060 4      1269.39846  -1027291.977 4   -788460.18446
  24837344.19946        38.100          21.100  
  25270028.172 4      -359.501 4      -280.12746     96185.566 4     74654.19546
  25270020.77046        38.700          22.000  
  22431090.664 6      3224.591 6      2512.66448  -4001597.156 6  -3088737.45348
  22431086.74648        45.600          34.900  
  21895009.563 7      2680.764 7      2088.90748  -3122568.816 7  -2414746.79748
  21895004.92248        48.300          40.300  
  20729937.078 7       106.209 7        82.76149   -604631.199 7   -455332.75849
  20729932.66049        50.600          41.600  
  24209648.633 6       277.648 6       216.34847   -715655.629 6   -552648.06647
  24209643.71147        43.200          29.600  
 08  1 20 18 51 40.0000000  0 12G02G04G05G06G10G12G13G23G24G29G30G31    0.000236563
  20861153.180 7     -1459.118 7     -1136.97748   1429096.602 7   1101939.78948
  20861146.21948        50.700          40.800  
  23908288.063 6     -3168.452 6     -2468.92147   3711009.453 6   2851484.03947
  23908283.94947        42.600          27.000  
  20815503.898 7     -1317.700 7     -1026.77948   1139376.883 7    881246.98048
  20815498.89548        50.800          40.800  
  22951330.063 5      3166.490 5      2467.39547  -3731668.887 5  -2886947.47747
  22951325.19547        42.000          30.900  
  22044816.453 6      3091.351 6      2408.84548  -3993550.707 6  -3059845.81348
  22044812.60548        46.200          36.000  
  21480847.844 7     -1918.045 7     -1494.57848   1918809.754 7   1485105.94948
  21480842.71948        49.000          40.700  
  24835802.578 4      1625.964 4      1266.98446  -1035421.797 4   -794795.10246
  24835797.46546        37.700          21.100  
  25270373.383 5      -362.755 5      -282.66746     97999.340 5     76067.53146
  25270365.60546        39.900          22.500  
  22428023.797 6      3222.806 6      2511.27948  -4017711.188 6  -3101293.84848
  22428020.08648        45.800          35.100  
  21892460.430 7      2679.281 7      2087.75148  -3135965.223 7  -2425185.55148
  21892455.52048        48.000          40.100  
  20729839.563 7       102.473 7        79.84849   -605143.563 7   -455731.99649
  20729834.95749        50.400          41.800  
  24209387.906 6       274.401 6       213.82247   -717027.633 6   -553717.17647
  24209382.53147        43.000          30.200  
 08  1 20 18 51 45.0000000  0 12G02G04G05G06G10G12G13G23G24G29G30G31    0.000235607
  20862543.602 7     -1461.466 7     -1138.80348   1436403.930 7   1107633.80548
  20862536.62148        51.300          40.800  
  23911303.695 6     -3169.090 6     -2469.41747   3726854.902 6   2863831.12147
  23911299.50447        42.900          26.500  
  20816761.055 7     -1320.910 7     -1029.28048   1145981.434 7    886393.37948
  20816755.56648        51.100          40.900  
  22948317.086 5      3165.567 5      2466.67647  -3747496.723 5  -2899280.85547
  22948312.81347        41.900          31.400  
  22041878.258 6      3088.772 6      2406.83348  -4008994.566 6  -3071879.98048
  22041873.94148        47.100          36.400  
  21482675.695 7     -1920.751 7     -1496.68848   1928413.508 7   1492589.39148
  21482669.98048        48.900          40.800  
  24834257.813 3      1622.968 3      1264.65046  -1043536.637 3   -801118.35246
  24834253.22746        36.800          20.600  
  25270721.164 5      -365.920 5      -285.14446     99828.941 5     77493.25046
  25270713.59446        40.500          22.900  
  22424959.234 6      3221.094 6      2509.94248  -4033816.660 6  -3113843.55948
  22424955.54348        47.000          35.300  
  21889912.211 7      2677.898 7      2086.67348  -3149354.715 7  -2435618.91848
  21889907.68048        48.500          40.000  
  20729745.609 7        98.830 7        77.01249   -605637.715 7   -456117.05949
  20729741.05149        50.900          41.800  
  24209129.938 6       271.243 6       211.35947   -718383.848 6   -554773.96947
  24209124.53947        43.000          29.500  
 08  1 20 18 51 50.0000000  0 12G02G04G05G06G10G12G13G23G24G29G30G31    0.000234652
  20863936.586 7     -1463.901 7     -1140.70248   1443723.434 7   1113337.31348
  20863929.47748        50.700          40.300  
  23914319.164 6     -3169.820 6     -2469.98847   3742704.004 6   2876181.05947
  23914315.23047        43.000          26.900  
  20818020.758 7     -1324.213 7     -1031.85548   1152602.500 7    891552.65248
  20818015.75848        50.000          40.800  
  22945306.477 5      3164.558 5      2465.88647  -3763319.512 5  -2911610.28547
  22945302.50847        42.000          30.700  
  22038941.398 6      3086.137 6      2404.78148  -4024425.254 6  -3083903.88748
  22038937.12548        47.100          36.300  
  21484505.695 7     -1923.534 7     -1498.85748   1938031.176 7   1500083.67648
  21484500.62148        48.900          41.100  
  24832716.758 4      1619.867 4      1262.23446  -1051635.973 4   -807429.52046
  24832712.08246        37.500          19.900  
  25271072.063 4      -369.189 4      -287.68646    101674.887 4     78931.68046
  25271064.98046        38.600          22.300  
  22421895.664 6      3219.292 6      2508.53848  -4049913.121 6  -3126386.25048
  22421892.05548        47.000          34.900  
  21887365.789 7      2676.415 7      2085.51848  -3162736.789 7  -2446046.50848
  21887361.20348        48.800          39.900  
  20729654.820 7        95.094 7        74.09849   -606113.184 7   -456487.54749
  20729650.33649        51.000          41.700  
  24208875.227 6       267.984 6       208.81847   -719723.770 6   -555818.05947
  24208869.69547        43.600          30.200  
 08  1 20 18 51 55.0000000  0 12G02G04G05G06G10G12G13G23G24G29G30G31    0.000233698
  20865331.883 7     -1466.373 7     -1142.62848   1451055.297 7   1119050.45348
  20865324.70348        49.300          40.400  
  23917336.523 6     -3170.584 6     -2470.58747   3758556.926 6   2888533.99247
  23917332.02347        42.700          27.100  
  20819283.711 7     -1327.554 7     -1034.45848   1159240.270 7    896724.94148
  20819278.59848        49.500          40.600  
  22942296.188 6      3163.525 6      2465.08647  -3779137.137 6  -2923935.71547
  22942292.27347        43.000          30.900  
  22036007.750 6      3083.441 6      2402.67848  -4039842.457 6  -3095917.27748
  22036003.59448        47.500          36.300  
  21486338.617 7     -1926.348 7     -1501.04948   1947662.918 7   1507588.92248
  21486333.29348        49.500          41.000  
  24831178.789 4      1616.719 4      1259.78346  -1059719.570 4   -813728.43446
  24831173.96946        38.800          21.100  
  25271425.711 4      -372.484 4      -290.24846    103537.305 4     80382.91846
  25271419.28546        37.700          22.300  
  22418834.297 6      3217.452 6      2507.10348  -4066000.379 6  -3138921.76648
  22418830.87948        46.800          34.600  
  21884820.813 7      2674.900 7      2084.33748  -3176111.289 7  -2456468.19548
  21884816.32448        48.500          39.900  
  20729568.109 7        91.320 7        71.15949   -606569.781 7   -456843.34449
  20729563.74649        50.700          41.700  
  24208623.000 6       264.695 6       206.25847   -721047.246 6   -556849.34847
  24208617.93047        42.600          29.300  
 08  1 20 18 52  0.0000000  0 12G02G04G05G06G10G12G13G23G24G29G30G31    0.000232744
  20866729.281 7     -1468.821 7     -1144.53548   1458399.402 7   1124773.12948
  20866721.90248        48.200          40.700  
  23920353.656 6     -3171.327 6     -2471.16447   3774413.563 6   2900889.81347
  23920349.16447        43.100          26.500  
  20820550.234 7     -1330.870 7     -1037.04048   1165894.621 7    901910.14148
  20820545.57448        49.700          40.500  
  22939287.031 6      3162.491 6      2464.27747  -3794949.590 6  -2936257.10247
  22939283.30147        42.800          31.100  
  22033076.617 6      3080.774 6      2400.60548  -4055246.328 6  -3107920.30148
  22033072.48048        47.200          36.300  
  21488173.859 7     -1929.148 7     -1503.23348   1957308.656 7   1515105.08648
  21488168.64548        49.600          41.000  
  24829643.172 4      1613.604 4      1257.35446  -1067787.590 4   -820015.20346
  24829638.42646        37.900          21.500  
  25271783.445 5      -375.764 5      -292.79946    105416.125 5     81846.91446
  25271776.84446        39.300          22.500  
  22415774.938 6      3215.636 6      2505.69048  -4082078.559 6  -3151450.21548
  22415771.50048        46.800          35.100  
  21882276.852 7      2673.395 7      2083.16548  -3189478.266 7  -2466884.02048
  21882272.57048        48.800          39.800  
  20729484.953 7        87.569 7        68.23549   -607007.625 7   -457184.52049
  20729480.22749        51.100          42.000  
  24208374.734 6       261.416 6       203.70147   -722354.328 6   -557867.85247
  24208369.05147        43.400          30.400  
 08  1 20 18 52  5.0000000  0 12G02G04G05G06G10G12G13G23G24G29G30G31    0.000231791
  20868129.148 7     -1471.263 7     -1146.43948   1465755.719 7   1130505.32448
  20868122.09048        48.600          41.000  
  23923371.867 6     -3172.071 6     -2471.74447   3790273.918 6   2913248.53147
  23923367.61747        43.400          27.200  
  20821819.734 7     -1334.187 7     -1039.62648   1172565.555 7    907108.27048
  20821814.55948        50.200          40.500  
  22936278.492 5      3161.469 5      2463.48147  -3810756.934 5  -2948574.50847
  22936275.10547        41.900          30.800  
  22030147.570 6      3078.096 6      2398.51448  -4070636.809 6  -3119912.87148
  22030143.35248        47.200          36.500  
  21490012.492 7     -1931.944 7     -1505.40948   1966968.375 7   1522632.13348
  21490007.18848        49.900          40.800  
  24828111.922 3      1610.488 3      1254.92446  -1075840.027 3   -826289.82446
  24828105.96946        37.100          21.100  
  25272144.680 5      -379.033 5      -295.35746    107311.289 5     83323.69946
  25272138.07846        39.800          22.600  
  22412716.758 6      3213.822 6      2504.27448  -4098147.668 6  -3163971.58648
  22412713.78548        46.300          34.800  
  21879734.695 7      2671.902 7      2082.00148  -3202837.773 7  -2477294.02348
  21879730.45348        48.500          40.100  
  20729405.102 7        83.812 7        65.30849   -607426.684 7   -457511.05949
  20729400.47349        51.000          41.300  
  24208128.789 6       258.167 6       201.17047   -723645.164 6   -558873.69947
  24208123.57847        44.300          30.800  
 08  1 20 18 52 10.0000000  0 12G02G04G05G06G10G12G13G23G24G29G30G31    0.000230837
  20869531.320 7     -1473.580 7     -1148.24548   1473123.621 7   1136246.54748
  20869523.75848        49.300          40.600  
  23926389.609 6     -3172.686 6     -2472.22447   3806137.348 6   2925609.65247
  23926385.97347        43.400          27.700  
  20823092.133 7     -1337.378 7     -1042.11448   1179252.445 7    912318.84048
  20823087.30148        50.000          40.800  
  22933272.250 5      3160.563 5      2462.77647  -3826559.750 5  -2960888.38747
  22933267.98847        41.400          31.100  
  22027221.523 6      3075.526 6      2396.51348  -4086014.438 6  -3131895.43848
  22027217.16048        47.500          36.400  
  21491852.992 7     -1934.618 7     -1507.49548   1976641.465 7   1530169.60548
  21491847.96548        49.600          40.600  
  24826581.852 5      1607.490 5      1252.58746  -1083877.477 5   -832552.75846
  24826576.41846        39.400          21.300  
  25272507.664 4      -382.200 4      -297.81946    109222.289 4     84812.79346
  25272502.12146        38.400          22.300  
  22409661.172 6      3212.112 6      2502.94448  -4114208.227 6  -3176486.30548
  22409657.57448        46.700          34.900  
  21877193.820 7      2670.523 7      2080.92748  -3216190.391 7  -2487698.66048
  21877189.40648        47.900          39.800  
  20729328.844 7        80.173 7        62.47349   -607827.551 7   -457823.42249
  20729323.88749        50.800          41.400  
  24207886.203 6       255.005 6       198.70347   -724920.188 6   -559867.21547
  24207880.73447        43.900          30.400  
 08  1 20 18 52 15.0000000  0 12G02G04G05G06G10G12G13G23G24G29G30G31    0.000229885
  20870935.844 7     -1475.938 7     -1150.08148   1480503.309 7   1141996.95348
  20870928.46148        50.300          40.300  
  23929409.320 6     -3173.328 6     -2472.72147   3822003.988 6   2937973.25847
  23929405.52347        42.500          27.800  
  20824367.492 7     -1340.594 7     -1044.61748   1185955.418 7    917541.92648
  20824362.33248        51.100          40.800  
  22930265.766 5      3159.628 5      2462.04647  -3842357.891 5  -2973198.61747
  22930261.91047        40.500          31.800  
  22024298.406 6      3072.967 6      2394.51848  -4101379.273 6  -3143868.02748
  22024293.40248        46.800          36.700  
  21493696.500 7     -1937.310 7     -1509.59148   1986328.016 7   1537717.55948
  21493691.11348        49.400          40.900  
  24825055.336 4      1604.454 4      1250.22646  -1091899.746 4   -838803.88746
  24825050.32046        38.500          21.700  
  25272874.586 5      -385.380 5      -300.29146    111149.188 5     86314.24646
  25272868.71546        39.200          23.200  
  22406606.078 6      3210.393 6      2501.60548  -4130260.191 6  -3188994.32848
  22406602.82048        46.400          34.800  
  21874654.500 7      2669.102 7      2079.81948  -3229535.902 7  -2498097.75448
  21874649.60548        47.800          39.700  
  20729256.258 7        76.519 7        59.62649   -608210.145 7   -458121.55149
  20729251.30149        50.500          41.300  
  24207646.703 6       251.839 6       196.23947   -726179.383 6   -560848.41047
  24207641.27347        43.900          29.900  
 08  1 20 18 52 20.0000000  0 12G02G04G05G06G10G12G13G23G24G29G30G31    0.000228931
  20872342.211 7     -1478.208 7     -1151.84948   1487894.348 7   1147756.19948
  20872334.80548        50.700          39.800  
  23932429.617 5     -3173.892 5     -2473.16147   3837873.449 5   2950339.06347
  23932425.16047        42.200          27.500  
  20825646.328 7     -1343.730 7     -1047.06348   1192674.066 7    922777.23848
  20825640.59848        51.400          41.200  
  22927260.156 5      3158.774 5      2461.38347  -3858151.762 5  -2985505.53147
  22927256.03947        40.500          30.700  
  22021376.594 6      3070.456 6      2392.56348  -4116731.551 6  -3155830.84048
  22021372.00448        46.200          36.700  
  21495542.352 7     -1939.933 7     -1511.63548   1996027.680 7   1545275.73448
  21495536.98848        49.100          40.700  
  24823531.398 4      1601.508 4      1247.93346  -1099907.285 4   -845043.55146
  24823526.28146        38.600          21.300  
  25273244.148 3      -388.482 3      -302.71646    113091.598 3     87827.82846
  25273238.41846        36.200          22.500  
  22403553.242 6      3208.736 6      2500.31148  -4146303.871 6  -3201495.88348
  22403549.59048        46.900          34.700  
  21872115.828 7      2667.772 7      2078.78248  -3242874.762 7  -2508491.66448
  21872111.36748        48.500          39.300  
  20729186.648 7        72.938 7        56.83349   -608574.832 7   -458405.71549
  20729181.89149        50.800          41.400  
  24207410.063 6       248.738 6       193.82247   -727423.074 6   -561817.52047
  24207404.53147        43.900          30.200  
 08  1 20 18 52 25.0000000  0 12G02G04G05G06G10G12G13G23G24G29G30G31    0.000227980
  20873750.719 7     -1480.502 7     -1153.63948   1495296.855 7   1153524.39548
  20873743.22748        50.300          39.900  
  23935449.969 6     -3174.490 6     -2473.62447   3853745.898 6   2962707.18447
  23935445.97747        43.000          28.300  
  20826927.727 7     -1346.893 7     -1049.52648   1199408.531 7    928024.86748
  20826922.55148        51.300          41.000  
  22924255.172 5      3157.876 5      2460.68247  -3873941.145 5  -2997808.94147
  22924251.06647        40.900          31.200  
  22018457.367 6      3067.911 6      2390.57848  -4132071.105 6  -3167783.73048
  22018452.99648        46.000          36.500  
  21497390.516 7     -1942.579 7     -1513.69848   2005740.574 7   1552844.22348
  21497385.48448        49.600          40.500  
  24822010.250 3      1598.507 3      1245.58046  -1107899.820 3   -851271.44946
  24822005.53546        37.100          21.300  
  25273616.578 4      -391.615 4      -305.15946    115049.672 4     89353.62146
  25273610.52346        37.600          22.300  
  22400501.547 6      3207.055 6      2499.00548  -4162339.148 6  -3213990.91048
  22400498.44148        46.000          35.000  
  21869579.109 7      2666.409 7      2077.72148  -3256206.809 7  -2518880.27048
  21869574.38748        48.300          39.600  
  20729120.422 7        69.320 7        54.01749   -608921.434 7   -458675.80149
  20729115.92649        50.900          41.800  
  24207176.539 6       245.610 6       191.38347   -728651.125 6   -562774.43447
  24207170.84447        43.300          29.900  
 08  1 20 18 52 30.0000000  0 12G02G04G05G06G10G12G13G23G24G29G30G31    0.000227026
  20875161.391 7     -1482.635 7     -1155.29848   1502710.031 7   1159300.88748
  20875154.18448        50.500          40.300  
  23938470.477 6     -3174.906 6     -2473.95547   3869620.426 6   2975076.95747
  23938466.96147        43.700          27.300  
  20828212.211 7     -1349.895 7     -1051.86648   1206158.008 7    933284.19548
  20828207.19948        51.100          41.000  
  22921252.211 5      3157.163 5      2460.12747  -3889726.957 5  -3010109.57847
  22921247.54747        41.600          30.900  
  22015540.961 6      3065.524 6      2388.71848  -4147398.727 6  -3179727.32048
  22015536.30148        46.800          37.100  
  21499241.078 7     -1945.061 7     -1515.63048   2015465.879 7   1560422.37548
  21499235.75448        50.200          40.700  
  24820491.477 3      1595.692 3      1243.39846  -1115878.281 3   -857488.44146
  24820486.75846        37.100          20.900  
  25273990.938 3      -394.578 3      -307.45946    117022.563 3     90890.91446
  25273985.91446        35.800          21.300  
  22397452.266 6      3205.538 6      2497.82048  -4178366.840 6  -3226480.01248
  22397448.46948        47.000          34.400  
  21867043.227 7      2665.209 7      2076.78748  -3269532.855 7  -2529264.20348
  21867038.63348        48.400          39.200  
  20729057.781 7        65.877 7        51.33349   -609250.820 7   -458932.46549
  20729053.19149        50.900          41.800  
  24206945.625 6       242.656 6       189.08447   -729864.406 6   -563719.85547
  24206939.96947        43.700          30.800  
 08  1 20 18 52 35.0000000  0 12G02G04G05G06G10G12G13G23G24G29G30G31    0.000226074
  20876574.180 7     -1485.000 7     -1157.14448   1510135.031 7   1165086.60548
  20876566.85248        50.100          40.100  
  23941492.523 6     -3175.569 6     -2474.46447   3885498.270 6   2987449.27747
  23941488.46947        43.300          28.200  
  20829499.516 7     -1353.135 7     -1054.39249   1212923.684 7    938556.15649
  20829494.47749        50.900          41.300  
  22918248.797 6      3156.202 6      2459.37647  -3905507.965 6  -3022406.46147
  22918244.39547        43.200          31.000  
  22012626.563 6      3062.913 6      2386.68548  -4162713.289 6  -3191660.74648
  22012622.12548        46.600          36.800  
  21501094.500 7     -1947.788 7     -1517.75848   2025204.820 7   1568011.16448
  21501089.11348        49.800          41.200  
  24818976.352 4      1592.630 4      1241.00946  -1123841.430 4   -863693.48446
  24818971.34846        38.300          20.600  
  25274370.133 2      -397.777 2      -309.95646    119011.445 2     92440.69546
  25274364.11346        35.400          19.900  
  22394403.906 6      3203.782 6      2496.45348  -4194385.750 6  -3238962.27748
  22394400.10248        47.400          34.900  
  21864508.867 7      2663.779 7      2075.67248  -3282851.750 7  -2539642.56348
  21864503.92248        48.200          39.800  
  20728998.758 7        62.193 7        48.46349   -609561.785 7   -459174.78149
  20728993.85249        50.700          41.600  
  24206717.547 5       239.456 5       186.58847   -731061.688 5   -564652.79747
  24206712.18847        42.100          29.900  
 08  1 20 18 52 40.0000000  0 12G02G04G05G06G10G12G13G23G24G29G30G31    0.000225122
  20877989.305 7     -1487.238 7     -1158.88748   1517571.223 7   1170881.03948
  20877981.98848        50.100          40.200  
  23944514.398 6     -3176.108 6     -2474.88847   3901378.809 6   2999823.71947
  23944510.25447        43.400          27.500  
  20830789.984 7     -1356.241 7     -1056.80949   1219704.887 7    943840.20349
  20830785.12149        51.300          41.300  
  22915246.469 6      3155.372 6      2458.73247  -3921284.824 6  -3034700.12147
  22915241.94547        43.200          30.900  
  22009714.469 6      3060.400 6      2384.72548  -4178015.289 6  -3203584.37148
  22009710.09448        47.200          36.900  
  21502949.945 7     -1950.375 7     -1519.77348   2034956.695 7   1575610.02748
  21502944.89848        49.500          41.100  
  24817464.125 4      1589.684 4      1238.72146  -1131789.852 4   -869887.09046
  24817459.17646        38.600          20.900  
  25274752.969 3      -400.874 3      -312.36646    121015.816 3     94002.52746
  25274745.59846        37.000          20.100  
  22391356.844 6      3202.150 6      2495.18148  -4210396.500 6  -3251438.18448
  22391353.38348        47.400          34.800  
  21861975.570 7      2662.462 7      2074.64648  -3296164.059 7  -2550015.79348
  21861970.75048        48.600          39.700  
  20728943.086 7        58.632 7        45.68748   -609854.945 7   -459403.21548
  20728938.56648        50.300          41.200  
  24206492.438 5       236.383 5       184.19547   -732243.602 5   -565573.77047
  24206487.19147        42.300          30.200  
 08  1 20 18 52 45.0000000  0 12G02G04G05G06G10G12G13G23G24G29G30G31    0.000224169
  20879406.438 7     -1489.385 7     -1160.56048   1525018.148 7   1176683.84048
  20879398.85248        50.200          40.100  
  23947536.422 6     -3176.562 6     -2475.24547   3917261.617 6   3012199.94147
  23947532.50847        43.400          27.900  
  20832083.102 7     -1359.262 7     -1059.16649   1226501.199 7    949136.03149
  20832078.15249        51.500          41.700  
  22912245.055 6      3154.609 6      2458.13447  -3937057.871 6  -3046990.79347
  22912240.80547        42.900          30.400  
  22006804.555 6      3057.984 6      2382.84348  -4193305.211 6  -3215498.58648
  22006800.54748        47.100          36.700  
  21504808.133 7     -1952.878 7     -1521.72249   2044721.086 7   1583218.63749
  21504802.88349        49.400          41.400  
  24815953.508 4      1586.834 4      1236.49946  -1139724.023 4   -876069.58646
  24815949.37146        37.400          20.600  
  25275134.992 3      -403.851 3      -314.68946    123035.070 3     95575.97346
  25275130.41446        35.700          20.600  
  22388312.594 7      3200.602 7      2493.97248  -4226399.508 7  -3263908.04348
  22388308.44148        47.900          34.700  
  21859443.234 7      2661.233 7      2073.68748  -3309470.223 7  -2560384.22748
  21859438.66448        48.300          39.900  
  20728890.398 7        55.159 7        42.98148   -610130.738 7   -459618.12148
  20728885.96148        51.000          41.200  
  24206270.422 5       233.411 5       181.88047   -733410.656 5   -566483.16847
  24206264.86747        42.200          29.400  
 08  1 20 18 52 50.0000000  0 12G02G04G05G06G10G12G13G23G24G29G30G31    0.000223217
  20880825.867 7     -1491.627 7     -1162.30748   1532476.281 7   1182495.37548
  20880818.02748        50.300          40.300  
  23950559.320 6     -3177.087 6     -2475.65047   3933147.055 6   3024578.19147
  23950555.25047        42.800          27.000  
  20833379.641 7     -1362.371 7     -1061.58549   1233313.055 7    954443.95749
  20833374.52749        51.000          41.800  
  22909244.555 6      3153.757 6      2457.47547  -3952826.656 6  -3059278.16847
  22909239.61747        43.500          31.100  
  22003897.414 6      3055.488 6      2380.89948  -4208582.652 6  -3227403.08248
  22003893.39148        47.300          36.400  
  21506668.734 7     -1955.477 7     -1523.74848   2054498.473 7   1590837.37948
  21506663.83648        49.500          40.900  
  24814447.242 3      1583.900 3      1234.19946  -1147643.523 3   -882240.58246
  24814441.79746        36.300          20.900  
  25275523.539 4      -406.930 4      -317.08846    125069.719 4     97161.41446
  25275517.11346        38.500          20.900  
  22385267.961 7      3198.965 7      2492.70048  -4242394.332 7  -3276371.54348
  22385264.64548        47.600          35.300  
  21856913.031 7      2659.914 7      2072.66048  -3322769.793 7  -2570747.52748
  21856907.76248        47.600          39.600  
  20728841.414 7        51.596 7        40.20548   -610388.719 7   -459819.14548
  20728836.55148        50.300          41.200  
  24206051.000 6       230.330 6       179.47847   -734562.309 6   -567380.55947
  24206045.48047        43.100          31.100  
 08  1 20 18 52 55.0000000  0 12G02G04G05G06G10G12G13G23G24G29G30G31    0.000222263
  20882247.227 7     -1493.899 7     -1164.07748   1539945.777 7   1188315.76248
  20882239.88748        50.800          39.900  
  23953582.625 6     -3177.639 6     -2476.08247   3949035.250 6   3036958.60247
  23953578.75447        43.000          27.000  
  20834678.539 7     -1365.512 7     -1064.03549   1240140.613 7    959764.13349
  20834673.73049        51.100          41.800  
  22906243.883 6      3152.890 6      2456.79647  -3968591.105 6  -3071562.14847
  22906240.09047        43.600          31.800  
  22000992.859 6      3052.936 6      2378.91148  -4223847.332 6  -3239297.63748
  22000988.53548        47.300          36.900  
  21508531.656 7     -1958.101 7     -1525.79148   2064288.977 7   1598466.33648
  21508526.78148        49.400          40.800  
  24812943.258 4      1580.911 4      1231.88046  -1155548.078 4   -888399.98446
  24812938.30546        38.100          20.900  
  25275913.039 4      -410.043 4      -319.52046    127119.934 4     98759.01246
  25275907.31346        37.700          20.900  
  22382225.875 7      3197.297 7      2491.39948  -4258380.816 7  -3288828.53948
  22382222.42648        48.500          35.100  
  21854383.188 7      2658.566 7      2071.60948  -3336062.625 7  -2581105.57448
  21854378.18848        48.100          39.600  
  20728795.867 7        48.010 7        37.41148   -610628.770 7   -460006.19948
  20728791.34448        50.600          41.000  
  24205834.820 6       227.227 6       177.06047   -735698.445 6   -568265.85947
  24205829.24647        42.900          29.700  
 08  1 20 18 53  0.0000000  0 12G02G04G05G06G10G12G13G23G24G29G30G31    0.000221312
  20883670.445 7     -1495.969 7     -1165.69148   1547425.625 7   1194144.21548
  20883663.23848        51.000          40.300  
  23956606.859 6     -3178.014 6     -2476.37447   3964925.320 6   3049340.46947
  23956603.05947        42.700          27.400  
  20835980.852 7     -1368.453 7     -1066.32749   1246982.879 7    965095.77049
  20835976.27349        51.200          41.600  
  22903244.836 6      3152.208 6      2456.26647  -3984352.145 6  -3083843.48047
  22903240.64847        43.600          31.900  
  21998090.492 7      3050.595 7      2377.08648  -4239100.309 7  -3251183.06648
  21998086.03548        47.800          36.800  
  21510397.078 7     -1960.526 7     -1527.68448   2074091.605 7   1606104.75848
  21510392.00048        48.400          40.500  
  24811440.992 3      1578.136 3      1229.71646  -1163438.758 3   -894548.56646
  24811436.75446        37.200          20.400  
  25276307.055 3      -412.952 3      -321.77346    129184.691 3    100367.87546
  25276300.47346        37.100          20.400  
  22379184.938 7      3195.817 7      2490.24648  -4274359.902 7  -3301279.77048
  22379181.66848        47.600          35.200  
  21851854.820 7      2657.407 7      2070.70648  -3349349.660 7  -2591459.10548
  21851849.90248        48.000          39.800  
  20728753.555 7        44.615 7        34.76548   -610851.844 7   -460180.02348
  20728748.77048        50.800          41.200  
  24205621.813 6       224.322 6       174.79947   -736820.055 6   -569139.85547
  24205616.14547        43.400          29.300  
 08  1 20 18 53  5.0000000  0 12G02G04G05G06G10G12G13G23G24G29G30G31    0.000220358
  20885095.703 7     -1498.151 7     -1167.38948   1554916.379 7   1199981.16048
  20885088.49648        50.600          40.500  
  23959630.367 6     -3178.483 6     -2476.74047   3980817.734 6   3061724.16847
  23959626.78147        42.800          27.200  
  20837285.781 7     -1371.502 7     -1068.70249   1253840.387 7    970439.27749
  20837280.50049        51.300          41.700  
  22900246.703 6      3151.416 6      2455.64547  -4000109.223 6  -3096121.70747
  22900242.16447        43.300          31.000  
  21995189.844 7      3048.154 7      2375.18348  -4254341.078 7  -3263058.98048
  21995185.75048        47.600          36.600  
  21512265.266 7     -1963.056 7     -1529.65248   2083906.887 7   1613753.02048
  21512259.72348        49.000          40.800  
  24809942.875 3      1575.237 3      1227.45546  -1171314.941 3   -900685.84446
  24809937.89146        37.000          19.900  
  25276702.727 3      -415.983 3      -324.14246    131264.605 3    101988.58646
  25276695.90646        36.600          20.100  
  22376145.609 6      3194.233 6      2489.01148  -4290331.066 6  -3313724.82448
  22376142.35248        47.300          35.300  
  21849327.461 7      2656.141 7      2069.71848  -3362630.363 7  -2601807.69548
  21849322.55148        48.400          39.400  
  20728713.984 7        41.118 7        32.04149   -611057.434 7   -460340.22749
  20728709.87549        50.600          41.400  
  24205411.055 6       221.317 6       172.45447   -737926.641 6   -570002.12547
  24205405.53947        43.900          29.400  
 08  1 20 18 53 10.0000000  0 12G02G04G05G06G10G12G13G23G24G29G30G31    0.000219404
  20886523.539 7     -1500.173 7     -1168.96848   1562417.246 7   1205826.00048
  20886516.19548        50.900          40.600  
  23962655.078 6     -3178.805 6     -2476.98947   3996711.762 6   3074109.11347
  23962651.73447        42.900          27.900  
  20838593.578 7     -1374.393 7     -1070.95549   1260712.352 7    975794.05549
  20838588.59849        50.500          41.300  
  22897248.867 6      3150.777 6      2455.15347  -4015863.109 6  -3108397.47347
  22897244.78147        43.500          30.900  
  21992292.180 7      3045.841 7      2373.38048  -4269570.285 7  -3274925.88348
  21992287.87548        47.600          36.700  
  21514134.695 7     -1965.434 7     -1531.50748   2093734.055 7   1621410.55548
  21514129.71548        49.800          40.800  
  24808445.977 3      1572.500 3      1225.32446  -1179177.441 3   -906812.46546
  24808441.45346        37.200          20.100  
  25277101.445 4      -418.839 4      -326.37646    133358.801 4    103620.46546
  25277094.22346        38.500          20.600  
  22373108.344 7      3192.796 7      2487.89148  -4306295.047 7  -3326164.27748
  22373104.27348        48.300          34.900  
  21846801.227 6      2655.025 6      2068.85248  -3375905.488 6  -2612151.95348
  21846796.43048        47.500          39.600  
  20728677.945 7        37.759 7        29.42349   -611246.227 7   -460487.34049
  20728673.49249        50.400          41.400  
  24205203.273 6       218.447 6       170.22047   -739018.875 6   -570853.22347
  24205198.09447        43.700          30.100  
 08  1 20 18 53 15.0000000  0 12G02G04G05G06G10G12G13G23G24G29G30G31    0.000218451
  20887952.406 7     -1502.345 7     -1170.65748   1569928.973 7   1211679.28548
  20887945.22348        50.900          40.500  
  23965680.047 6     -3179.269 6     -2477.34947   4012608.105 6   3086495.85947
  23965676.76647        42.700          27.300  
  20839903.609 7     -1377.436 7     -1073.32649   1267599.531 7    981160.68449
  20839898.85949        51.100          41.500  
  22894251.945 6      3149.987 6      2454.53047  -4031613.043 6  -3120670.12147
  22894247.39147        42.900          31.200  
  21989395.906 6      3043.366 6      2371.45548  -4284787.117 6  -3286783.15648
  21989392.12948        47.200          36.200  
  21516007.570 7     -1967.956 7     -1533.47248   2103573.836 7   1629077.91448
  21516002.36748        49.900          40.600  
  24806953.328 4      1569.602 4      1223.07046  -1187025.453 4   -912927.81646
  24806948.04346        37.900          21.100  
  25277502.648 4      -421.867 4      -328.71946    135468.137 4    105264.05946
  25277495.52046        37.700          21.100  
  22370071.414 6      3191.212 6      2486.66148  -4322251.109 6  -3338597.58248
  22370068.12148        47.000          35.100  
  21844275.844 6      2653.767 6      2067.87048  -3389174.324 6  -2622491.30148
  21844271.10548        46.900          39.500  
  20728645.742 7        34.252 7        26.68949   -611417.488 7   -460620.78549
  20728641.01249        50.600          41.500  
  24204997.641 6       215.440 6       167.87047   -740096.074 6   -571692.57447
  24204993.19147        43.300          29.300  
 08  1 20 18 53 20.0000000  0 12G02G04G05G06G10G12G13G23G24G29G30G31    0.000217495
  20889383.898 7     -1504.307 7     -1172.18848   1577450.508 7   1217540.22748
  20889377.16848        50.300          40.600  
  23968705.297 6     -3179.535 6     -2477.55947   4028505.781 6   3098883.65247
  23968701.91847        42.500          27.200  
  20841217.469 7     -1380.273 7     -1075.53749   1274500.895 7    986538.37149
  20841212.30549        51.300          41.500  
  22891255.172 6      3149.399 6      2454.07947  -4047360.039 6  -3132940.51647
  22891250.65647        43.000          32.000  
  21986502.953 7      3041.106 7      2369.69148  -4299992.648 7  -3298631.61348
  21986498.60548        47.600          36.300  
  21517881.547 7     -1970.276 7     -1535.28148   2113425.215 7   1636754.31648
  21517877.05148        49.700          40.800  
  24805461.977 3      1566.923 3      1220.97446  -1194860.070 3   -919032.68846
  24805457.32446        36.800          21.800  
  25277905.688 3      -424.670 3      -330.92646    137591.488 3    106918.68846
  25277899.62546        36.700          20.900  
  22367036.461 6      3189.831 6      2485.58148  -4338200.262 6  -3351025.48448
  22367032.75848        47.500          34.700  
  21841751.664 6      2652.702 6      2067.04248  -3402437.836 6  -2632826.50848
  21841747.25048        47.500          39.000  
  20728616.352 7        30.958 7        24.12349   -611572.277 7   -460741.40249
  20728611.64149        50.700          41.500  
  24204796.664 6       212.627 6       165.68747   -741159.207 6   -572521.00847
  24204790.49247        43.000          29.600  
 08  1 20 18 53 25.0000000  0 12G02G04G05G06G10G12G13G23G24G29G30G31    0.000216541
  20890817.164 7     -1506.298 7     -1173.73848   1584982.000 7   1223408.91848
  20890809.56348        49.000          40.400  
  23971730.844 6     -3179.820 6     -2477.78146   4044404.883 6   3111272.55546
  23971727.57846        42.700          26.100  
  20842533.383 7     -1383.136 7     -1077.76849   1281416.574 7    991927.21149
  20842528.65249        49.900          41.800  
  22888259.086 6      3148.788 6      2453.60147  -4063103.980 6  -3145208.52047
  22888255.02047        42.900          32.000  
  21983611.711 7      3038.831 7      2367.91948  -4315186.805 7  -3310471.21148
  21983607.31648        47.900          36.500  
  21519758.867 7     -1972.614 7     -1537.10148   2123288.285 7   1644439.82048
  21519753.80148        50.000          40.400  
  24803973.891 4      1564.200 4      1218.85846  -1202681.070 4   -925126.97746
  24803968.98046        37.900          21.700  
  25278313.734 3      -427.502 3      -333.11046    139728.996 3    108584.23846
  25278306.08246        36.600          21.100  
  22364002.703 6      3188.437 6      2484.49448  -4354142.445 6  -3363447.95348
  22363998.94948        46.500          35.100  
  21839229.352 6      2651.615 6      2066.19148  -3415695.910 6  -2643157.46548
  21839224.31648        47.500          39.300  
  20728589.742 7        27.638 7        21.53549   -611710.465 7   -460849.07849
  20728585.11749        50.900          41.300  
  24204596.547 6       209.796 6       163.47747   -742208.188 6   -573338.39147
  24204590.96947        44.100          30.200  
 08  1 20 18 53 30.0000000  0 12G02G04G05G06G10G12G13G23G24G29G30G31    0.000215584
  20892252.156 7     -1508.313 7     -1175.31048   1592523.563 7   1229285.46948
  20892244.54348        48.100          40.000  
  23974756.641 6     -3180.123 6     -2478.01546   4060305.496 6   3123662.62946
  23974753.21546        42.800          25.600  
  20843851.945 7     -1386.013 7     -1080.00949   1288346.641 7    997327.25449
  20843846.98449        48.700          41.700  
  22885263.852 6      3148.145 6      2453.10147  -4078844.703 6  -3157474.02347
  22885258.99647        42.600          31.700  
  21980722.484 6      3036.525 6      2366.12348  -4330369.430 6  -3322301.82448
  21980718.06648        47.500          36.800  
  21521637.688 7     -1974.979 7     -1538.94448   2133163.180 7   1652134.53948
  21521633.00848        49.500          40.300  
  24802488.367 4      1561.454 4      1216.72046  -1210488.340 4   -931210.57846
  24802483.48446        38.800          20.400  
  25278723.672 4      -430.371 4      -335.36246    141880.852 4    110261.05146
  25278715.69546        37.900          21.700  
  22360970.758 6      3186.999 6      2483.37848  -4370077.441 6  -3375864.84448
  22360967.15648        46.400          34.700  
  21836707.125 7      2650.501 7      2065.32548  -3428948.414 7  -2653484.09048
  21836702.24248        48.200          38.900  
  20728566.859 7        24.295 7        18.93248   -611831.941 7   -460943.73848
  20728562.36348        50.800          40.700  
  24204399.055 6       206.951 6       161.25947   -743242.941 6   -574144.68447
  24204394.50447        43.800          29.800  
 08  1 20 18 53 35.0000000  0 12G02G04G05G06G10G12G13G23G24G29G30G31    0.000214628
  20893689.492 7     -1510.414 7     -1176.94548   1600075.633 7   1235170.19548
  20893682.00048        48.900          40.200  
  23977782.805 6     -3180.505 6     -2478.31346   4076208.020 6   3136054.19146
  23977779.04346        42.800          26.200  
  20845173.664 7     -1388.980 7     -1082.32249   1295291.539 7   1002738.86349
  20845168.82849        49.500          41.400  
  22882269.406 5      3147.416 5      2452.53147  -4094581.781 5  -3169736.67647
  22882264.33647        41.600          32.000  
  21977834.750 6      3034.121 6      2364.24948  -4345540.035 6  -3334123.06648
  21977830.89848        47.300          37.000  
  21523519.633 7     -1977.426 7     -1540.85248   2143050.309 7   1659838.79748
  21523514.24648        49.900          40.400  
  24801004.930 4      1558.626 4      1214.51646  -1218281.469 4   -937283.16046
  24801000.69946        37.500          20.900  
  25279134.109 4      -433.310 4      -337.64346    144047.402 4    111949.26646
  25279128.21546        37.700          20.900  
  22357939.813 6      3185.480 6      2482.19048  -4386004.844 6  -3388275.79348
  22357936.05948        45.900          34.800  
  21834186.266 6      2649.307 6      2064.39348  -3442194.949 6  -2663806.05548
  21834181.81648        47.200          38.800  
  20728546.906 7        20.859 7        16.25548   -611936.234 7   -461025.01248
  20728542.30548        50.500          41.000  
  24204205.594 6       204.014 6       158.97347   -744263.012 6   -574939.55147
  24204199.67647        43.600          30.000  
 08  1 20 18 53 40.0000000  0 12G02G04G05G06G10G12G13G23G24G29G30G31    0.000213671
  20895128.297 7     -1512.548 7     -1178.60948   1607638.371 7   1241063.23848
  20895120.89548        49.800          39.900  
  23980809.734 6     -3180.938 6     -2478.65647   4092112.711 6   3148447.47347
  23980805.62947        42.600          26.500  
  20846497.820 7     -1391.987 7     -1084.66649   1302251.473 7   1008162.19149
  20846493.05549        50.800          41.600  
  22879275.484 5      3146.654 5      2451.93847  -4110315.051 5  -3181996.36347
  22879270.75447        40.600          32.300  
  21974950.945 6      3031.666 6      2362.33348  -4360698.363 6  -3345934.73448
  21974946.49648        46.000          37.100  
  21525403.414 7     -1979.917 7     -1542.79148   2152949.895 7   1667552.75448
  21525398.44148        49.500          40.300  
  24799524.602 3      1555.766 3      1212.27346  -1226060.297 3   -943344.52746
  24799520.35246        36.800          20.600  
  25279549.094 3      -436.302 3      -339.97645    146228.910 3    113649.14545
  25279543.13745        35.700          18.600  
  22354910.055 6      3183.918 6      2480.97448  -4401924.434 6  -3400680.66448
  22354906.81648        45.700          34.900  
  21831666.797 7      2648.059 7      2063.42348  -3455435.246 7  -2674123.16848
  21831661.96148        48.000          38.800  
  20728530.531 7        17.381 7        13.54449   -612023.141 7   -461092.73049
  20728525.98049        50.700          41.300  
  24204014.664 6       201.022 6       156.64247   -745268.121 6   -575722.76247
  24204008.64147        43.500          29.300  
 08  1 20 18 53 45.0000000  0 12G02G04G05G06G10G12G13G23G24G29G30G31    0.000212715
  20896569.578 7     -1514.512 7     -1180.13748   1615210.930 7   1246963.92648
  20896562.24248        50.000          40.100  
  23983836.320 6     -3181.205 6     -2478.85847   4108018.734 6   3160841.76247
  23983832.75047        42.900          26.300  
  20847825.430 7     -1394.836 7     -1086.88449   1309225.652 7   1013596.60949
  20847820.19149        51.000          41.700  
  22876282.258 5      3146.048 5      2451.46347  -4126045.289 5  -3194253.68047
  22876277.30547        40.900          32.100  
  21972068.633 6      3029.386 6      2360.55948  -4375845.293 6  -3357737.53148
  21972064.36748        46.000          36.800  
  21527289.484 7     -1982.244 7     -1544.60448   2162861.113 7   1675275.77348
  21527284.35548        49.800          40.400  
  24798047.391 4      1553.026 4      1210.15646  -1233825.426 4   -949395.30946
  24798042.27746        38.400          21.100  
  25279968.211 3      -439.129 3      -342.17346    148424.555 3    115360.00846
  25279960.96546        36.900          19.000  
  22351882.477 6      3182.503 6      2479.87248  -4417836.949 6  -3413080.02348
  22351878.63748        47.200          34.800  
  21829148.109 6      2646.963 6      2062.57048  -3468670.063 6  -2684436.01648
  21829143.54348        47.300          38.600  
  20728517.234 7        14.069 7        10.96248   -612093.484 7   -461147.54348
  20728512.54748        50.700          40.900  
  24203825.336 6       198.202 6       154.44547   -746259.133 6   -576494.98447
  24203820.17247        43.000          29.300  
 08  1 20 18 53 50.0000000  0 12G02G04G05G06G10G12G13G23G24G29G30G31    0.000211756
  20898012.477 7     -1516.488 7     -1181.68048   1622793.367 7   1252872.32448
  20898004.74648        50.400          40.400  
  23986863.445 6     -3181.469 6     -2479.06647   4123926.078 6   3173237.09047
  23986859.72347        42.600          26.800  
  20849154.969 7     -1397.676 7     -1089.09849   1316214.031 7   1019042.10249
  20849150.14849        51.300          41.700  
  22873289.188 5      3145.432 5      2450.98847  -4141772.449 5  -3206508.61747
  22873284.49647        41.200          31.500  
  21969188.453 6      3027.107 6      2358.78548  -4390980.828 6  -3369531.45748
  21969183.82848        46.600          36.900  
  21529177.648 7     -1984.566 7     -1546.41648   2172783.941 7   1683007.85248
  21529172.68848        50.000          40.400  
  24796571.820 4      1550.320 4      1208.04546  -1241577.027 4   -955435.53146
  24796567.85246        37.800          20.900  
  25280388.273 4      -441.945 4      -344.37646    150634.277 4    117081.88746
  25280381.39146        37.700          19.600  
  22348855.805 6      3181.113 6      2478.78748  -4433742.512 6  -3425473.95748
  22348851.84048        46.700          34.800  
  21826630.891 6      2645.887 6      2061.72948  -3481899.496 6  -2694744.66048
  21826626.23048        47.300          38.900  
  20728506.820 7        10.765 7         8.38849   -612147.309 7   -461189.48449
  20728502.05549        50.700          41.400  
  24203639.672 6       195.379 6       152.24347   -747236.027 6   -577256.19947
  24203634.27747        43.300          29.300  
 08  1 20 18 53 55.0000000  0 12G02G04G05G06G10G12G13G23G24G29G30G31    0.000210796
  20899456.797 7     -1518.358 7     -1183.13448   1630385.156 7   1258787.99648
  20899449.75448        50.900          40.200  
  23989890.344 6     -3181.627 6     -2479.18947   4139834.215 6   3185633.03547
  23989886.97747        42.600          28.400  
  20850487.586 7     -1400.406 7     -1091.22549   1323216.063 7   1024498.22749
  20850482.34049        50.900          41.800  
  22870297.469 5      3144.925 5      2450.58847  -4157497.074 5  -3218761.55947
  22870292.39547        41.300          32.300  
  21966310.047 6      3024.919 6      2357.07748  -4406105.422 6  -3381316.84448
  21966306.29348        46.700          36.800  
  21531067.922 7     -1986.770 7     -1548.13248   2182717.793 7   1690748.51248
  21531062.87148        49.800          40.500  
  24795098.664 4      1547.718 4      1206.01146  -1249315.617 4   -961465.58646
  24795094.86346        38.300          20.600  
  25280811.328 4      -444.664 4      -346.48846    152857.598 4    118814.32846
  25280804.76646        38.700          20.400  
  22345830.070 6      3179.807 6      2477.77248  -4449641.547 6  -3437862.81648
  22345826.30948        46.700          34.800  
  21824114.383 6      2644.908 6      2060.96748  -3495124.035 6  -2705049.49648
  21824109.79348        47.300          38.900  
  20728499.523 7         7.549 7         5.88348   -612185.055 7   -461218.89848
  20728494.78948        50.500          41.100  
  24203455.992 6       192.676 6       150.13447   -748199.406 6   -578006.86747
  24203450.78147        43.000          29.000  
 08  1 20 18 54  0.0000000  0 12G02G04G05G06G10G12G13G23G24G29G30G31    0.000209837
  20900903.586 7     -1520.348 7     -1184.68748   1637986.898 7   1264711.43048
  20900896.52048        50.500          40.500  
  23992918.219 6     -3181.922 6     -2479.41947   4155743.824 6   3198030.12947
  23992914.59847        42.800          27.800  
  20851822.523 7     -1403.275 7     -1093.45949   1330232.438 7   1029965.52349
  20851818.01249        51.400          41.900  
  22867304.977 6      3144.296 6      2450.10247  -4173218.555 6  -3231012.06647
  22867300.53547        42.600          32.300  
  21963434.797 6      3022.605 6      2355.27748  -4421218.445 6  -3393093.23048
  21963430.17248        47.300          36.900  
  21532960.641 7     -1989.129 7     -1549.96948   2192663.438 7   1698498.35948
  21532955.80148        49.900          40.700  
  24793629.086 3      1544.970 3      1203.87246  -1257040.469 3   -967484.94546
  24793624.46146        36.700          20.900  
  25281236.914 3      -447.509 3      -348.71546    155095.141 3    120557.90246
  25281230.64146        36.600          20.400  
  22342806.070 6      3178.390 6      2476.66648  -4465533.496 6  -3450246.14548
  22342802.06348        47.400          35.500  
  21821598.813 7      2643.800 7      2060.10448  -3508343.035 7  -2715350.01648
  21821594.08248        47.900          39.000  
  20728495.234 7         4.222 7         3.29148   -612206.164 7   -461235.35248
  20728490.93848        50.900          41.000  
  24203275.734 6       189.830 6       147.92247   -749148.559 6   -578746.47747
  24203270.81347        43.000          29.700  
 08  1 20 18 54  5.0000000  0 12G02G04G05G06G10G12G13G23G24G29G30G31    0.000208876
  20902352.148 7     -1522.356 7     -1186.25248   1645598.680 7   1270642.68848
  20902344.86748        50.500          40.700  
  23995946.188 6     -3182.204 6     -2479.63847   4171654.844 6   3210428.32047
  23995942.48047        42.600          28.000  
  20853160.578 7     -1406.147 7     -1095.69849   1337263.172 7   1035444.01649
  20853155.51249        51.500          41.700  
  22864314.227 5      3143.668 5      2449.60947  -4188936.895 5  -3243260.11347
  22864309.47747        42.400          32.300  
  21960560.797 6      3020.273 6      2353.45748  -4436319.813 6  -3404860.51648
  21960556.00448        47.000          36.700  
  21534855.406 7     -1991.477 7     -1551.79948   2202620.820 7   1706257.35548
  21534850.39148        49.900          41.000  
  24792162.070 3      1542.223 3      1201.73146  -1264751.586 3   -973493.60246
  24792157.37146        36.500          21.700  
  25281665.242 2      -450.359 2      -350.92546    157346.938 2    122312.52746
  25281659.16046        35.200          20.600  
  22339782.828 6      3176.952 6      2475.54848  -4481418.258 6  -3462623.88748
  22339779.71548        46.300          35.500  
  21819084.461 7      2642.680 7      2059.23048  -3521556.438 7  -2725646.16848
  21819079.94148        48.200          39.600  
  20728494.578 7         0.877 7         0.68248   -612210.547 7   -461238.76248
  20728490.00848        50.600          41.000  
  24203097.773 6       186.984 6       145.70347   -750083.477 6   -579474.99247
  24203092.16047        43.600          29.600  
 08  1 20 18 54 10.0000000  0 12G02G04G05G06G10G12G13G23G24G29G30G31    0.000207916
  20903802.383 7     -1524.343 7     -1187.80148   1653220.395 7   1276581.69148
  20903795.32048        50.100          40.300  
  23998974.508 6     -3182.484 6     -2479.85447   4187567.262 6   3222827.59047
  23998970.88747        42.600          27.600  
  20854501.313 7     -1408.997 7     -1097.91949   1344308.156 7   1040933.60949
  20854496.62149        51.000          41.700  
  22861323.430 6      3143.022 6      2449.10647  -4204652.004 6  -3255505.64547
  22861319.21947        42.600          32.500  
  21957688.938 7      3017.958 7      2351.65348  -4451409.602 7  -3416618.78148
  21957684.77348        48.000          37.300  
  21536752.617 7     -1993.811 7     -1553.61748   2212589.875 7   1714025.44148
  21536747.52348        49.600          41.200  
  24790697.609 3      1539.473 3      1199.58946  -1272448.949 3   -979491.54746
  24790693.04346        36.500          20.900  
  25282096.430 3      -453.193 3      -353.13746    159612.902 3    124078.21146
  25282090.28546        36.500          20.600  
  22336761.633 6      3175.530 6      2474.43648  -4497295.906 6  -3474996.06648
  22336757.89548        47.400          35.400  
  21816571.016 7      2641.577 7      2058.37248  -3534764.324 7  -2735938.02748
  21816566.31348        47.800          39.400  
  20728496.773 7        -2.452 7        -1.91049   -612198.285 7   -461229.21149
  20728492.30949        50.800          41.300  
  24202922.102 6       184.147 6       143.49047   -751004.211 6   -580192.44147
  24202917.89147        44.400          29.800  
 08  1 20 18 54 15.0000000  0 12G02G04G05G06G10G12G13G23G24G29G30G31    0.000206953
  20905254.719 7     -1526.313 7     -1189.33348   1660851.957 7   1282528.35548
  20905247.30148        50.300          40.500  
  24002002.250 6     -3182.745 6     -2480.05947   4203480.988 6   3235227.88347
  24001998.82047        43.400          27.300  
  20855844.672 7     -1411.835 7     -1100.13149   1351367.332 7   1046434.26649
  20855839.62949        51.100          41.700  
  22858333.984 6      3142.402 6      2448.62547  -4220364.012 6  -3267748.77047
  22858328.95747        43.300          32.100  
  21954819.945 6      3015.652 6      2349.85948  -4466487.863 6  -3428368.07848
  21954815.05548        46.900          37.200  
  21538651.539 7     -1996.128 7     -1555.42448   2222570.516 7   1721802.56348
  21538646.64148        49.600          41.000  
  24789234.563 4      1536.741 4      1197.46046  -1280132.652 4   -985478.84846
  24789230.48046        37.600          20.900  
  25282530.375 2      -456.025 2      -355.34446    161893.027 2    125854.93046
  25282524.55546        34.600          20.100  
  22333741.703 6      3174.116 6      2473.33748  -4513166.488 6  -3487362.75048
  22333738.07448        47.200          35.600  
  21814058.922 7      2640.482 7      2057.51848  -3547966.734 7  -2746225.61748
  21814053.96948        47.600          39.600  
  20728502.578 7        -5.763 7        -4.49149   -612169.469 7   -461206.75849
  20728497.97349        50.400          41.300  
  24202749.563 6       181.326 6       141.29447   -751910.840 6   -580898.91047
  24202745.08247        43.600          30.100  
 08  1 20 18 54 20.0000000  0 12G02G04G05G06G10G12G13G23G24G29G30G31    0.000205992
  20906709.023 7     -1528.463 7     -1191.01148   1668494.273 7   1288483.41048
  20906701.61748        50.000          40.300  
  24005031.484 6     -3183.174 6     -2480.39547   4219396.859 6   3247629.85547
  24005027.75447        42.700          27.100  
  20857190.492 7     -1414.852 7     -1102.48249   1358441.590 7   1051946.67649
  20857186.00849        51.300          41.700  
  22855344.289 6      3141.594 6      2447.99547  -4236071.984 6  -3279988.74647
  22855339.55147        43.400          32.400  
  21951952.875 7      3013.173 7      2347.92548  -4481553.730 7  -3440107.70348
  21951948.68448        47.800          36.900  
  21540553.445 7     -1998.625 7     -1557.37048   2232563.641 7   1729589.41048
  21540548.60248        49.600          40.900  
  24787775.102 4      1533.827 4      1195.19146  -1287801.785 4   -991454.80146
  24787771.81346        38.000          21.100  
  25282965.711 1      -459.009 1      -357.67046    164188.070 1    127643.28146
  25282961.12546        33.200          19.600  
  22330723.430 6      3172.524 6      2472.09648  -4529029.109 6  -3499723.23048
  22330719.43848        47.000          35.000  
  21811547.641 7      2639.202 7      2056.52148  -3561162.742 7  -2756508.22348
  21811542.99648        47.900          39.600  
  20728510.844 7        -9.270 7        -7.22348   -612123.121 7   -461170.64548
  20728506.63748        50.300          41.000  
  24202580.211 6       178.325 6       138.95647   -752802.465 6   -581593.69147
  24202575.47747        43.200          29.700  
 08  1 20 18 54 25.0000000  0 12G02G04G05G06G10G12G13G23G24G29G30G31    0.000205029
  20908165.227 7     -1530.468 7     -1192.57148   1676146.613 7   1294446.26648
  20908158.00848        49.700          40.300  
  24008060.555 6     -3183.483 6     -2480.63546   4235314.273 6   3260033.03146
  24008056.06346        43.300          26.100  
  20858539.719 7     -1417.736 7     -1104.72749   1365530.270 7   1057470.30949
  20858534.68049        50.900          41.500  
  22852356.289 6      3140.937 6      2447.48147  -4251776.668 6  -3292226.15247
  22852351.35247        44.500          31.800  
  21949088.477 7      3010.809 7      2346.08348  -4496607.777 7  -3451838.12148
  21949084.15648        47.900          37.200  
  21542457.289 7     -2000.977 7     -1559.20248   2242568.527 7   1737385.41848
  21542452.30148        49.100          40.400  
  24786318.680 4      1531.063 4      1193.03046  -1295457.098 4   -997419.94946
  24786314.68046        38.900          20.100  
  25283406.625 2      -461.886 2      -359.91845    166497.500 2    129442.87145
  25283400.21945        34.400          18.300  
  22327706.219 6      3171.073 6      2470.96248  -4544884.477 6  -3512078.04348
  22327702.36748        47.400          35.500  
  21809038.000 6      2638.069 6      2055.63748  -3574353.086 6  -2766786.41048
  21809032.95748        47.500          39.200  
  20728523.383 7       -12.615 7        -9.83048   -612060.047 7   -461121.49248
  20728518.98448        50.600          40.700  
  24202413.109 6       175.469 6       136.72847   -753679.809 6   -582277.33247
  24202408.16047        43.000          30.000  
 08  1 20 18 54 30.0000000  0 12G02G04G05G06G10G12G13G23G24G29G30G31    0.000204065
  20909623.273 7     -1532.473 7     -1194.13648   1683808.980 7   1300416.94548
  20909615.39148        48.300          40.500  
  24011089.227 6     -3183.783 6     -2480.87147   4251233.188 6   3272437.38747
  24011085.18047        43.000          26.500  
  20859891.430 7     -1420.622 7     -1106.98049   1372633.379 7   1063005.21149
  20859886.10949        50.200          41.500  
  22849367.992 6      3140.276 6      2446.96947  -4267478.047 6  -3304460.99647
  22849363.92647        44.200          32.800  
  21946225.813 6      3008.438 6      2344.23648  -4511649.969 6  -3463559.30148
  21946221.30148        47.000          36.700  
  21544363.023 7     -2003.340 7     -1561.04548   2252585.227 7   1745190.64148
  21544358.35548        49.700          40.400  
  24784864.727 4      1528.286 4      1190.87146  -1303098.527 4  -1003374.30546
  24784860.55946        39.100          20.100  
  25283848.945 2      -464.734 2      -362.12545    168821.168 2    131253.49645
  25283842.56345        35.600          18.600  
  22324689.586 6      3169.607 6      2469.82448  -4560732.512 6  -3524427.16448
  22324686.58648        47.500          36.000  
  21806528.648 7      2636.919 7      2054.74148  -3587537.684 7  -2777060.11748
  21806523.77748        48.200          39.200  
  20728538.719 7       -15.978 7       -12.45048   -611980.156 7   -461059.24248
  20728534.01248        50.500          41.100  
  24202248.898 6       172.603 6       134.49747   -754542.824 6   -582949.81647
  24202243.46547        42.800          30.000  
 08  1 20 18 54 35.0000000  0 12G02G04G05G06G10G12G13G23G24G29G30G31    0.000203100
  20911083.367 6     -1534.457 6     -1195.68048   1691481.266 6   1306395.34848
  20911076.22748        46.300          40.400  
  24014118.617 6     -3184.050 6     -2481.07647   4267153.438 6   3284842.76647
  24014115.25847        43.200          27.200  
  20861246.008 6     -1423.467 6     -1109.19548   1379750.715 6   1068551.18448
  20861241.02348        47.500          41.000  
  22846380.773 6      3139.629 6      2446.46247  -4283176.191 6  -3316693.30947
  22846375.81347        44.300          32.100  
  21943365.898 7      3006.112 7      2342.42448  -4526680.527 7  -3475271.42248
  21943361.13748        47.900          36.800  
  21546271.578 7     -2005.663 7     -1562.85448   2262613.543 7   1753004.91048
  21546266.74248        49.200          39.800  
  24783412.813 4      1525.520 4      1188.72446  -1310726.129 4  -1009317.92646
  24783409.35546        39.000          20.100  
  25284293.125 4      -467.564 4      -364.33346    171158.988 4    133075.16046
  25284287.30946        38.300          19.000  
  22321675.500 7      3168.174 7      2468.70748  -4576573.383 7  -3536770.69948
  22321672.06348        48.000          36.000  
  21804021.063 6      2635.796 6      2053.86848  -3600716.664 6  -2787329.45748
  21804016.23848        47.400          40.000  
  20728556.766 7       -19.313 7       -15.05048   -611883.590 7   -460983.99248
  20728552.05948        49.600          41.000  
  24202087.547 6       169.755 6       132.27947   -755391.602 6   -583611.21147
  24202082.12947        42.500          29.800  
 08  1 20 18 54 40.0000000  0 12G02G04G05G06G10G12G13G23G24G29G30G31    0.000202135
  20912545.492 6     -1536.518 6     -1197.28748   1699163.855 6   1312381.78548
  20912537.96148        47.200          40.200  
  24017148.555 6     -3184.399 6     -2481.35047   4283075.434 6   3297249.51647
  24017144.90647        42.900          26.700  
  20862602.797 7     -1426.397 7     -1111.47748   1386882.699 7   1074108.57048
  20862598.29348        48.600          41.200  
  22843394.242 6      3138.903 6      2445.89747  -4298870.707 6  -3328922.79347
  22843389.73847        44.600          31.700  
  21940507.594 6      3003.714 6      2340.55548  -4541699.098 6  -3486974.19548
  21940503.09448        47.000          37.000  
  21548182.352 7     -2008.077 7     -1564.73648   2272653.930 7   1760828.59048
  21548177.41048        49.900          40.000  
  24781964.438 4      1522.683 4      1186.50146  -1318339.543 4  -1015250.43046
  24781960.91446        37.800          21.500  
  25284741.383 3      -470.487 3      -366.62046    173511.426 3    134908.25846
  25284735.34846        35.800          19.300  
  22318662.984 7      3166.656 7      2467.52148  -4592406.664 7  -3549108.30548
  22318659.16048        47.800          35.500  
  21801513.969 7      2634.591 7      2052.92848  -3613889.621 7  -2797594.09848
  21801509.14548        48.100          39.300  
  20728578.609 7       -22.720 7       -17.70449   -611769.988 7   -460895.47349
  20728573.94149        50.300          41.300  
  24201928.383 6       166.840 6       130.00447   -756225.801 6   -584261.23047
  24201923.93847        43.200          30.400  
 08  1 20 18 54 45.0000000  0 12G02G04G05G06G10G12G13G23G24G29G30G31    0.000201170
  20914008.797 7     -1538.488 7     -1198.82248   1706856.293 7   1318375.89548
  20914001.66448        48.900          40.400  
  24020178.828 6     -3184.676 6     -2481.56346   4298998.813 6   3309657.32846
  24020175.12946        42.700          25.800  
  20863962.672 7     -1429.235 7     -1113.69148   1394028.875 7   1079677.02748
  20863957.85248        49.900          41.000  
  22840407.602 6      3138.276 6      2445.41047  -4314562.086 6  -3341149.84447
  22840403.67247        44.600          31.600  
  21937651.609 6      3001.369 6      2338.72748  -4556705.941 6  -3498667.82848
  21937647.45348        47.500          37.200  
  21550095.117 7     -2010.398 7     -1566.54248   2282705.918 7   1768661.30148
  21550090.30148        50.000          40.300  
  24780518.781 4      1519.930 4      1184.36346  -1325939.191 4  -1021172.24646
  24780514.53546        38.500          22.200  
  25285192.219 4      -473.334 4      -368.82946    175878.098 4    136752.40246
  25285185.31646        38.100          19.000  
  22315650.578 7      3165.223 7      2466.40748  -4608232.777 7  -3561440.34048
  22315647.65648        47.800          35.100  
  21799008.734 7      2633.487 7      2052.06748  -3627057.055 7  -2807854.43448
  21799003.35948        48.000          39.500  
  20728603.430 7       -26.052 7       -20.30049   -611639.730 7   -460793.97349
  20728598.68049        50.200          41.700  
  24201772.852 6       164.008 6       127.80047   -757045.840 6   -584900.23047
  24201767.38347        42.700          29.800  
 08  1 20 18 54 50.0000000  0 12G02G04G05G06G10G12G13G23G24G29G30G31    0.000200205
  20915474.828 7     -1540.555 7     -1200.43148   1714559.066 7   1324378.05148
  20915467.79748        49.200          40.300  
  24023209.688 6     -3185.030 6     -2481.84047   4314923.961 6   3322066.52747
  24023205.86747        42.600          26.300  
  20865325.750 7     -1432.180 7     -1115.98248   1401189.773 7   1085256.93848
  20865320.86348        51.200          41.200  
  22837423.195 6      3137.531 6      2444.82847  -4330249.742 6  -3353373.98447
  22837418.36347        45.100          31.800  
  21934798.469 7      2998.938 7      2336.83548  -4571700.633 7  -3510352.00448
  21934794.00848        47.600          36.800  
  21552010.078 7     -2012.813 7     -1568.42548   2292769.980 7   1776503.42648
  21552005.30548        49.600          40.300  
  24779075.328 5      1517.087 5      1182.14346  -1333524.625 5  -1027082.96146
  24779070.79746        39.700          21.800  
  25285645.406 4      -476.259 4      -371.11546    178259.395 4    138607.97746
  25285638.37146        38.700          19.900  
  22312640.898 7      3163.688 7      2465.21148  -4624051.219 7  -3573766.39548
  22312637.24648        48.300          34.900  
  21796503.883 7      2632.272 7      2051.12048  -3640218.414 7  -2818110.03548
  21796499.34848        48.900          39.400  
  20728631.242 7       -29.473 7       -22.96448   -611492.367 7   -460679.15248
  20728626.35948        50.700          41.200  
  24201619.516 6       161.078 6       125.51447   -757851.230 6   -585527.80147
  24201614.22347        42.600          30.400  
 08  1 20 18 54 55.0000000  0 12G02G04G05G06G10G12G13G23G24G29G30G31    0.000199240
  20916942.430 7     -1542.605 7     -1202.03148   1722272.090 7   1330388.20348
  20916935.21148        50.000          40.200  
  24026240.125 5     -3185.372 5     -2482.10547   4330850.820 5   3334477.05547
  24026236.16047        42.100          27.800  
  20866691.133 7     -1435.105 7     -1118.26349   1408365.297 7   1090848.25449
  20866686.07849        50.000          41.600  
  22834437.953 6      3136.814 6      2444.27147  -4345933.813 6  -3365595.34047
  22834434.00447        45.200          32.400  
  21931947.367 6      2996.505 6      2334.93848  -4586683.160 6  -3522026.69148
  21931942.92248        47.200          36.500  
  21553927.773 7     -2015.205 7     -1570.28848   2302846.008 7   1784354.86748
  21553922.57048        48.800          39.900  
  24777634.063 4      1514.245 4      1179.93346  -1341095.852 4  -1032982.62546
  24777630.14846        38.500          21.800  
  25286100.500 4      -479.170 4      -373.38446    180655.246 4    140474.89546
  25286094.26246        38.100          21.300  
  22309631.742 7      3162.185 7      2464.03848  -4639862.145 7  -3586086.58648
  22309628.35248        47.600          34.800  
  21794000.602 7      2631.078 7      2050.19148  -3653373.805 7  -2828360.98848
  21793995.86348        47.900          39.400  
  20728662.602 7       -32.885 7       -25.62549   -611327.941 7   -460551.02749
  20728657.51649        50.700          41.300  
  24201468.805 6       158.162 6       123.24547   -758642.039 6   -586144.02747
  24201463.81347        42.700          29.200  
 08  1 20 18 55  0.0000000  0 12G02G04G05G06G10G12G13G23G24G29G30G31    0.000198273
  20918411.945 7     -1544.654 7     -1203.62448   1729995.359 7   1336406.32448
  20918404.93848        50.300          40.800  
  24029271.469 6     -3185.716 6     -2482.37547   4346779.402 6   3346888.93047
  24029267.55147        42.600          26.500  
  20868059.180 7     -1438.034 7     -1120.54649   1415555.465 7   1096450.98449
  20868054.66449        51.300          41.800  
  22831454.211 6      3136.077 6      2443.69447  -4361614.195 6  -3377813.80947
  22831450.30147        45.400          32.600  
  21929098.789 6      2994.083 6      2333.05148  -4601653.578 6  -3533691.94548
  21929094.28948        47.500          36.900  
  21555847.180 7     -2017.615 7     -1572.16748   2312934.082 7   1792215.70348
  21555842.21948        49.300          39.600  
  24776196.555 4      1511.404 4      1177.71946  -1348652.871 4  -1038871.21946
  24776192.21546        38.300          22.200  
  25286559.711 4      -482.087 4      -375.65246    183065.684 4    142353.15646
  25286552.80546        38.600          20.900  
  22306624.688 7      3160.655 7      2462.84848  -4655665.418 7  -3598400.82448
  22306621.31648        48.100          35.100  
  21791498.563 7      2629.872 7      2049.25048  -3666523.164 7  -2838607.23848
  21791493.53948        48.700          39.700  
  20728697.055 7       -36.305 7       -28.29048   -611146.418 7   -460409.57848
  20728692.56348        50.800          41.100  
  24201320.977 6       155.249 6       120.97147   -759418.285 6   -586748.88347
  24201315.71147        43.900          29.800  
 08  1 20 18 55  5.0000000  0 12G02G04G05G06G10G12G13G23G24G29G30G31    0.000197306
  20919884.445 7     -1546.741 7     -1205.25448   1737729.066 7   1342432.59448
  20919876.83648        50.300          41.000  
  24032302.648 5     -3186.081 5     -2482.65947   4362709.809 5   3359302.22347
  24032299.04747        42.200          26.400  
  20869430.242 7     -1440.974 7     -1122.83749   1422760.336 7   1102065.16849
  20869425.59849        50.900          42.000  
  22828471.234 6      3135.314 6      2443.10147  -4377290.766 6  -3390029.31347
  22828467.07447        44.200          32.600  
  21926252.344 6      2991.618 6      2331.13048  -4616611.668 6  -3545347.59848
  21926247.74648        47.200          36.500  
  21557769.273 7     -2020.045 7     -1574.06048   2323034.305 7   1800086.00448
  21557764.40248        49.800          40.200  
  24774761.563 4      1508.522 4      1175.46946  -1356195.480 4  -1044748.56646
  24774756.86746        38.300          21.100  
  25287020.484 3      -485.040 3      -377.95646    185490.883 3    144242.93846
  25287014.37146        36.700          21.300  
  22303619.336 7      3159.097 7      2461.63348  -4671460.902 7  -3610708.98848
  22303615.44148        48.600          34.800  
  21788997.227 7      2628.630 7      2048.28348  -3679666.313 7  -2848848.65248
  21788992.66448        48.000          40.000  
  20728735.109 7       -39.748 7       -30.97248   -610947.676 7   -460254.71948
  20728730.00048        50.900          41.000  
  24201175.719 6       152.302 6       118.67847   -760179.797 6   -587342.27347
  24201171.43047        43.800          29.700  
 08  1 20 18 55 10.0000000  0 12G02G04G05G06G10G12G13G23G24G29G30G31    0.000196339
  20921357.836 7     -1548.763 7     -1206.82848   1745472.883 7   1348466.73448
  20921350.19548        50.500          40.700  
  24035334.859 5     -3186.406 5     -2482.91346   4378641.836 5   3371716.78546
  24035330.61746        42.100          24.400  
  20870803.914 7     -1443.873 7     -1125.09549   1429979.699 7   1107690.64549
  20870798.88749        51.100          41.900  
  22825488.859 6      3134.612 6      2442.55247  -4392963.824 6  -3402242.07447
  22825484.20347        45.200          32.300  
  21923408.258 6      2989.225 6      2329.26548  -4631557.793 6  -3556993.92248
  21923403.68048        47.500          36.800  
  21559693.500 7     -2022.421 7     -1575.91348   2333146.410 7   1807965.57048
  21559688.68848        49.100          40.000  
  24773328.422 5      1505.685 5      1173.25946  -1363723.906 5  -1050614.86346
  24773324.09846        39.300          21.300  
  25287485.578 3      -487.922 3      -380.19546    187930.492 3    146143.91446
  25287478.74246        35.700          21.100  
  22300614.602 6      3157.602 6      2460.46748  -4687248.914 6  -3623011.32448
  22300611.25448        46.900          35.100  
  21786497.633 7      2627.448 7      2047.36348  -3692803.555 7  -2859085.46548
  21786492.62948        48.700          39.900  
  20728776.195 7       -43.138 7       -33.61448   -610731.984 7   -460086.64848
  20728771.10548        50.800          41.200  
  24201034.438 6       149.411 6       116.42347   -760926.852 6   -587924.38747
  24201029.29347        43.500          29.600  
 08  1 20 18 55 15.0000000  0 12G02G04G05G06G10G12G13G23G24G29G30G31    0.000195372
  20922833.125 7     -1550.857 7     -1208.46048   1753227.168 7   1354509.03548
  20922825.97348        50.800          40.600  
  24038366.500 6     -3186.790 6     -2483.21246   4394575.785 6   3384132.84446
  24038362.87546        42.600          25.400  
  20872180.469 7     -1446.842 7     -1127.40949   1437213.910 7   1113327.68849
  20872175.93449        50.700          41.800  
  22822506.836 6      3133.822 6      2441.93947  -4408632.934 6  -3414451.77047
  22822502.75447        45.500          31.900  
  21920565.953 6      2986.745 6      2327.33248  -4646491.520 6  -3568630.58248
  21920561.77748        46.700          36.200  
  21561620.352 7     -2024.870 7     -1577.81948   2343270.758 7   1815854.66448
  21561615.02748        49.300          40.500  
  24771898.086 4      1502.797 4      1171.01146  -1371237.891 4  -1056469.91846
  24771894.54346        38.500          21.700  
  25287952.125 4      -490.880 4      -382.50246    190384.891 4    148056.42246
  25287946.05146        37.700          21.700  
  22297611.891 7      3156.031 7      2459.24548  -4703029.070 7  -3635307.55148
  22297608.54748        47.800          35.400  
  21783998.781 7      2626.203 7      2046.39148  -3705934.570 7  -2869317.41848
  21783993.78948        47.900          39.400  
  20728820.656 7       -46.591 7       -36.30549   -610499.027 7   -459905.12149
  20728815.51649        50.200          41.600  
  24200894.508 6       146.450 6       114.11847   -761659.102 6   -588494.97747
  24200889.47347        43.000          29.100  
 08  1 20 18 55 20.0000000  0 12G02G04G05G06G10G12G13G23G24G29G30G31    0.000194403
  20924310.711 7     -1552.998 7     -1210.12948   1760992.160 7   1360559.68048
  20924303.60548        50.000          40.700  
  24041399.336 5     -3187.215 5     -2483.54446   4410511.859 5   3396550.56346
  24041395.31646        41.600          25.800  
  20873560.313 7     -1449.850 7     -1129.75249   1444463.160 7   1118976.44949
  20873555.55549        50.600          41.900  
  22819526.086 6      3133.013 6      2441.30947  -4424298.000 6  -3426658.31647
  22819522.01247        45.300          32.700  
  21917727.102 6      2984.201 6      2325.35248  -4661412.523 6  -3580257.34048
  21917722.57848        47.500          36.500  
  21563549.234 7     -2027.359 7     -1579.76048   2353407.555 7   1823753.46548
  21563544.28948        49.100          40.300  
  24770471.625 4      1499.861 4      1168.71946  -1378737.195 4  -1062313.51646
  24770467.55946        38.400          21.800  
  25288422.102 3      -493.891 3      -384.85546    192854.344 3    149980.69546
  25288416.55146        36.700          21.500  
  22294610.891 7      3154.414 7      2457.98048  -4718801.141 7  -3647597.44948
  22294607.06648        48.400          35.100  
  21781500.664 7      2624.903 7      2045.38048  -3719059.086 7  -2879544.31648
  21781495.95748        47.900          39.600  
  20728868.031 7       -50.095 7       -39.03549   -610248.555 7   -459709.94549
  20728863.09849        50.300          41.600  
  24200758.156 6       143.451 6       111.78047   -762376.355 6   -589053.87547
  24200753.25047        43.700          29.600  
 08  1 20 18 55 25.0000000  0 12G02G04G05G06G10G12G13G23G24G29G30G31    0.000193436
  20925790.344 7     -1555.007 7     -1211.69448   1768767.195 7   1366618.14848
  20925783.18848        48.600          40.500  
  24044431.148 5     -3187.521 5     -2483.78446   4426449.465 5   3408969.48446
  24044428.23846        42.000          25.400  
  20874942.531 7     -1452.738 7     -1132.00549   1451726.852 7   1124636.47349
  20874937.60549        49.900          41.600  
  22816546.266 6      3132.302 6      2440.75147  -4439959.508 6  -3438862.07047
  22816541.60247        44.800          32.700  
  21914889.609 6      2981.797 6      2323.47648  -4676321.508 6  -3591874.71948
  21914885.23848        46.900          36.500  
  21565480.461 7     -2029.730 7     -1581.60748   2363556.207 7   1831661.50048
  21565475.74248        49.000          40.400  
  24769047.438 4      1497.057 4      1166.54546  -1386222.480 4  -1068146.23846
  24769043.01646        38.300          21.300  
  25288894.484 3      -496.763 3      -387.08746    195338.156 3    151916.13346
  25288888.46546        36.900          20.600  
  22291610.984 7      3152.913 7      2456.81848  -4734565.707 7  -3659881.53948
  22291607.11348        47.800          34.900  
  21779004.477 7      2623.720 7      2044.45748  -3732177.688 7  -2889766.60248
  21778999.68048        47.900          39.600  
  20728919.117 7       -53.481 7       -41.67248   -609981.148 7   -459501.58648
  20728914.13748        50.400          41.200  
  24200625.289 6       140.570 6       109.53747   -763079.207 6   -589601.56347
  24200619.23047        44.000          29.300  
 08  1 20 18 55 30.0000000  0 12G02G04G05G06G10G12G13G23G24G29G30G31    0.000192467
  20927271.789 6     -1557.093 6     -1213.31948   1776552.660 6   1372684.74248
  20927264.92648        47.000          40.500  
  24047465.391 5     -3187.902 5     -2484.07846   4442388.977 5   3421389.87546
  24047461.08246        41.700          26.100  
  20876327.047 7     -1455.688 7     -1134.30248   1459005.293 7   1130307.98048
  20876322.39848        48.000          41.200  
  22813566.219 6      3131.537 6      2440.15947  -4455617.191 6  -3451062.86747
  22813561.75447        44.800          32.800  
  21912055.438 6      2979.333 6      2321.55748  -4691218.176 6  -3603482.50448
  21912050.38348        47.000          36.900  
  21567414.117 7     -2032.153 7     -1583.49648   2373716.973 7   1839578.98048
  21567409.05548        49.200          40.400  
  24767625.711 4      1494.164 4      1164.28246  -1393693.301 4  -1073967.64846
  24767620.78946        38.700          20.400  
  25289370.031 3      -499.706 3      -389.38246    197836.688 3    153863.04346
  25289364.37946        36.200          21.300  
  22288612.109 7      3151.354 7      2455.59948  -4750322.477 7  -3672159.53548
  22288608.90248        47.900          34.700  
  21776509.203 7      2622.476 7      2043.48848  -3745290.066 7  -2899984.03948
  21776504.40248        47.700          39.500  
  20728973.453 7       -56.928 7       -44.35948   -609696.508 7   -459279.78948
  20728968.23448        50.300          40.900  
  24200493.445 6       137.616 6       107.23347   -763767.289 6   -590137.72747
  24200488.23447        43.800          29.600  
 08  1 20 18 55 35.0000000  0 12G02G04G05G06G10G12G13G23G24G29G30G31    0.000191498
  20928755.180 6     -1559.093 6     -1214.87748   1784348.125 6   1378759.12948
  20928747.74248        47.000          40.300  
  24050498.656 5     -3188.193 5     -2484.30347   4458329.941 5   3433811.39147
  24050494.94147        41.400          26.300  
  20877715.633 7     -1458.559 7     -1136.53849   1466298.090 7   1135990.67249
  20877710.18049        47.800          41.300  
  22810587.445 6      3130.835 6      2439.60947  -4471271.367 6  -3463260.91447
  22810583.04747        45.100          32.700  
  21909222.945 6      2976.902 6      2319.66348  -4706102.688 6  -3615080.82048
  21909218.04348        47.200          37.000  
  21569349.484 7     -2034.509 7     -1585.33048   2383889.516 7   1847505.63348
  21569344.55548        49.300          40.700  
  24766206.641 4      1491.348 4      1162.09446  -1401150.039 4  -1079778.12146
  24766201.73846        38.500          20.900  
  25289848.227 4      -502.581 4      -391.62546    200349.594 4    155821.16846
  25289842.50846        38.100          20.600  
  22285615.211 7      3149.866 7      2454.43948  -4766071.805 7  -3684431.73048
  22285611.70748        47.900          34.900  
  21774015.469 7      2621.306 7      2042.57748  -3758396.598 7  -2910196.92248
  21774010.79348        47.700          39.000  
  20729030.336 7       -60.302 7       -46.98948   -609395.000 7   -459044.84448
  20729025.44148        50.400          40.900  
  24200365.906 6       134.740 6       104.99447   -764440.988 6   -590662.69547
  24200360.06647        43.400          29.900  
 08  1 20 18 55 40.0000000  0 12G02G04G05G06G10G12G13G23G24G29G30G31    0.000190527
  20930240.680 7     -1561.145 7     -1216.47748   1792153.852 7   1384841.51248
  20930233.56648        48.400          40.300  
  24053531.781 5     -3188.522 5     -2484.56547   4474272.551 5   3446234.21547
  24053528.37947        41.700          26.700  
  20879106.055 7     -1461.483 7     -1138.81848   1473605.504 7   1141684.76248
  20879100.89848        48.200          40.600  
  22807609.266 6      3130.080 6      2439.02547  -4486921.766 6  -3475456.03947
  22807604.93447        45.400          32.600  
  21906392.281 6      2974.457 6      2317.75748  -4720974.973 6  -3626669.60548
  21906387.75048        46.900          36.800  
  21571287.836 7     -2036.905 7     -1587.19748   2394074.039 7   1855441.61748
  21571282.40648        49.400          40.500  
  24764790.250 4      1488.488 4      1159.85346  -1408592.480 4  -1085577.38746
  24764785.65246        38.200          20.600  
  25290329.227 2      -505.500 2      -393.88846    202877.094 2    157790.60946
  25290323.78946        35.600          20.400  
  22282619.445 7      3148.322 7      2453.23848  -4781813.414 7  -3696697.91848
  22282616.00848        47.900          34.700  
  21771522.703 7      2620.080 7      2041.61948  -3771496.996 7  -2920405.01648
  21771517.71548        47.800          39.200  
  20729091.219 7       -63.730 7       -49.66048   -609076.352 7   -458796.54348
  20729086.48448        50.600          40.800  
  24200240.867 6       131.823 6       102.72147   -765100.102 6   -591176.30147
  24200234.74647        44.100          28.900  
 08  1 20 18 55 45.0000000  0 12G02G04G05G06G10G12G13G23G24G29G30G31    0.000189558
  20931728.211 7     -1563.317 7     -1218.16848   1799970.438 7   1390932.35248
  20931721.01248        49.500          40.300  
  24056566.359 5     -3189.002 5     -2484.93047   4490217.563 5   3458658.86747
  24056562.59447        40.300          26.500  
  20880499.172 7     -1464.526 7     -1141.18748   1480928.133 7   1147390.69548
  20880494.34048        49.700          40.800  
  22804632.094 6      3129.228 6      2438.35847  -4502567.906 6  -3487647.82847
  22804627.68447        45.000          32.200  
  21903564.734 6      2971.872 6      2315.74448  -4735834.332 6  -3638248.32448
  21903560.12548        46.800          37.000  
  21573228.344 7     -2039.423 7     -1589.16148   2404271.156 7   1863387.42248
  21573223.08248        49.100          40.000  
  24763377.219 4      1485.502 4      1157.53446  -1416019.988 4  -1091365.05546
  24763372.08246        39.100          20.400  
  25290813.281 4      -508.541 4      -396.27046    205419.797 4    159771.95746
  25290807.25846        37.600          19.000  
  22279625.570 7      3146.656 7      2451.93748  -4797546.691 7  -3708957.60248
  22279622.41048        48.500          35.200  
  21769031.148 6      2618.733 6      2040.57248  -3784590.660 6  -2930607.87548
  21769026.02748        47.500          39.200  
  20729155.070 7       -67.271 7       -52.41948   -608739.996 7   -458534.44948
  20729150.20348        50.300          40.900  
  24200117.492 6       128.778 6       100.34647   -765743.992 6   -591678.03147
  24200112.56647        43.600          29.300  
 08  1 20 18 55 50.0000000  0 12G02G04G05G06G10G12G13G23G24G29G30G31    0.000188587
  20933217.586 7     -1565.416 7     -1219.80548   1807797.516 7   1397031.37548
  20933210.41048        50.800          40.600  
  24059601.297 5     -3189.391 5     -2485.24146   4506164.520 5   3471085.07046
  24059596.97746        41.300          25.400  
  20881895.586 7     -1467.498 7     -1143.50548   1488265.625 7   1153108.21948
  20881890.45748        50.600          40.800  
  22801655.508 6      3128.409 6      2437.72147  -4518209.953 6  -3499836.43447
  22801651.26647        44.800          32.600  
  21900739.805 6      2969.369 6      2313.79348  -4750681.176 6  -3649817.28948
  21900735.34848        46.800          36.200  
  21575171.180 7     -2041.867 7     -1591.06648   2414480.492 7   1871342.75048
  21575165.80148        49.600          40.000  
  24761966.438 3      1482.573 3      1155.25246  -1423432.855 3  -1097141.31646
  24761961.57846        37.300          20.900  
  25291300.328 3      -511.514 3      -398.58446    207977.367 3    161764.87946
  25291294.32446        37.300          19.000  
  22276633.250 7      3145.068 7      2450.70048  -4813272.031 7  -3721211.10248
  22276629.15648        47.900          34.900  
  21766540.633 7      2617.458 7      2039.57748  -3797677.949 7  -2940805.75848
  21766535.53948        47.900          39.100  
  20729222.484 7       -70.736 7       -55.12048   -608386.316 7   -458258.85248
  20729217.11748        50.400          41.200  
  24199998.055 6       125.809 6        98.03047   -766373.039 6   -592168.18047
  24199992.83247        43.400          29.300  
 08  1 20 18 55 55.0000000  0 12G02G04G05G06G10G12G13G23G24G29G30G31    0.000187618
  20934708.836 7     -1567.577 7     -1221.48848   1815635.402 7   1403138.81648
  20934701.78948        49.400          40.300  
  24062636.219 5     -3189.840 5     -2485.58746   4522113.719 5   3483513.00446
  24062632.17646        40.800          26.000  
  20883294.672 7     -1470.527 7     -1145.86648   1495618.262 7   1158837.55148
  20883289.56648        49.900          40.800  
  22798679.516 6      3127.555 6      2437.05547  -4533847.727 6  -3512021.71147
  22798674.91047        45.100          32.300  
  21897916.695 6      2966.784 6      2311.78048  -4765515.094 6  -3661376.18848
  21897912.34848        47.300          36.700  
  21577116.328 7     -2044.381 7     -1593.02348   2424702.398 7   1879307.86748
  21577111.18448        49.300          40.400  
  24760559.211 4      1479.594 4      1152.93446  -1430830.828 4  -1102905.98446
  24760553.54746        39.100          20.400  
  25291789.273 3      -514.534 3      -400.93246    210550.039 3    163769.53946
  25291783.11346        37.000          19.600  
  22273642.461 7      3143.403 7      2449.40648  -4828989.047 7  -3733458.13348
  22273639.00848        47.800          35.100  
  21764051.078 6      2616.116 6      2038.53148  -3810758.527 6  -2950998.41448
  21764046.48048        47.500          39.600  
  20729293.047 7       -74.271 7       -57.87348   -608014.961 7   -457969.48848
  20729287.75448        50.800          41.000  
  24199880.781 6       122.776 6        95.67047   -766986.918 6   -592646.52747
  24199875.75847        42.600          29.100  
 08  1 20 18 56  0.0000000  0 12G02G04G05G06G10G12G13G23G24G29G30G31    0.000186647
  20936202.438 7     -1569.670 7     -1223.12048   1823483.754 7   1409254.41448
  20936195.46948        47.700          40.700  
  24065671.750 5     -3190.215 5     -2485.88046   4538064.793 5   3495942.40646
  24065667.83646        41.000          25.000  
  20884696.625 7     -1473.481 7     -1148.16748   1502985.668 7   1164578.38748
  20884691.31348        48.400          41.000  
  22795704.773 6      3126.754 6      2436.43147  -4549481.496 6  -3524203.86747
  22795699.53547        44.900          32.300  
  21895096.258 6      2964.275 6      2309.82348  -4780336.469 6  -3672925.30148
  21895092.03148        46.800          36.500  
  21579063.547 7     -2046.807 7     -1594.91248   2434936.434 7   1887282.43048
  21579058.46948        49.300          40.200  
  24759153.320 5      1476.673 5      1150.65246  -1438214.195 5  -1108659.24646
  24759148.67646        40.100          21.300  
  25292282.070 4      -517.491 4      -403.24146    213137.492 4    165785.74646
  25292276.19946        37.700          20.100  
  22270652.906 7      3141.815 7      2448.16648  -4844698.121 7  -3745698.96148
  22270649.59448        47.600          34.600  
  21761562.852 6      2614.844 6      2037.54148  -3823832.746 6  -2961186.11748
  21761558.60948        47.200          39.400  
  20729367.133 7       -77.738 7       -60.57549   -607626.273 7   -457666.61349
  20729362.06649        50.500          41.300  
  24199766.984 6       119.808 6        93.35947   -767585.957 6   -593113.32447
  24199761.54347        43.500          29.100  
 08  1 20 18 56  5.0000000  0 12G02G04G05G06G10G12G13G23G24G29G30G31    0.000185678
  20937697.719 6     -1571.642 6     -1224.65648   1831341.965 6   1415377.69548
  20937690.89548        46.400          41.000  
  24068707.570 5     -3190.474 5     -2486.08346   4554017.164 5   3508372.82446
  24068703.46146        41.000          24.600  
  20886101.148 6     -1476.329 6     -1150.38549   1510367.313 6   1170330.31349
  20886096.16049        47.000          41.300  
  22792730.492 6      3126.082 6      2435.90747  -4565111.906 6  -3536383.40247
  22792725.49647        45.000          32.000  
  21892278.117 6      2961.862 6      2307.94148  -4795145.777 6  -3684465.00848
  21892273.75448        47.200          36.800  
  21581013.422 7     -2049.128 7     -1596.72348   2445182.074 7   1895266.04748
  21581008.00048        49.500          39.600  
  24757750.703 5      1473.868 5      1148.46146  -1445583.536 5  -1114401.55346
  24757746.75846        39.600          22.000  
  25292777.727 4      -520.337 4      -405.44946    215739.176 4    167812.99246
  25292770.80146        38.000          20.600  
  22267665.195 7      3140.342 7      2447.02048  -4860399.832 7  -3757934.06348
  22267661.58248        47.900          35.100  
  21759076.617 6      2613.688 6      2036.63948  -3836901.188 6  -2971369.31348
  21759071.64848        46.200          39.100  
  20729444.234 7       -81.081 7       -63.18049   -607220.867 7   -457350.71549
  20729439.09449        50.700          41.600  
  24199656.102 6       116.957 6        91.13747   -768170.742 6   -593569.00847
  24199650.20347        43.600          29.200  
 08  1 20 18 56 10.0000000  0 12G02G04G05G06G10G12G13G23G24G29G30G31    0.000184706
  20939195.094 6     -1573.701 6     -1226.25948   1839210.469 6   1421508.99248
  20939188.11348        47.500          40.900  
  24071743.758 5     -3190.822 5     -2486.35546   4569971.273 5   3520804.59846
  24071738.87546        41.400          24.300  
  20887508.672 6     -1479.255 6     -1152.66748   1517763.590 6   1176093.64848
  20887503.73048        47.500          40.600  
  22789757.125 6      3125.309 6      2435.30247  -4580738.449 6  -3548559.91447
  22789752.18847        45.000          32.300  
  21889462.625 6      2959.389 6      2306.01948  -4809942.723 6  -3695995.10248
  21889458.11748        47.200          36.800  
  21582965.664 7     -2051.532 7     -1598.59548   2455439.734 7   1903259.02348
  21582960.15248        49.100          40.100  
  24756351.859 4      1470.984 4      1146.22946  -1452938.457 4  -1120132.69946
  24756346.95746        37.500          21.500  
  25293274.578 4      -523.257 4      -407.73846    218355.461 4    169851.68446
  25293268.56346        38.200          21.300  
  22264678.852 6      3138.784 6      2445.80248  -4876093.754 6  -3770163.07448
  22264675.27748        47.300          34.800  
  21756590.727 6      2612.442 6      2035.67048  -3849963.398 6  -2981547.66048
  21756586.05948        47.300          38.800  
  20729524.625 7       -84.519 7       -65.85948   -606798.273 7   -457021.41848
  20729519.68848        50.100          41.200  
  24199547.344 6       114.034 6        88.85547   -768740.914 6   -594013.28147
  24199541.80947        43.700          29.100  
 08  1 20 18 56 15.0000000  0 12G02G04G05G06G10G12G13G23G24G29G30G31    0.000183735
  20940694.477 7     -1575.695 7     -1227.81548   1847088.941 7   1427648.06648
  20940687.74248        48.800          40.800  
  24074779.047 5     -3191.115 5     -2486.58246   4585926.848 5   3533237.50846
  24074775.22346        41.300          25.700  
  20888918.531 7     -1482.116 7     -1154.89548   1525174.172 7   1181868.12148
  20888913.77748        49.100          41.000  
  22786784.070 6      3124.598 6      2434.75447  -4596361.438 6  -3560733.68447
  22786779.38347        45.600          32.600  
  21886649.109 6      2956.955 6      2304.11848  -4824727.496 6  -3707515.69148
  21886644.38748        46.500          36.800  
  21584919.742 7     -2053.870 7     -1600.41648   2465709.086 7   1911261.10548
  21584914.25448        49.200          40.100  
  24754955.266 3      1468.156 3      1144.01446  -1460279.234 3  -1125852.77046
  24754950.11746        37.200          21.500  
  25293775.523 4      -526.114 4      -409.96846    220986.031 4    171901.52346
  25293769.27746        37.900          21.500  
  22261693.547 6      3137.282 6      2444.63548  -4891780.164 6  -3782386.25048
  22261690.23848        47.200          35.500  
  21754105.930 7      2611.258 7      2034.74748  -3863019.688 7  -2991721.39548
  21754101.40248        47.800          38.800  
  20729608.469 7       -87.893 7       -68.48848   -606358.809 7   -456678.98048
  20729603.20748        49.900          40.900  
  24199441.594 6       111.159 6        86.62147   -769296.707 6   -594446.38747
  24199436.07447        43.000          29.400  
 08  1 20 18 56 20.0000000  0 13G02G04G05G06G10G12G13G21G23G24G29G30    0.000182762
                                G31
  20942195.891 7                                   1854977.566 7   1433795.04348
  20942188.46948        50.200          40.600  
  24077815.258 5                                   4601883.973 5   3545671.64546
  24077811.64146        40.700          24.700  
  20890332.023 7                                   1532599.313 7   1187653.93848
  20890326.75848        49.800          40.700  
  22783811.922 6      3123.847 6      2434.16347  -4611980.672 6  -3572904.50047
  22783807.12547        45.500          33.200  
  21883837.625 6                                  -4839499.906 6  -3719026.66448
  21883833.20748        47.100          36.800  
  21586875.992 7                                   2475990.355 7   1919272.48448
  21586870.92648        49.200          40.300  
  24753560.570 4      1465.273 4      1141.77046  -1467605.602 4  -1131561.62146
  24753555.49646        38.200          21.500  
  25991987.961 3                                   -110640.84413
                        36.200  
  25294279.625 5      -529.038 5      -412.22646    223631.223 5    173962.65246
  25294271.96946        39.500          21.500  
  22258710.305 6                                  -4907458.824 6  -3794603.37948
  22258706.80548        47.400          35.400  
  21751622.602 7      2610.026 7      2033.78648  -3876069.816 7  -3001890.32448
  21751617.85548        47.600          38.600  
  20729695.250 7       -91.309 7       -71.15048   -605902.262 7   -456323.23048
  20729690.11348        50.100          40.600  
  24199338.750 6       108.250 6        84.35147   -769837.957 6   -594868.14147
  24199333.39147        43.600          29.400  
 08  1 20 18 56 25.0000000  0 13G02G04G05G06G10G12G13G21G23G24G29G30    0.000181791
                                G31
  20943698.781 7     -1579.755 7     -1230.97748   1862876.340 7   1439949.92648
  20943691.55948        49.800          40.400  
  24080852.805 5     -3191.752 5     -2487.07446   4617842.734 5   3558107.01646
  24080849.15646        40.500          25.000  
  20891747.203 7     -1487.925 7     -1159.42248   1540038.938 7   1193451.04748
  20891742.38348        49.800          40.800  
  22780840.000 6      3123.104 6      2433.59047  -4627596.191 6  -3585072.44947
  22780835.46947        45.800          33.300  
  21881029.500 6      2952.005 6      2300.26248  -4854259.934 6  -3730527.97748
  21881024.58248        45.700          37.000  
  21588834.758 7     -2058.625 7     -1604.12348   2486283.480 7   1927293.09848
  21588829.20348        48.800          40.300  
  24752169.023 4      1462.413 4      1139.54946  -1474917.668 4  -1137259.36746
  24752164.43846        38.600          20.900  
  25988524.859 3      3639.54213                   -128838.555 3
                        35.700  
  25294785.383 5      -531.933 5      -414.50246    226290.887 5    176035.16046
  25294778.26246        39.800          21.300  
  22255728.109 7      3134.190 7      2442.22348  -4923129.773 7  -3806814.49648
  22255724.51648        48.300          35.000  
  21749140.477 7      2608.800 7      2032.83048  -3889113.816 7  -3012054.47748
  21749135.85948        47.900          38.500  
  20729785.078 7       -94.719 7       -73.80748   -605428.668 7   -455954.19548
  20729780.91848        49.600          41.200  
  24199238.172 6       105.345 6        82.08947   -770364.684 6   -595278.58647
  24199232.69947        42.600          28.700  
 08  1 20 18 56 30.0000000  0 13G02G04G05G06G10G12G13G21G23G24G29G30    0.000180819
                                G31
  20945203.867 7     -1581.819 7     -1232.58548   1870785.434 7   1446112.85248
  20945196.41848        48.700          40.600  
  24083890.188 5     -3192.104 5     -2487.35546   4633803.254 5   3570543.78946
  24083886.08646        41.100          24.200  
  20893165.828 7     -1490.858 7     -1161.70648   1547493.227 7   1199259.57848
  20893160.96948        49.200          40.300  
  22777869.750 6      3122.316 6      2432.97247  -4643207.773 6  -3597237.30947
  22777864.49647        45.700          33.000  
  21878222.742 6      2949.520 6      2298.32848  -4869007.535 6  -3742019.61748
  21878218.28548        47.000          37.000  
  21590795.992 7     -2061.036 7     -1606.00248   2496588.660 7   1935323.10548
  21590790.58648        49.300          40.100  
  24750779.844 4      1459.499 4      1137.26646  -1482215.164 4  -1142945.69946
  24750775.51646        38.900          21.800  
  25985062.258 4      3639.518 4                   -147036.145 4
                        38.400  
  25295293.813 5      -534.866 5      -416.77846    228965.219 5    178119.05146
  25295287.34046        39.800          21.300  
  22252747.234 6      3132.613 6      2440.99948  -4938792.840 6  -3819019.49248
  22252744.29348        47.300          35.300  
  21746659.766 6      2607.548 6      2031.85448  -3902151.555 6  -3022213.74648
  21746655.03148        47.400          38.800  
  20729878.250 7       -98.170 7       -76.49649   -604937.816 7   -455571.71549
  20729873.44949        49.600          41.300  
  24199141.258 6       102.399 6        79.78947   -770876.680 6   -595677.53147
  24199134.97347        42.700          28.700  
 08  1 20 18 56 35.0000000  0 13G02G04G05G06G10G12G13G21G23G24G29G30    0.000179846
                                G31
  20946710.914 6     -1583.838 6     -1234.16048   1878704.625 6   1452283.65248
  20946703.75048        47.000          41.000  
  24086927.367 5     -3192.421 5     -2487.59746   4649765.359 5   3582981.77346
  24086923.51246        40.900          25.600  
  20894587.250 7     -1493.763 7     -1163.97148   1554962.043 7   1205079.43448
  20894582.32048        48.000          40.600  
  22774899.688 6      3121.541 6      2432.36947  -4658815.477 6  -3609399.15247
  22774894.53947        46.000          32.100  
  21875418.906 6      2947.009 6      2296.36948  -4883742.582 6  -3753501.46148
  21875414.31648        47.000          36.700  
  21592759.086 7     -2063.414 7     -1607.85548   2506905.730 7   1943362.37948
  21592753.35248        48.800          40.500  
  24749393.109 3      1456.609 3      1135.02046  -1489498.207 3  -1148620.79746
  24749389.52046        36.500          20.900  
  25981599.555 4      3639.538 4                   -165233.836 4
                        38.600  
  25295805.359 4      -537.777 4      -419.05446    231654.105 4    180214.32046
  25295799.37546        38.400          21.100  
  22249768.320 6      3131.058 6      2439.78448  -4954448.129 6  -3831218.41048
  22249764.69148        47.300          35.400  
  21744179.844 7      2606.314 7      2030.89548  -3915183.125 7  -3032368.22348
  21744175.09048        47.900          38.900  
  20729975.352 7      -101.594 7       -79.16448   -604429.848 7   -455175.89548
  20729970.20748        49.600          41.000  
  24199046.266 6        99.487 6        77.52147   -771374.113 6   -596065.13747
  24199040.80947        43.200          29.800  
 08  1 20 18 56 40.0000000  0 13G02G04G05G06G10G12G13G21G23G24G29G30    0.000178871
                                G31
  20948219.625 6     -1585.790 6     -1235.68048   1886633.574 6   1458462.05548
  20948212.55148        46.400          41.000  
  24089965.563 5     -3192.668 5     -2487.79146   4665728.699 5   3595420.72746
  24089961.15246        40.700          24.900  
  20896011.500 6     -1496.591 6     -1166.17448   1562445.000 6   1210910.30548
  20896006.14848        47.000          40.100  
  22771929.484 6      3120.863 6      2431.84047  -4674419.793 6  -3621558.35247
  22771924.87947        45.800          32.800  
  21872617.352 7      2944.612 7      2294.50248  -4898465.641 7  -3764973.97348
  21872612.52348        48.000          36.200  
  21594724.578 7     -2065.717 7     -1609.64848   2517234.316 7   1951410.62148
  21594719.48448        49.600          40.800  
  24748010.344 4      1453.805 4      1132.83646  -1496767.234 4  -1154284.97746
  24748005.99646        37.500          20.900  
  25978137.109 4      3639.622 4                   -183431.945 4     -3401.34056
  25978128.91446        38.700          22.000  
  25296320.367 4      -540.604 4      -421.24546    234357.125 4    182320.54746
  25296313.66446        38.400          19.900  
  22246790.773 7      3129.584 7      2438.63548  -4970096.051 7  -3843411.58648
  22246787.20748        47.800          35.500  
  21741701.594 6      2605.149 6      2029.98348  -3928208.871 6  -3042518.13748
  21741696.53548        47.300          39.100  
  20730075.211 7      -104.934 7       -81.76748   -603905.180 7   -454767.05948
  20730070.28948        50.100          40.900  
  24198953.836 6        96.636 6        75.30247   -771857.293 6   -596441.64547
  24198948.73047        44.100          30.000  
 08  1 20 18 56 45.0000000  0 13G02G04G05G06G10G12G13G21G23G24G29G30    0.000177898
                                G31
  20949730.625 6     -1587.803 6     -1237.24848   1894572.590 6   1464648.29748
  20949722.91848        47.400          41.200  
  24093003.328 5     -3192.966 5     -2488.02846   4681693.527 5   3607860.86746
  24092999.37546        41.400          24.900  
  20897437.688 6     -1499.470 6     -1168.41848   1569942.352 6   1216752.39548
  20897433.10548        47.500          40.000  
  22768960.984 6      3120.126 6      2431.26847  -4690020.426 6  -3633714.69147
  22768956.40647        45.300          33.100  
  21869818.086 6      2942.141 6      2292.57748  -4913176.348 6  -3776436.85548
  21869813.19948        47.000          36.100  
  21596692.125 7     -2068.077 7     -1611.48848   2527574.699 7   1959468.05948
  21596686.91848        50.000          40.900  
  24746629.781 4      1450.938 4      1130.59946  -1504021.926 4  -1159937.97346
  24746625.75046        38.300          20.400  
  25974673.313 4      3639.664 4      2836.10756   -201630.266 4    -17581.87546
  25974666.86746        37.900          20.600  
  25296837.203 4      -543.497 4      -423.50246    237074.609 4    184438.05546
  25296830.95746        37.800          19.300  
  22243814.422 6      3128.049 6      2437.44248  -4985736.297 6  -3855598.79748
  22243810.76648        47.100          35.600  
  21739223.461 7      2603.930 7      2029.03748  -3941228.520 7  -3052663.32048
  21739219.28148        47.900          39.300  
  20730177.945 7      -108.333 7       -84.41548   -603363.516 7   -454344.98448
  20730173.34848        50.000          41.000  
  24198864.758 6        93.737 6        73.04247   -772325.977 6   -596806.85547
  24198860.21147        43.600          30.500  
 08  1 20 18 56 50.0000000  0 13G02G04G05G06G10G12G13G21G23G24G29G30    0.000176922
                                G31
  20951243.227 7     -1589.786 7     -1238.79549   1902521.520 7   1470842.27049
  20951235.94149        49.200          41.500  
  24096041.773 5     -3193.234 5     -2488.23246   4697659.695 5   3620302.02746
  24096037.16046        40.700          24.800  
  20898867.703 7     -1502.321 7     -1170.63848   1577453.957 7   1222605.58648
  20898862.41848        49.500          40.300  
  22765993.070 6      3119.409 6      2430.70547  -4705617.469 6  -3645868.21547
  22765988.47747        45.800          33.000  
  21867020.688 6      2939.698 6      2290.67048  -4927874.836 6  -3787890.20748
  21867016.03948        47.500          36.900  
  21598662.273 7     -2070.395 7     -1613.29548   2537926.676 7   1967534.53548
  21598656.61748        48.500          40.500  
  24745252.422 5      1448.095 5      1128.38446  -1511262.402 5  -1165579.89546
  24745247.80146        39.400          21.500  
  25971210.961 4      3639.725 4      2836.14846   -219828.891 4    -31762.61346
  25971204.79746        38.900          20.100  
  25297357.320 4      -546.363 4      -425.73046    239806.426 4    186566.70346
  25297350.46146        37.700          19.300  
  22240839.391 6      3126.544 6      2436.26548  -5001369.016 6  -3867780.12148
  22240836.17648        47.500          35.500  
  21736747.156 7      2602.738 7      2028.10748  -3954242.207 7  -3062803.85548
  21736742.45348        48.300          39.200  
  20730284.758 7      -111.702 7       -87.03948   -602805.008 7   -453909.78948
  20730279.62148        49.600          40.800  
  24198778.664 6        90.873 6        70.81047   -772780.340 6   -597160.90647
  24198773.43447        43.600          29.900  
 08  1 20 18 56 55.0000000  0 13G02G04G05G06G10G12G13G21G23G24G29G30    0.000175947
                                G31
  20952757.664 7     -1591.723 7     -1240.30448   1910480.137 7   1477043.78948
  20952750.36748        49.900          41.200  
  24099080.367 5     -3193.455 5     -2488.40746   4713626.969 5   3632744.06346
  24099076.04346        40.700          24.000  
  20900299.430 7     -1505.131 7     -1172.83148   1584979.613 7   1228469.74248
  20900294.65648        50.200          40.400  
  22763025.539 6      3118.733 6      2430.18047  -4721211.133 6  -3658019.11747
  22763021.32847        45.800          32.700  
  21864225.938 7      2937.315 7      2288.81748  -4942561.410 7  -3799334.29348
  21864221.52348        47.600          36.100  
  21600634.625 7     -2072.681 7     -1615.07348   2548290.082 7   1975609.90248
  21600629.04348        48.800          40.900  
  24743877.570 5      1445.294 5      1126.20246  -1518488.871 5  -1171210.90646
  24743872.78946        39.200          21.300  
  25967746.828 5      3639.838 5      2836.23746   -238028.082 5    -45943.79746
  25967741.60946        40.300          21.100  
  25297879.242 4      -549.176 4      -427.93546    242552.305 4    188706.37946
  25297873.01246        37.500          19.600  
  22237866.195 7      3125.082 7      2435.13048  -5016994.426 7  -3879955.77048
  22237862.58648        48.300          35.500  
  21734271.688 7      2601.587 7      2027.21148  -3967250.145 7  -3072939.91048
  21734266.89848        47.900          38.700  
  20730393.906 7      -115.027 7       -89.63448   -602229.871 7   -453461.62148
  20730389.12148        49.600          40.800  
  24198694.664 6        88.057 6        68.61847   -773220.625 6   -597503.99647
  24198690.01247        44.100          29.900  
 08  1 20 18 57  0.0000000  0 13G02G04G05G06G10G12G13G21G23G24G29G30    0.000174971
                                G31
  20954273.469 7     -1593.612 7     -1241.77548   1918448.195 7   1483252.66448
  20954265.96548        50.000          41.200  
  24102118.289 5     -3193.648 5     -2488.55546   4729595.207 5   3645186.83646
  24102114.33646        40.300          22.600  
  20901734.313 7     -1507.874 7     -1174.96548   1592518.984 7   1234344.56648
  20901729.23048        51.000          40.700  
  22760058.945 6      3118.111 6      2429.69747  -4736801.688 6  -3670167.60247
  22760054.65247        45.800          32.800  
  21861433.242 6      2934.913 6      2286.94548  -4957235.977 6  -3810769.02048
  21861428.57048        47.500          36.500  
  21602608.883 7     -2074.909 7     -1616.81348   2558664.625 7   1983693.96948
  21602603.30548        48.800          40.700  
  24742504.648 4      1442.538 4      1124.05446  -1525701.563 4  -1176831.17646
  24742500.37146        38.000          20.900  
  25964284.438 5      3639.998 5      2836.36646   -256228.070 5    -60125.62546
  25964278.72746        42.100          22.000  
  25298404.422 4      -551.930 4      -430.08046    245311.957 4    190856.77746
  25298398.25846        38.600          20.100  
  22234894.109 7      3123.674 7      2434.03148  -5032612.797 7  -3892125.92648
  22234890.31348        48.000          35.100  
  21731797.539 7      2600.488 7      2026.35348  -3980252.582 7  -3083071.67648
  21731792.66048        48.000          38.900  
  20730506.641 7      -118.295 7       -92.17548   -601638.398 7   -453000.74648
  20730501.58648        49.800          41.000  
  24198613.602 6        85.281 6        66.45047   -773647.031 6   -597836.24647
  24198608.47347        43.700          29.500  
