     2.11           OBSERVATION DATA    GPS(GPS)            RINEX VERSION / TYPE
convertToRinex 1.14 convertToRINEX OPR  16-Jan-08 21:57 UTC PGM / RUN BY / DATE 
----------------------------------------------------------- COMMENT             
nw2                                                         MARKER NAME         
                                                            MARKER NUMBER       
GNSS Observer       Trimble                                 OBSERVER / AGENCY   
4651126518          R8 Model 2          Version 3.25        REC # / TYPE / VERS 
                    TRM_R8_GNSS                             ANT # / TYPE        
 -1641897.8924 -3664875.6298  4939973.2259                  APPROX POSITION XYZ 
        1.7710        0.0000        0.0000                  ANTENNA: DELTA H/E/N
     1     1     0                                          WAVELENGTH FACT L1/2
     8    C1    D1    D2    L1    L2    P2    S1    S2      # / TYPES OF OBSERV 
  2008     1    16    16    37   45.0000000     GPS         TIME OF FIRST OBS   
  2008     1    16    17    55   45.0000000     GPS         TIME OF LAST OBS    
     0                                                      RCV CLOCK OFFS APPL 
    14                                                      LEAP SECONDS        
    15                                                      # OF SATELLITES     
   G01   202   199   199   202   202   202   202   202      PRN / # OF OBS      
   G02   313   312   312   313   313   313   313   313      PRN / # OF OBS      
   G04   313   305   305   313   313   313   313   313      PRN / # OF OBS      
   G05   313   308   308   313   313   313   313   313      PRN / # OF OBS      
   G06     9     8     8     9     9     9     9     9      PRN / # OF OBS      
   G09   313   312   312   313   313   313   313   313      PRN / # OF OBS      
   G10    25    24    22    25    23    23    25    23      PRN / # OF OBS      
   G12   313   305   305   313   313   313   313   313      PRN / # OF OBS      
   G14   116   114    89   116    92    92   116    92      PRN / # OF OBS      
   G17   313   306   306   313   313   313   313   313      PRN / # OF OBS      
   G20   242   237   234   242   239   239   242   239      PRN / # OF OBS      
   G28    12    11    11    12    12    12    12    12      PRN / # OF OBS      
   G29   127   126   126   127   127   127   127   127      PRN / # OF OBS      
   G30   313   310   310   313   313   313   313   313      PRN / # OF OBS      
   G31    33    32    32    33    33    33    33    33      PRN / # OF OBS      
                                                            END OF HEADER       
 08  1 16 16 38  0.0000000  0 11G01G02G04G05G09G12G14G17G20G28G30    0.000464277
  25451981.734 2      1146.64812       893.49055   1037567.441 2    827517.60945
  25451978.73045        35.000          16.300  
  22121638.063 6      3363.09616      2620.59457  -1620833.500 6  -1234569.14847
  22121631.36747        46.900          33.600  
  20700812.625 7       942.43017       734.36057    456545.934 7    369291.62547
  20700807.95347        48.700          33.100  
  22859017.422 6      3563.19116      2776.51356  -1618964.590 6  -1235379.20346
  22859011.68846        43.500          24.800  
  21573229.758 7     -1711.92117     -1333.96557   2981303.551 7   2314906.70347
  21573224.79747        47.600          33.700  
  22123046.023 6      2825.89016      2201.99258  -1126104.367 6   -845068.66448
  22123040.47748        46.700          35.900  
  25104559.070 3      -452.91113      -352.91755   1822669.039 3   1421390.69145
  25104553.93045        36.400          17.800  
  22374977.180 6     -2372.25616     -1848.51157   3800515.711 6   2935852.29347
  22374972.16847        47.300          32.400  
  24171598.313 5      -212.67715      -165.72556   1592248.453 5   1243272.82846
  24171594.20746        41.200          19.900  
  25048571.148 2     -3121.26612     -2432.15355   4400354.629 2   3407767.27345
  25048568.37945        34.200          14.800  
  24719415.930 3      4024.08913      3135.65755   -665558.961 3   -340565.55945
  24719412.10245        36.100          15.600  
 08  1 16 16 38 15.0000000  0 11G01G02G04G05G09G12G14G17G20G28G30    0.000461252
  25448719.859 2      1142.623 2       890.35745   1020428.098 2    814162.25445
  25448717.52745        35.400          16.300  
  22112040.344 6      3362.283 6      2619.96047  -1671267.750 6  -1273868.55147
  22112033.84847        46.700          33.100  
  20698138.570 7       936.866 7       730.02647    442492.949 7    358341.23847
  20698133.54347        48.400          33.000  
  22848841.961 5      3564.465 5      2777.50346  -1672431.559 5  -1277041.75046
  22848837.35246        41.800          23.000  
  21578130.773 6     -1716.864 6     -1337.81547   3007056.508 6   2334973.93047
  21578125.60547        46.800          33.500  
  22114979.383 6      2826.073 6      2202.13448  -1168495.453 6   -878100.67648
  22114974.00848        46.500          35.600  
  25105863.711 3      -457.053 3      -356.14546   1829524.840 3   1426732.86346
  25105859.32046        36.600          19.300  
  22381744.180 6     -2370.826 6     -1847.39747   3836078.102 6   2963563.25047
  22381739.50447        46.000          32.400  
  24172220.211 6      -217.587 6      -169.54646   1595512.262 6   1245816.02046
  24172214.89546        42.600          21.100  
  25057472.711 2     -3118.315 2     -2429.85245   4447129.355 2   3444215.05145
  25057469.66445        35.000          16.300  
  24707920.680 5      4027.848 5      3138.58246   -725976.680 5   -387644.28946
  24707914.87146        39.700          19.600  
 08  1 16 16 38 30.0000000  0 11G01G02G04G05G09G12G14G17G20G28G30    0.000458183
  25445471.016 3      1138.687 3       887.29045   1003347.789 3    800852.90245
  25445467.30945        36.400          16.300  
  22102445.563 6      3361.556 6      2619.39447  -1721691.090 6  -1313159.46147
  22102438.78147        46.700          33.600  
  20695479.750 7       931.406 7       725.77147    428521.859 7    347454.68047
  20695474.97347        49.000          33.400  
  22838663.750 6      3565.814 6      2778.55846  -1725918.766 6  -1318720.11346
  22838659.02046        42.500          22.600  
  21583044.500 6     -1721.682 6     -1341.57047   3032881.738 6   2355097.47747
  21583040.17647        46.800          33.100  
  22106912.289 6      2826.350 6      2202.35148  -1210890.699 6   -911135.93848
  22106906.61348        46.900          34.700  
  25107180.383 3      -461.091 3      -359.29246   1836441.211 3   1432122.24646
  25107175.19946        37.000          19.300  
  22388507.352 6     -2369.285 6     -1846.19647   3871617.379 6   2991256.19547
  22388502.46547        46.400          32.800  
  24172855.008 5      -222.397 5      -173.29646   1598848.215 5   1248415.45746
  24172849.89846        40.200          21.100  
  25066364.813 1     -3115.261 1     -2427.47945   4493858.277 1   3480627.23045
  25066361.94945        33.100          15.600  
  24696411.625 4      4031.702 4      3141.58646   -786452.207 4   -434768.07446
  24696406.91446        38.800          19.300  
 08  1 16 16 38 45.0000000  0 11G01G02G04G05G09G12G14G17G20G28G30    0.000455065
  25442232.195 4      1134.723 4       884.19845    986326.945 4    787589.93445
  25442228.53945        37.500          17.800  
  22092852.102 6      3360.787 6      2618.79547  -1772102.895 6  -1352441.38347
  22092845.88747        46.300          32.600  
  20692836.891 7       925.922 7       721.49847    414633.027 7    336632.21147
  20692832.13347        48.900          33.600  
  22828482.281 5      3567.126 5      2779.57946  -1779425.652 5  -1360413.80546
  22828476.87146        42.300          25.300  
  21587972.906 6     -1726.493 6     -1345.31847   3058779.129 6   2375277.25047
  21587968.25447        46.700          33.700  
  22098843.813 6      2826.584 6      2202.53348  -1253289.461 6   -944173.93448
  22098838.10948        46.100          35.000  
  25108508.039 3      -465.149 3      -362.45645   1843418.449 3   1437559.08245
  25108502.77745        36.400          17.800  
  22395265.961 6     -2367.748 6     -1844.99847   3907133.598 6   3018931.16447
  22395260.83247        46.100          32.500  
  24173504.539 5      -227.218 5      -177.05246   1602256.484 5   1251071.24246
  24173498.44146        40.900          20.400  
  25075248.242 2     -3112.218 2     -2425.09745   4540541.539 2   3517003.68845
  25075245.47345        34.000          15.600  
  24684892.000 4      4035.522 4      3144.56246   -846985.043 4   -481936.49646
  24684887.57046        37.700          19.000  
 08  1 16 16 39  0.0000000  0 11G01G02G04G05G09G12G14G17G20G28G30    0.000451900
  25439004.773 3      1130.784 3       881.13345    969365.191 3    774372.93845
  25439001.34445        36.100          18.300  
  22083261.125 6      3360.038 6      2618.21147  -1822503.461 6  -1391714.54347
  22083254.71547        46.600          32.900  
  20690209.813 7       920.462 7       717.24248    400826.098 7    325873.57448
  20690205.02348        49.200          34.000  
  22818296.430 5      3568.453 5      2780.61146  -1832952.445 5  -1402122.96946
  22818291.19946        41.700          24.200  
  21592914.492 6     -1731.249 6     -1349.02447   3084747.863 6   2395512.61347
  21592909.84047        47.400          33.300  
  22090774.719 6      2826.840 6      2202.73348  -1295692.063 6   -977214.92648
  22090769.25448        46.100          34.600  
  25109846.586 4      -469.161 4      -365.57745   1850455.859 4   1443042.74245
  25109842.32445        37.500          18.600  
  22402020.336 6     -2366.166 6     -1843.76547   3942626.090 6   3046587.64547
  22402015.05547        46.000          31.700  
  24174164.883 5      -231.991 5      -180.77746   1605736.355 5   1253782.89546
  24174160.61346        40.600          20.900  
  25084123.203 2     -3109.137 2     -2422.70645   4587178.598 2   3553344.27745
  25084119.86345        34.000          15.600  
  24673362.828 5      4039.362 5      3147.55446   -907575.473 5   -529149.80946
  24673357.04746        40.600          19.000  
 08  1 16 16 39 15.0000000  0 11G01G02G04G05G09G12G14G17G20G28G30    0.000448690
  25435787.141 3      1126.818 3       878.03745    952462.918 3    761202.38345
  25435784.57445        36.300          17.800  
  22073672.969 6      3359.249 6      2617.59647  -1872892.195 6  -1430978.48847
  22073666.18447        46.600          33.600  
  20687597.758 7       914.980 7       712.97148    387101.395 7    315179.00448
  20687593.02048        48.500          34.000  
  22808107.070 6      3569.743 6      2781.61846  -1886498.598 6  -1443847.23846
  22808101.79346        42.500          25.600  
  21597869.695 6     -1736.010 6     -1352.73448   3110788.020 6   2415803.62948
  21597865.00448        47.200          34.000  
  22082704.844 6      2827.063 6      2202.90748  -1338098.016 6  -1010258.52748
  22082700.23848        46.200          35.000  
  25111197.594 4      -473.174 4      -368.70645   1857553.477 4   1448573.33645
  25111192.97345        37.800          17.400  
  22408769.117 6     -2364.603 6     -1842.54847   3978095.129 6   3074225.86347
  22408764.28147        46.800          31.900  
  24174840.766 5      -236.804 5      -184.52246   1609288.422 5   1256550.72746
  24174837.28946        40.900          21.300  
  25092989.422 2     -3106.046 2     -2420.29745   4633769.285 2   3589648.72745
  25092986.39145        34.600          14.800  
  24661822.445 4      4043.148 4      3150.50746   -968222.688 4   -576407.41846
  24661816.39846        38.500          19.900  
 08  1 16 16 39 30.0000000  0 11G01G02G04G05G09G12G14G17G20G28G30    0.000445433
  25432582.891 4      1122.977 4       875.04545    935618.262 4    748076.70345
  25432579.13345        37.500          18.300  
  22064085.906 6      3358.575 6      2617.07148  -1923270.816 6  -1470234.54748
  22064079.54748        46.400          34.200  
  20685001.422 7       909.639 7       708.81048    373456.809 7    304546.85248
  20684996.63348        49.500          33.800  
  22797912.789 5      3571.142 5      2782.71046  -1940065.734 5  -1485587.89546
  22797908.27746        41.600          24.700  
  21602838.742 6     -1740.616 6     -1356.32448   3136897.254 6   2436148.48848
  21602833.77348        47.400          33.900  
  22074634.523 6      2827.405 6      2203.17248  -1380509.086 6  -1043306.11348
  22074629.66448        46.100          35.000  
  25112559.578 3      -477.048 3      -371.72945   1864709.203 3   1454149.26645
  25112554.10945        36.100          18.600  
  22415513.727 6     -2362.893 6     -1841.21447   4013538.527 6   3101844.07847
  22415509.16847        46.800          33.000  
  24175529.500 5      -241.475 5      -188.16346   1612910.543 5   1259373.17646
  24175525.77346        39.900          20.600  
  25101846.430 2     -3102.822 2     -2417.77645   4680311.613 2   3625915.37145
  25101843.05945        34.500          16.900  
  24650269.633 4      4047.070 4      3153.55945  -1028928.730 4   -623710.79745
  24650264.74245        38.400          18.600  
 08  1 16 16 39 45.0000000  0 11G01G02G04G05G09G12G14G17G20G28G30    0.000442125
  25429388.594 4      1119.028 4       871.96845    918832.836 4    734997.18445
  25429385.03545        37.700          17.800  
  22054501.563 6      3357.783 6      2616.45348  -1973637.563 6  -1509481.34848
  22054495.39848        46.300          34.300  
  20682420.492 7       904.191 7       704.56448    359893.945 7    293978.39848
  20682415.60948        48.800          33.900  
  22787715.906 5      3572.430 5      2783.71146  -1993652.180 5  -1527343.56346
  22787711.56646        41.400          26.100  
  21607820.055 6     -1745.301 6     -1359.97448   3163076.766 6   2456548.09848
  21607815.34848        47.000          34.000  
  22066563.500 6      2827.625 6      2203.34448  -1422923.457 6  -1076356.27048
  22066558.07848        45.200          34.900  
  25113932.563 3      -481.011 3      -374.81045   1871924.371 3   1459771.42245
  25113927.39145        36.800          18.300  
  22422254.336 6     -2361.276 6     -1839.95547   4048957.660 6   3129443.40647
  22422249.21547        46.800          32.600  
  24176232.898 4      -246.235 4      -191.87246   1616604.070 4   1262251.26246
  24176228.51246        38.900          20.900  
  25110693.594 1     -3099.678 1     -2415.33245   4726806.785 1   3662145.35245
  25110690.73445        33.400          16.300  
  24638707.711 5      4050.864 5      3156.52046  -1089691.695 5   -671058.59046
  24638702.68446        41.300          19.600  
 08  1 16 16 40  0.0000000  0 11G01G02G04G05G09G12G14G17G20G28G30    0.000438772
  25426206.305 4      1115.104 4       868.91645    902106.270 4    721963.43845
  25426201.18445        38.600          18.600  
  22044919.281 6      3356.996 6      2615.84148  -2023992.504 6  -1548718.96148
  22044912.90248        47.500          34.500  
  20679854.813 7       898.763 7       700.33448    346412.508 7    283473.38748
  20679850.21548        48.800          34.200  
  22777515.703 5      3573.723 5      2784.71846  -2047258.023 5  -1569114.33246
  22777510.90646        41.600          24.600  
  21612815.141 6     -1749.944 6     -1363.59248   3189325.926 6   2477001.98048
  21612810.32048        47.300          34.000  
  22058491.422 6      2827.851 6      2203.52148  -1465341.227 6  -1109409.07848
  22058486.40648        46.200          35.100  
  25115316.734 2      -484.934 2      -377.87245   1879198.375 2   1465439.49645
  25115311.84445        34.400          17.400  
  22428989.563 6     -2359.620 6     -1838.66447   4084351.957 6   3157023.37147
  22428984.88747        46.900          32.600  
  24176949.203 5      -250.979 5      -195.56546   1620368.754 5   1265184.73846
  24176944.41446        39.400          20.900  
  25119532.406 2     -3096.509 2     -2412.85945   4773254.418 2   3698338.23445
  25119529.02745        35.000          16.900  
  24627133.117 4      4054.678 4      3159.48946  -1150511.863 4   -718450.93046
  24627129.05146        37.800          19.000  
 08  1 16 16 40 15.0000000  0 11G01G02G04G05G09G12G14G17G20G28G30    0.000435373
  25423034.375 3      1110.987 3       865.70445    885441.461 3    708977.87545
  25423030.41445        37.300          18.600  
  22035339.891 6      3356.004 6      2615.06848  -2074332.570 6  -1587944.98048
  22035333.37548        47.200          34.200  
  20677305.711 7       893.152 7       695.96248    333015.234 7    273033.95348
  20677301.12548        48.500          34.000  
  22767311.125 5      3574.809 5      2785.56446  -2100880.156 5  -1610897.79746
  22767306.27046        41.700          24.700  
  21617824.055 7     -1754.746 7     -1367.33448   3215647.109 7   2497511.98448
  21617819.07048        47.800          34.200  
  22050419.781 6      2827.886 6      2203.54848  -1507759.516 6  -1142462.29748
  22050414.43448        45.100          34.800  
  25116712.422 2      -489.033 2      -381.06345   1886533.867 2   1471155.44145
  25116707.46545        35.200          16.300  
  22435720.750 6     -2358.146 6     -1837.51647   4119724.152 6   3184586.11747
  22435715.85247        46.700          33.000  
  24177679.883 5      -255.893 5      -199.39846   1624207.156 5   1268175.71546
  24177675.12546        40.200          21.300  
  25128362.852 2     -3093.514 2     -2410.53145   4819657.129 2   3734496.19945
  25128359.19945        34.300          16.900  
  24615550.656 5      4058.288 5      3162.30246  -1211386.176 5   -765885.46546
  24615544.80146        41.100          19.600  
 08  1 16 16 40 30.0000000  0 11G01G02G04G05G09G12G14G17G20G28G30    0.000431929
  25419875.188 3      1106.979 3       862.58046    868836.773 3    696039.17246
  25419871.19146        36.400          19.000  
  22025763.148 7      3355.114 7      2614.37448  -2124659.277 7  -1627160.59048
  22025756.52748        47.700          34.400  
  20674772.063 7       887.652 7       691.67848    319700.449 7    262658.78948
  20674767.15248        49.100          34.100  
  22757103.891 5      3575.998 5      2786.49246  -2154520.121 5  -1652695.18446
  22757099.23446        42.200          25.600  
  21622845.703 6     -1759.403 6     -1370.96448   3242038.156 6   2518076.44148
  21622841.43448        46.800          33.800  
  22042347.445 6      2828.019 6      2203.65148  -1550179.805 6  -1175517.06648
  22042342.18848        46.200          35.200  
  25118120.125 3      -493.011 3      -384.16445   1893929.039 3   1476917.90245
  25118114.93845        37.100          16.900  
  22442446.602 6     -2356.536 6     -1836.26148   4155072.199 6   3212130.03948
  22442442.46148        47.000          33.800  
  24178424.359 5      -260.690 5      -203.13446   1628117.508 5   1271222.72746
  24178419.12946        41.000          21.800  
  25137182.898 1     -3090.390 1     -2408.09845   4866012.973 1   3770617.67645
  25137180.81345        33.700          16.300  
  24603955.656 5      4061.992 5      3165.18946  -1272316.059 5   -813363.30146
  24603950.78146        40.300          20.100  
 08  1 16 16 40 45.0000000  0 10G01G02G04G05G09G12G14G17G20G30    0.000428436
  25416726.531 3                                    852292.926 3    683147.80945
  25416722.81645        36.900          17.800  
  22016189.031 7      3354.161 7      2613.63148  -2174971.695 7  -1666365.05548
  22016182.83648        47.800          34.200  
  20672254.195 7                                    306468.766 7    252348.38348
  20672249.23448        49.400          34.600  
  22746893.961 5                                  -2208176.984 5  -1694505.74246
  22746888.64546        42.000          25.900  
  21627881.156 6     -1764.095 6     -1374.61948   3268499.582 6   2538695.71948
  21627876.60548        47.200          34.000  
  22034274.836 6                                  -1592601.191 6  -1208572.68448
  22034269.53148        47.100          35.000  
  25119538.109 2                                   1901384.227 2   1482727.12545
  25119533.45345        35.000          14.800  
  22449169.141 6                                   4190396.602 6   3239655.54747
  22449164.18047        46.700          32.800  
  24179182.016 5                                   1632100.406 5   1274326.31346
  24179176.87546        40.900          21.700  
  24592350.422 5                                  -1333300.836 5   -860883.89846
  24592345.58646        39.800          20.100  
 08  1 16 16 41  0.0000000  0 10G01G02G04G05G09G12G14G17G20G30    0.000424900
  25413590.023 4      1098.723 4       856.14845    835812.082 4    670305.58245
  25413586.92245        38.300          18.600  
  22006618.336 7      3353.055 7      2612.77048  -2225267.520 7  -1705556.60548
  22006611.68448        49.000          35.800  
  20669752.039 7       876.439 7       682.94048    293322.180 7    242104.28948
  20669747.73448        50.900          35.500  
  22736680.305 6      3578.099 6      2788.12847  -2261848.469 6  -1736327.66447
  22736674.93047        43.200          27.200  
  21632930.313 7     -1768.895 7     -1378.36048   3295033.008 7   2559371.11348
  21632926.64848        48.400          34.200  
  22026202.469 6      2828.011 6      2203.64548  -1635021.355 6  -1241627.35548
  22026197.21148        47.200          36.000  
  25120968.547 3      -501.147 3      -390.50745   1908901.426 3   1488584.72345
  25120963.81645        36.300          17.400  
  22455886.914 6     -2353.504 6     -1833.89848   4225699.156 6   3267164.02048
  22455882.27748        47.300          34.000  
  24179954.094 5      -270.487 5      -210.76846   1636157.711 5   1277487.82846
  24179949.14846        42.000          22.300  
  24580735.359 5      4069.157 5      3170.77246  -1394338.199 5   -908445.48046
  24580730.63746        40.600          22.000  
 08  1 16 16 41 15.0000000  0 10G01G02G04G05G09G12G14G17G20G30    0.000421316
  25410466.102 5      1094.735 5       853.03846    819391.063 5    657510.01646
  25410461.31346        39.200          20.400  
  21997049.852 7      3352.142 7      2612.05948  -2275549.656 7  -1744737.48448
  21997043.44148        48.900          36.500  
  20667266.258 7       870.970 7       678.67848    280257.637 7    231924.12148
  20667261.77748        50.200          35.600  
  22726463.625 6      3579.273 6      2789.04447  -2315537.566 6  -1778163.33247
  22726458.32447        43.700          27.900  
  21637992.695 7     -1773.461 7     -1381.91648   3321634.930 7   2580099.85948
  21637988.05148        48.200          34.200  
  22018130.172 6      2828.136 6      2203.74348  -1677443.391 6  -1274683.49648
  22018124.62548        47.000          36.200  
  25122410.609 3      -505.043 3      -393.53945   1916477.074 3   1494487.80145
  25122405.15645        36.400          17.400  
  22462599.578 6     -2351.825 6     -1832.59047   4260976.531 6   3294652.86747
  22462595.60947        47.200          32.800  
  24180739.070 5      -275.231 5      -214.46646   1640286.176 5   1280704.82446
  24180734.74246        42.100          23.000  
  24569108.820 5      4072.860 5      3173.65946  -1455431.105 5   -956050.37146
  24569105.69546        40.400          22.600  
 08  1 16 16 41 30.0000000  0 10G01G02G04G05G09G12G14G17G20G30    0.000417688
  25407353.789 5      1090.440 5       849.69245    803034.465 5    644764.63345
  25407348.96945        39.400          18.300  
  21987485.070 7      3350.909 7      2611.09748  -2325813.289 7  -1783903.94548
  21987478.62548        49.000          36.400  
  20664796.492 7       865.199 7       674.18048    267279.652 7    221811.41448
  20664791.60548        50.700          35.500  
  22716244.164 6      3580.119 6      2789.70347  -2369239.352 6  -1820008.87947
  22716239.02047        42.600          26.900  
  21643068.727 7     -1778.307 7     -1385.69348   3348309.531 7   2600885.25448
  21643064.15248        48.600          33.900  
  22010057.484 6      2827.936 6      2203.58748  -1719862.430 6  -1307737.29748
  22010052.29348        47.300          36.400  
  25123864.188 2      -509.240 2      -396.81045   1924115.672 2   1500439.95345
  25123858.66845        35.600          16.900  
  22469309.242 6     -2350.437 6     -1831.51047   4296233.086 6   3322125.51647
  22469304.51647        47.000          33.400  
  24181540.211 5      -280.288 5      -218.40746   1644490.496 5   1283980.92246
  24181535.10546        40.800          22.000  
  24557474.867 5      4076.237 5      3176.28846  -1516574.652 5  -1003694.68446
  24557471.24246        41.300          21.800  
 08  1 16 16 41 45.0000000  0 10G01G02G04G05G09G12G14G17G20G30    0.000414015
  25404251.086 4      1086.445 4       846.58045    786737.785 4    632065.93045
  25404247.58245        37.600          17.800  
  21977923.016 7      3349.977 7      2610.37148  -2376062.938 7  -1823059.50448
  21977916.25048        49.000          36.000  
  20662342.328 7       859.740 7       669.92748    254383.551 7    211762.50448
  20662337.77348        50.200          35.700  
  22706022.219 6      3581.264 6      2790.59647  -2422958.313 6  -1861867.81647
  22706017.27047        42.800          27.900  
  21648157.516 7     -1782.818 7     -1389.20848   3375051.793 7   2621723.37148
  21648152.74248        48.300          34.200  
  22001985.617 7      2828.042 7      2203.66848  -1762283.051 7  -1340792.31348
  22001979.81348        47.600          36.500  
  25125328.281 2      -513.119 2      -399.83445   1931812.453 2   1506437.46945
  25125323.43045        34.800          17.800  
  22476012.883 6     -2348.724 6     -1830.17347   4331463.941 6   3349578.11347
  22476008.84047        47.500          33.600  
  24182353.742 5      -285.013 5      -222.08746   1648765.695 5   1287312.22746
  24182348.74646        40.900          21.800  
  24545828.992 5      4079.920 5      3179.15646  -1577773.453 5  -1051382.03146
  24545825.55146        40.400          21.100  
 08  1 16 16 42  0.0000000  0 10G01G02G04G05G09G12G14G17G20G30    0.000410294
  25401162.133 4      1082.309 4       843.36145    770503.148 4    619415.51245
  25401158.09045        37.600          18.300  
  21968363.930 7      3348.884 7      2609.52048  -2426296.191 7  -1862202.29748
  21968357.14148        48.800          36.500  
  20659904.555 7       854.151 7       665.57348    241571.281 7    201778.91048
  20659899.88748        51.200          36.100  
  22695796.750 6      3582.249 6      2791.36247  -2476692.047 6  -1903738.25047
  22695791.60947        43.400          27.800  
  21653259.711 7     -1787.444 7     -1392.81348   3401863.453 7   2642615.57048
  21653254.89148        48.800          34.300  
  21993913.367 6      2827.986 6      2203.62648  -1804702.840 6  -1373846.70348
  21993907.51248        47.100          35.700  
  25126803.867 3      -517.098 3      -402.92945   1939568.930 3   1512481.41045
  25126799.95345        35.700          16.300  
  22482713.031 6     -2347.136 6     -1828.93647   4366670.980 6   3377012.15647
  22482708.21147        47.500          33.500  
  24183181.602 5      -289.877 5      -225.87946   1653113.844 5   1290700.41446
  24183176.14546        42.000          22.000  
  24534172.258 5      4083.450 5      3181.91046  -1639025.207 5  -1099110.68446
  24534168.73446        42.200          20.400  
 08  1 16 16 42 15.0000000  0 10G01G02G04G05G09G12G14G17G20G30    0.000406528
  25398085.836 4      1078.075 4       840.05746    754332.023 4    606814.65646
  25398081.26246        38.700          19.300  
  21958808.320 7      3347.674 7      2608.57648  -2476511.297 7  -1901330.94148
  21958801.55948        49.900          36.800  
  20657482.570 7       848.454 7       661.13348    228844.465 7    191861.91448
  20657478.14148        50.800          35.900  
  22685569.141 6      3583.116 6      2792.03847  -2530438.785 6  -1945618.82447
  22685563.95747        43.000          26.400  
  21658375.148 7     -1792.148 7     -1396.47847   3428745.680 7   2663562.74647
  21658370.70347        48.600          33.700  
  21985842.023 6      2827.809 6      2203.48948  -1847119.980 6  -1406899.03148
  21985836.35948        47.500          36.000  
  25128292.016 2      -521.175 2      -406.11345   1947386.559 2   1518573.10245
  25128287.70745        35.200          16.900  
  22489408.148 6     -2345.645 6     -1827.77547   4401855.648 6   3404428.78147
  22489403.78947        47.000          33.500  
  24184021.742 5      -294.841 5      -229.74946   1657536.465 5   1294146.64546
  24184017.65246        40.200          22.300  
  24522507.891 5      4086.859 5      3184.56946  -1700328.098 5  -1146879.22346
  24522503.94546        40.900          22.200  
 08  1 16 16 42 30.0000000  0 10G01G02G04G05G09G12G14G17G20G30    0.000402719
  25395019.836 3      1073.697 3       836.64945    738226.574 3    594264.92645
  25395016.42645        35.700          17.800  
  21949256.406 7      3346.322 7      2607.52348  -2526706.121 7  -1940443.78548
  21949250.21948        48.300          36.300  
  20655077.219 7       842.621 7       656.58848    216205.152 7    182013.09448
  20655073.36748        50.600          35.200  
  22675339.766 6      3583.838 6      2792.60147  -2584196.352 6  -1987507.84447
  22675334.54747        43.100          27.200  
  21663504.484 6     -1796.956 6     -1400.22547   3455700.016 6   2684566.12147
  21663499.66047        47.500          33.100  
  21977771.367 7      2827.489 7      2203.23848  -1889532.316 7  -1439947.59848
  21977765.20348        48.500          36.000  
  25129791.391 3      -525.379 3      -409.38745   1955267.246 3   1524713.91045
  25129786.90645        35.800          15.600  
  22496100.383 6     -2344.273 6     -1826.70547   4437019.738 6   3431829.35247
  22496095.10247        46.600          33.600  
  24184879.727 5      -299.931 5      -233.71146   1662035.426 5   1297652.30546
  24184873.91446        41.500          21.700  
  24510831.781 5      4090.136 5      3187.11546  -1761680.145 5  -1194685.95346
  24510829.64546        39.200          21.100  
 08  1 16 16 42 45.0000000  0 10G01G02G04G05G09G12G14G17G20G30    0.000398865
  25391967.055 2      1069.460 2       833.34745    722184.668 2    581764.71545
  25391964.61745        34.900          16.300  
  21939708.313 7      3345.087 7      2606.56148  -2576882.434 7  -1979542.19548
  21939701.90648        49.400          36.600  
  20652688.695 7       836.945 7       652.16548    203650.973 7    172230.61748
  20652683.79748        50.200          35.500  
  22665107.477 6      3584.687 6      2793.26247  -2637966.656 6  -2029406.77747
  22665101.69947        43.100          26.500  
  21668646.328 7     -1801.594 7     -1403.84047   3482723.930 7   2705623.71947
  21668642.35947        47.600          32.800  
  21969700.289 6      2827.310 6      2203.09948  -1931941.973 6  -1472994.09048
  21969694.93448        47.000          35.100  
  25131302.461 2      -529.422 2      -412.53845   1963208.574 2   1530901.97345
  25131297.88345        35.400          17.400  
  22502786.891 6     -2342.747 6     -1825.51747   4472160.941 6   3459212.10547
  22502782.33247        46.800          33.000  
  24185748.484 5      -304.861 5      -237.55746   1666608.344 5   1301215.66446
  24185743.94946        41.200          21.300  
  24499147.586 5      4093.531 5      3189.76746  -1823083.105 5  -1242532.46546
  24499143.73846        41.200          19.900  
 08  1 16 16 43  0.0000000  0 10G01G02G04G05G09G12G14G17G20G30    0.000394966
  25388926.789 4      1065.209 4       830.03445    706206.539 4    569314.19945
  25388923.35545        38.100          17.400  
  21930163.555 7      3343.829 7      2605.58248  -2627039.875 7  -2018625.91848
  21930156.97748        49.300          37.600  
  20650315.523 7       831.253 7       647.73048    191182.176 7    162514.66448
  20650311.03948        50.200          36.100  
  22654872.867 6      3585.503 6      2793.89847  -2691749.195 6  -2071315.25447
  22654867.75847        43.600          28.000  
  21673802.680 7     -1806.237 7     -1407.45547   3509817.484 7   2726735.54747
  21673798.06647        48.300          33.500  
  21961630.672 7      2827.101 7      2202.93648  -1974348.492 7  -1506038.12548
  21961625.26648        48.600          36.600  
  25132825.273 4      -533.466 4      -415.68545   1971210.559 4   1537137.25045
  25132821.41045        37.800          18.600  
  22509469.852 7     -2341.219 7     -1824.32647   4507279.219 7   3486577.00047
  22509464.89547        47.600          33.100  
  24186633.625 5      -309.812 5      -241.40946   1671255.527 5   1304836.80546
  24186628.09846        41.100          21.700  
  24487453.602 5      4096.902 5      3192.39246  -1884536.637 5  -1290418.34846
  24487449.63346        40.200          20.100  
 08  1 16 16 43 15.0000000  0 10G01G02G04G05G09G12G14G17G20G30    0.000391024
  25385899.156 4      1060.860 4       826.64245    690293.633 4    556914.57445
  25385895.46545        37.400          17.800  
  21920622.867 7      3342.458 7      2604.51248  -2677176.754 7  -2057693.60548
  21920616.48848        49.100          37.000  
  20647959.477 7       825.463 7       643.21748    178800.238 7    152866.40248
  20647954.93848        51.100          36.300  
  22644635.969 6      3586.213 6      2794.45147  -2745542.391 6  -2113232.02347
  22644631.69947        43.200          27.700  
  21678971.461 7     -1810.944 7     -1411.12548   3536981.641 7   2747902.41448
  21678967.06348        48.000          34.000  
  21953561.938 7      2826.774 7      2202.68148  -2016750.102 7  -1539078.34448
  21953556.70348        48.300          37.400  
  25134359.555 3      -537.588 3      -418.89945   1979274.383 3   1543420.74245
  25134355.58645        36.100          17.800  
  22516148.313 6     -2339.773 6     -1823.19847   4542375.813 6   3513924.97747
  22516144.09047        47.100          33.700  
  24187531.695 5      -314.835 5      -245.32946   1675978.059 5   1308516.73446
  24187527.20346        41.400          22.300  
  24475749.289 5      4100.159 5      3194.92546  -1946039.023 5  -1338342.21546
  24475746.52346        40.200          21.300  
 08  1 16 16 43 30.0000000  0 10G01G02G04G05G09G12G14G17G20G30    0.000387037
  25382883.984 4      1056.429 4       823.19046    674447.199 4    544566.71946
  25382879.83646        38.600          19.300  
  21911086.125 7      3340.996 7      2603.37348  -2727291.691 7  -2096744.20348
  21911080.00848        48.800          36.700  
  20645619.680 7       819.589 7       638.64148    166506.398 7    143286.78148
  20645615.56348        50.700          35.600  
  22634397.508 6      3586.820 6      2794.92547  -2799344.691 6  -2155155.89547
  22634393.02747        43.900          27.900  
  21684154.758 7     -1815.711 7     -1414.83948   3564217.305 7   2769125.00448
  21684150.07448        48.300          33.800  
  21945494.453 7      2826.349 7      2202.35048  -2059145.336 7  -1572113.59448
  21945489.15248        47.800          36.800  
  25135906.352 4      -541.777 4      -422.16346   1987401.039 4   1549753.18846
  25135901.83246        37.700          19.000  
  22522823.016 6     -2338.390 6     -1822.12147   4577451.664 6   3541256.79347
  22522818.47347        46.700          33.100  
  24188444.992 5      -319.938 5      -249.30246   1680777.121 5   1312256.25846
  24188440.09046        41.600          21.800  
  24464037.820 5      4103.319 5      3197.39446  -2007588.813 5  -1386303.11746
  24464033.55946        40.500          22.000  
 08  1 16 16 43 45.0000000  0 10G01G02G04G05G09G12G14G17G20G30    0.000383005
  25379879.781 4      1052.171 4       819.87445    658664.637 4    532268.60245
  25379876.89845        37.700          17.800  
  21901553.156 7      3339.685 7      2602.35148  -2777386.961 7  -2135779.46548
  21901546.91848        48.900          36.800  
  20643296.813 7       813.899 7       634.20748    154297.918 7    133773.68048
  20643292.35948        51.100          36.200  
  22624157.461 6      3587.590 6      2795.52547  -2853158.535 6  -2197088.76647
  22624152.63747        44.100          28.100  
  21689350.344 7     -1820.277 7     -1418.39847   3591521.465 7   2790400.96947
  21689345.93847        48.700          33.600  
  21937427.992 7      2826.096 7      2202.15248  -2101536.777 7  -1605145.87948
  21937422.03948        48.300          36.600  
  25137464.492 3      -545.776 3      -425.28245   1995587.684 3   1556132.41045
  25137460.02045        37.000          17.800  
  22529493.523 6     -2336.821 6     -1820.89947   4612503.984 6   3568570.27347
  22529488.77047        47.300          33.300  
  24189372.180 5      -324.854 5      -253.13346   1685649.930 5   1316053.25446
  24189367.32446        40.500          21.100  
  24452314.594 4      4106.644 4      3199.98346  -2069188.477 4  -1434302.86346
  24452310.68846        38.100          19.900  
 08  1 16 16 44  0.0000000  0 10G01G02G04G05G09G12G14G17G20G30    0.000378931
  25376888.742 4      1047.722 4       816.40445    642948.813 4    520022.53545
  25376885.76645        37.500          18.300  
  21892024.102 7      3338.181 7      2601.17948  -2827459.680 7  -2174797.14848
  21892018.35248        49.200          36.600  
  20640990.320 7       808.039 7       629.64048    142177.340 7    124329.07848
  20640985.97748        50.500          35.700  
  22613915.367 6      3588.164 6      2795.97147  -2906980.988 6  -2239028.33247
  22613910.42247        44.400          28.700  
  21694559.688 7     -1824.998 7     -1422.07647   3618896.434 7   2811732.10247
  21694555.08247        48.400          33.500  
  21929362.109 7      2825.655 7      2201.80948  -2143921.594 7  -1638173.01648
  21929356.72748        47.900          36.900  
  25139034.148 3      -549.947 3      -428.52745   2003836.895 3   1562560.31645
  25139029.72745        37.000          18.300  
  22536159.305 6     -2335.421 6     -1819.80847   4647535.297 6   3595867.39547
  22536154.84847        46.300          33.400  
  24190314.352 5      -329.951 5      -257.10546   1690599.199 5   1319909.83646
  24190308.93046        41.500          21.100  
  24440584.609 5      4109.770 5      3202.41646  -2130835.020 5  -1482339.10246
  24440580.60246        41.400          20.600  
 08  1 16 16 44 15.0000000  0 10G01G02G04G05G09G12G14G17G20G30    0.000374813
  25373911.703 4      1043.410 4       813.04745    627297.668 4    507826.83645
  25373907.31645        38.600          18.600  
  21882500.297 7      3336.794 7      2600.09948  -2877511.590 7  -2213798.63348
  21882493.73448        48.800          36.800  
  20638699.914 7       802.302 7       625.17048    130142.816 7    114951.52748
  20638695.63748        50.400          35.900  
  22603670.969 6      3588.852 6      2796.50947  -2960813.770 6  -2280975.96147
  22603666.59847        42.900          28.100  
  21699782.055 7     -1829.549 7     -1425.62247   3646339.668 7   2833116.43047
  21699777.01647        48.300          33.500  
  21921297.359 6      2825.319 6      2201.54748  -2186301.383 6  -1671196.22348
  21921292.00848        47.300          36.800  
  25140615.438 3      -553.970 3      -431.66646   2012146.441 3   1569035.31346
  25140611.12146        36.400          19.000  
  22542821.375 6     -2333.885 6     -1818.61147   4682543.578 6   3623146.56647
  22542816.40647        46.000          32.800  
  24191270.148 6      -334.907 6      -260.96646   1695622.809 6   1323824.33246
  24191265.02046        42.700          22.500  
  24428843.625 5      4113.015 5      3204.95046  -2192530.242 5  -1530413.35246
  24428839.96146        40.200          21.800  
 08  1 16 16 44 30.0000000  0 10G01G02G04G05G09G12G14G17G20G30    0.000370649
  25370946.172 5      1039.025 5       809.63146    611712.301 5    495682.36746
  25370942.15646        39.200          20.100  
  21872979.766 7      3335.330 7      2598.95848  -2927541.539 7  -2252783.00448
  21872973.44948        48.700          35.400  
  20636426.859 7       796.505 7       620.65348    118195.246 7    105641.72748
  20636422.32448        49.800          35.400  
  22593425.938 6      3589.458 6      2796.97947  -3014655.637 6  -2322930.64847
  22593420.87947        43.800          27.100  
  21705017.180 6     -1834.145 6     -1429.20447   3673851.840 6   2854554.48447
  21705012.53947        47.300          32.600  
  21913233.984 6      2824.913 6      2201.23148  -2228675.082 6  -1704214.68848
  21913228.99648        47.000          36.400  
  25142208.234 2      -558.040 2      -434.83445   2020517.039 2   1575557.82045
  25142203.93045        35.400          17.800  
  22549479.086 6     -2332.397 6     -1817.45147   4717529.531 6   3650408.33247
  22549474.28947        46.000          32.600  
  24192240.977 5      -339.922 5      -264.87446   1700721.637 5   1327797.43846
  24192235.26646        41.300          21.800  
  24417095.109 4      4116.199 4      3207.42545  -2254273.227 4  -1578524.72745
  24417090.26645        38.500          18.600  
 08  1 16 16 44 45.0000000  0 10G01G02G04G05G09G12G14G17G20G30    0.000366444
  25367993.344 4      1034.555 4       806.14645    596193.969 4    483590.18045
  25367988.78545        38.700          18.600  
  21863464.086 7      3333.767 7      2597.74048  -2977548.043 7  -2291749.10248
  21863457.35948        48.100          36.400  
  20634169.797 7       790.624 7       616.07148    106335.879 7     96400.66048
  20634165.51648        49.400          35.500  
  22583178.367 6      3589.960 6      2797.37247  -3068505.031 6  -2364891.22747
  22583173.72747        43.700          26.700  
  21710266.180 6     -1838.818 6     -1432.84547   3701434.113 6   2876047.15647
  21710261.06647        47.300          32.700  
  21905171.516 6      2824.402 6      2200.83348  -2271041.109 6  -1737227.17648
  21905166.74248        47.400          36.500  
  25143813.008 3      -562.176 3      -438.06045   2028949.676 3   1582128.71545
  25143808.25445        35.700          17.400  
  22556132.406 6     -2330.973 6     -1816.34347   4752494.133 6   3677653.47747
  22556127.44147        45.900          32.500  
  24193225.125 5      -345.017 5      -268.84546   1705896.887 5   1331830.11746
  24193219.89146        41.600          20.600  
  24405336.445 5      4119.267 5      3209.81946  -2316062.234 5  -1626672.01246
  24405332.62146        40.500          21.800  
 08  1 16 16 45  0.0000000  0 10G01G02G04G05G09G12G14G17G20G30    0.000362196
  25365052.133 4      1030.021 4       802.61546    580743.656 4    471550.96146
  25365048.59046        39.100          19.000  
  21853952.508 7      3332.117 7      2596.45348  -3027529.793 7  -2330695.90248
  21853946.41048        48.600          36.000  
  20631929.781 7       784.686 7       611.44448     94565.582 7     87229.00448
  20631925.61748        49.000          34.700  
  22572929.656 6      3590.388 6      2797.70447  -3122360.848 6  -2406856.79347
  22572924.97747        43.800          27.000  
  21715528.641 6     -1843.526 6     -1436.51347   3729087.000 6   2897594.84847
  21715523.39547        47.500          32.800  
  21897111.578 6      2823.823 6      2200.38148  -2313398.457 6  -1770232.89148
  21897106.63748        47.500          35.900  
  25145430.766 2      -566.364 2      -441.32446   2037445.137 2   1588748.57046
  25145424.63746        35.400          19.000  
  22562782.453 6     -2329.605 6     -1815.27547   4787438.203 6   3704882.60247
  22562777.19547        45.400          31.900  
  24194224.633 5      -350.161 5      -272.85146   1711149.309 5   1335922.87946
  24194219.52346        40.500          21.500  
  24393569.781 4      4122.270 4      3212.15346  -2377896.277 4  -1674854.30946
  24393565.47346        37.400          20.900  
 08  1 16 16 45 15.0000000  0 10G01G02G04G05G09G12G14G17G20G30    0.000357904
  25362125.992 5      1025.420 5       799.03346    565362.352 5    459565.46546
  25362121.17646        39.700          19.600  
  21844445.984 7      3330.390 7      2595.10848  -3077485.641 7  -2369622.52348
  21844440.40248        48.000          36.300  
  20629707.375 7       778.684 7       606.76748     82885.324 7     78127.50448
  20629703.16048        48.600          35.300  
  22562680.391 6      3590.735 6      2797.97647  -3176221.871 6  -2448826.43847
  22562675.28147        42.900          26.600  
  21720804.125 6     -1848.262 6     -1440.20547   3756810.930 6   2919197.91847
  21720799.15247        47.000          32.300  
  21889053.406 6      2823.181 6      2199.88248  -2355746.172 6  -1803231.12148
  21889048.43048        45.500          36.800  
  25147057.891 2      -570.596 2      -444.62045   2046004.074 2   1595417.87145
  25147053.41445        35.000          18.300  
  22569428.078 6     -2328.284 6     -1814.24747   4822362.461 6   3732096.30947
  22569423.16047        45.600          32.000  
  24195239.719 5      -355.357 5      -276.90346   1716479.656 5   1340076.43046
  24195234.23846        40.700          21.500  
  24381794.664 5      4125.181 5      3214.43146  -2439773.992 5  -1723070.77746
  24381789.56646        40.200          20.100  
 08  1 16 16 45 30.0000000  0 10G01G02G04G05G09G12G14G17G20G30    0.000353573
  25359212.641 5      1020.784 5       795.41446    550050.590 5    447634.26246
  25359208.12946        40.000          22.200  
  21834944.930 7      3328.618 7      2593.72848  -3127414.918 7  -2408528.43848
  21834938.71548        49.700          36.400  
  20627502.250 7       772.657 7       602.07048     71295.473 7     69096.44948
  20627497.66448        49.500          35.700  
  22552430.523 6      3591.031 6      2798.20747  -3230087.340 6  -2490799.53547
  22552425.80547        44.400          28.100  
  21726092.984 7     -1853.010 7     -1443.90347   3784606.074 7   2940856.46147
  21726088.69147        48.100          33.600  
  21880996.508 6      2822.457 6      2199.31648  -2398083.020 6  -1836220.86348
  21880991.75048        46.800          36.900  
  25148699.516 4      -574.861 4      -447.94545   2054626.996 4   1602137.04345
  25148694.52345        38.400          18.300  
  22576069.883 6     -2326.987 6     -1813.23747   4857267.262 6   3759294.86347
  22576064.89847        45.500          32.100  
  24196268.094 5      -360.583 5      -280.97246   1721888.402 5   1344291.00846
  24196263.20746        41.600          21.800  
  24370012.195 5      4128.053 5      3216.66446  -2501694.785 5  -1771320.73046
  24370007.52046        40.400          21.800  
 08  1 16 16 45 45.0000000  0 10G01G02G04G05G09G12G14G17G20G30    0.000349199
  25356312.359 5      1016.040 5       791.72146    534809.988 5    435758.44946
  25356308.85246        41.600          23.000  
  21825449.109 7      3326.725 7      2592.25348  -3177315.793 7  -2447412.23448
  21825442.77348        49.800          35.700  
  20625313.984 7       766.528 7       597.29548     59797.555 7     60137.02748
  20625309.55548        48.900          36.100  
  22542180.391 6      3591.207 6      2798.34247  -3283955.445 6  -2532774.66847
  22542174.94147        43.500          28.500  
  21731396.688 7     -1857.834 7     -1447.66247   3812473.582 7   2962571.39147
  21731391.71947        47.800          33.500  
  21872942.664 6      2821.624 6      2198.66848  -2440407.371 6  -1869200.87948
  21872937.37148        46.100          37.800  
  25150352.180 3      -579.200 3      -451.32346   2063314.996 3   1608906.88746
  25150347.27746        37.100          19.000  
  22582708.258 6     -2325.780 6     -1812.29547   4892153.961 6   3786479.28147
  22582703.98847        44.900          31.500  
  24197313.609 5      -365.907 5      -285.12246   1727377.012 5   1348567.83246
  24197307.34846        41.600          22.000  
  24358220.711 5      4130.800 5      3218.80346  -2563656.793 5  -1819602.77346
  24358215.76646        40.500          19.300  
 08  1 16 16 46  0.0000000  0 10G01G02G04G05G09G12G14G17G20G30    0.000344786
  25353425.375 5      1011.389 5       788.09646    519639.152 5    423937.00846
  25353421.64846        40.700          21.500  
  21815958.461 7      3324.910 7      2590.83848  -3227189.438 7  -2486274.80548
  21815951.73448        49.100          35.600  
  20623143.117 7       760.487 7       592.58848     48390.246 7     51248.21148
  20623138.94548        48.800          35.500  
  22531928.586 6      3591.459 6      2798.54147  -3337827.332 6  -2574752.78147
  22531923.94947        43.900          27.400  
  21736712.617 7     -1862.545 7     -1451.33347   3840411.762 7   2984341.39147
  21736707.70347        47.800          32.800  
  21864890.641 6      2820.882 6      2198.09048  -2482720.594 6  -1902172.22348
  21864885.43048        47.200          37.200  
  25152018.203 3      -583.429 3      -454.61745   2072066.426 3   1615726.14845
  25152012.57845        36.600          18.300  
  22589343.813 6     -2324.467 6     -1811.27247   4927020.961 6   3813648.36747
  22589338.86347        44.300          31.500  
  24198373.063 5      -371.135 5      -289.19646   1732944.035 5   1352905.77746
  24198366.41046        41.200          21.100  
  24346422.102 5      4133.626 5      3221.01146  -2625661.191 5  -1867917.94146
  24346416.62946        40.000          20.900  
 08  1 16 16 46 15.0000000  0 10G01G02G04G05G09G12G14G17G20G30    0.000340330
  25350551.523 5      1006.714 5       784.45246    504538.441 5    412170.22746
  25350547.24246        39.600          19.600  
  21806473.367 7      3323.040 7      2589.38148  -3277035.031 7  -2525115.52048
  21806466.39848        48.500          35.300  
  20620989.773 7       754.429 7       587.86648     37073.816 7     42430.21948
  20620985.20348        48.500          35.100  
  22521676.406 6      3591.670 6      2798.70347  -3391702.383 6  -2616733.32047
  22521671.61747        43.800          27.100  
  21742043.008 6     -1867.257 6     -1455.00547   3868420.613 6   3006166.46147
  21742037.93447        46.800          32.700  
  21856841.461 6      2820.094 6      2197.47648  -2525022.004 6  -1935134.36348
  21856835.76248        47.000          36.900  
  25153695.742 2      -587.679 2      -457.93345   2080881.609 2   1622595.14145
  25153690.04745        35.200          17.400  
  22595975.734 6     -2323.164 6     -1810.25647   4961868.422 6   3840802.21147
  22595970.28547        44.500          31.300  
  24199446.805 5      -376.365 5      -293.27246   1738589.516 5   1357304.85946
  24199440.89846        41.600          19.900  
  24334615.563 4      4136.420 4      3223.18346  -2687707.500 4  -1916265.69146
  24334610.35246        38.400          20.100  
 08  1 16 16 46 30.0000000  0 10G01G02G04G05G09G12G14G17G20G30    0.000335835
  25347691.594 5      1001.924 5       780.71946    489509.586 5    400459.44946
  25347687.64546        40.000          20.600  
  21796993.664 7      3321.065 7      2587.84248  -3326851.004 7  -2563933.14848
  21796986.93848        49.200          35.300  
  20618853.750 7       748.261 7       583.06148     25849.895 7     33684.29748
  20618849.48048        49.800          35.400  
  22511423.195 6      3591.762 6      2798.77747  -3445578.809 6  -2658714.97347
  22511418.94147        42.600          27.400  
  21747386.602 7     -1872.040 7     -1458.73347   3896501.219 7   3028047.44947
  21747381.46947        48.500          33.200  
  21848793.828 7      2819.187 7      2196.76948  -2567309.801 7  -1968085.89148
  21848788.70748        47.600          37.400  
  25155385.453 2      -592.009 2      -461.30845   2089761.738 2   1629514.76245
  25155379.66845        34.600          17.400  
  22602602.836 6     -2321.967 6     -1809.32447   4996697.922 6   3867942.07447
  22602598.12147        45.000          32.200  
  24200536.836 5      -381.703 5      -297.42846   1744315.063 5   1361766.28146
  24200530.73446        42.200          20.400  
  24322801.602 5      4139.089 5      3225.26246  -2749793.836 5  -1964644.62946
  24322796.01246        39.500          21.300  
 08  1 16 16 46 45.0000000  0 10G01G02G04G05G09G12G14G17G20G30    0.000331297
  25344844.727 5       997.251 5       777.07946    474550.828 5    388803.27046
  25344840.82846        39.400          19.600  
  21787519.430 7      3319.187 7      2586.37948  -3376638.805 7  -2602728.83248
  21787512.45748        49.800          36.700  
  20616735.320 7       742.225 7       578.35748     14716.516 7     25008.94548
  20616730.73848        49.900          35.600  
  22501171.109 6      3591.942 6      2798.91547  -3499457.938 6  -2700698.69147
  22501166.40247        42.800          27.700  
  21752742.914 7     -1876.691 7     -1462.35647   3924651.590 7   3049982.78547
  21752738.36347        48.500          33.600  
  21840749.094 6      2818.380 6      2196.14048  -2609585.508 6  -2001027.99648
  21840743.93048        47.200          37.400  
  25157086.773 2      -596.215 2      -464.58045   2098704.969 2   1636483.46145
  25157081.87945        34.500          16.900  
  22609227.055 6     -2320.633 6     -1808.28547   5031507.422 6   3895066.34847
  22609222.09447        45.100          32.600  
  24201640.906 5      -386.932 5      -301.50646   1750119.047 5   1366288.87146
  24201635.04746        41.300          20.900  
  24310978.000 5      4141.868 5      3227.43346  -2811921.855 5  -2013056.12546
  24310972.55946        39.900          20.100  
 08  1 16 16 47  0.0000000  0 10G01G02G04G05G09G12G14G17G20G30    0.000326717
  25342011.992 4       992.598 4       773.45246    459661.852 4    377201.49246
  25342007.41446        38.400          20.100  
  21778050.680 7      3317.326 7      2584.92948  -3426398.695 7  -2641502.76648
  21778043.55148        49.600          35.200  
  20614633.859 7       736.212 7       573.67248      3673.332 7     16403.86348
  20614629.37148        49.700          34.900  
  22490917.930 6      3592.142 6      2799.07347  -3553340.066 6  -2742684.78147
  22490913.23847        43.200          27.600  
  21758112.906 6     -1881.285 6     -1465.93547   3952870.859 6   3071971.81647
  21758108.47347        47.400          33.200  
  21832706.758 7      2817.590 7      2195.52548  -2651849.352 7  -2033960.86748
  21832701.49648        47.700          36.800  
  25158801.320 3      -600.379 3      -467.83045   2107710.660 3   1643500.91445
  25158795.82045        36.000          17.400  
  22615847.477 6     -2319.262 6     -1807.21747   5066296.348 6   3922174.60247
  22615842.27047        44.500          31.900  
  24202759.438 5      -392.113 5      -305.54346   1756000.742 5   1370872.01246
  24202754.46946        40.000          20.600  
  24299147.609 5      4144.655 5      3229.60046  -2874091.688 5  -2061500.12946
  24299142.05146        39.200          20.100  
 08  1 16 16 47 15.0000000  0 10G01G02G04G05G09G12G14G17G20G30    0.000322100
  25339193.023 5       987.579 5       769.54546    444848.172 5    365658.32046
  25339187.89146        40.100          19.900  
  21768587.945 7      3315.076 7      2583.17648  -3476124.840 7  -2680250.40248
  21768581.03148        49.600          35.300  
  20612550.992 7       729.827 7       568.69648     -7274.070 7      7873.41848
  20612545.68448        49.200          34.900  
  22480664.563 6      3591.948 6      2798.92247  -3607219.289 6  -2784668.60547
  22480659.96147        43.300          26.900  
  21763496.844 7     -1886.231 7     -1469.79047   3981164.328 7   3094018.67247
  21763492.35547        48.000          33.000  
  21824667.414 6      2816.410 6      2194.60548  -2694095.500 6  -2066879.94148
  21824662.30148        47.500          37.300  
  25160527.805 2      -604.899 2      -471.35045   2116784.152 2   1650571.16845
  25160522.06345        34.800          16.900  
  22622464.406 6     -2318.253 6     -1806.43047   5101070.137 6   3949271.04747
  22622459.37547        45.600          31.700  
  24203893.961 5      -397.645 5      -309.85246   1761965.418 5   1375519.79746
  24203889.75046        39.700          21.300  
  24287310.430 5      4147.057 5      3231.47246  -2936297.539 5  -2109972.20746
  24287305.74646        40.000          20.100  
 08  1 16 16 47 30.0000000  0 10G01G02G04G05G09G12G14G17G20G30    0.000317442
  25336388.148 5       982.611 5       765.66946    430109.012 5    354173.29346
  25336383.59446        40.200          21.100  
  21759131.883 7      3312.862 7      2581.45248  -3525817.773 7  -2718972.17648
  21759124.47348        50.300          35.700  
  20610485.172 7       723.509 7       563.77348    -18126.711 7      -583.17648
  20610480.84848        49.700          35.700  
  22470412.734 6      3591.797 6      2798.80247  -3661096.250 6  -2826650.64547
  22470407.98847        44.100          29.000  
  21768895.250 7     -1891.093 7     -1473.57948   4009530.723 7   3116122.35248
  21768890.28948        48.900          34.000  
  21816631.398 7      2815.277 7      2193.72248  -2736324.648 7  -2099785.77048
  21816626.57848        47.600          38.200  
  25162266.820 3      -609.341 3      -474.81245   2125924.270 3   1657693.34845
  25162261.57445        35.700          18.300  
  22629078.266 6     -2317.173 6     -1805.58947   5135827.738 6   3976354.88347
  22629073.50847        45.400          33.200  
  24205045.867 5      -403.115 5      -314.11646   1768012.148 5   1380231.54346
  24205040.64146        40.200          21.700  
  24275465.977 4      4149.493 4      3233.37246  -2998539.930 4  -2158472.79346
  24275460.54346        38.500          19.600  
 08  1 16 16 47 45.0000000  0 10G01G02G04G05G09G12G14G17G20G30    0.000312746
  25333596.969 5       977.808 5       761.92946    415441.898 5    342744.35546
  25333592.57046        39.800          20.600  
  21749681.086 7      3310.807 7      2579.85048  -3575479.883 7  -2757669.92648
  21749674.48448        49.300          35.900  
  20608437.734 7       717.357 7       558.98048    -28887.070 7     -8967.87948
  20608433.21548        49.900          35.700  
  22460159.969 6      3591.799 6      2798.80447  -3714973.230 6  -2868632.70747
  22460155.66447        42.800          28.400  
  21774306.656 7     -1895.760 7     -1477.21548   4037967.117 7   3138280.57048
  21774301.46148        49.100          33.900  
  21808598.008 7      2814.292 7      2192.95448  -2778539.020 7  -2132680.08648
  21808592.87148        48.400          38.100  
  25164019.219 3      -613.616 3      -478.13945   2135128.504 3   1664865.43445
  25164013.08245        37.300          16.900  
  22635689.289 6     -2315.912 6     -1804.60547   5170566.414 6   4003423.96147
  22635684.34447        46.000          33.200  
  24206211.969 5      -408.430 5      -318.25646   1774138.598 5   1385005.37946
  24206206.36746        40.500          20.400  
  24263614.320 5      4152.083 5      3235.39146  -3060821.172 5  -2207003.65246
  24263608.82446        41.600          20.600  
 08  1 16 16 48  0.0000000  0 10G01G02G04G05G09G12G14G17G20G30    0.000308008
  25330819.719 5       972.896 5       758.09946    400848.465 5    331372.86746
  25330815.95746        40.600          21.300  
  21740237.078 7      3308.621 7      2578.14648  -3625109.195 7  -2796342.11748
  21740230.22348        49.800          35.400  
  20606407.719 7       711.097 7       554.10148    -39553.520 7    -17279.39548
  20606403.62148        50.000          35.400  
  22449908.852 6      3591.677 6      2798.70947  -3768848.379 6  -2910613.34047
  22449903.01247        43.800          26.500  
  21779731.063 7     -1900.507 7     -1480.91347   4066474.723 7   3160494.27047
  21779726.62547        48.200          33.400  
  21800568.430 7      2813.187 7      2192.09448  -2820736.824 7  -2165561.49248
  21800563.68848        48.100          37.900  
  25165782.375 3      -617.971 3      -481.53945   2144398.063 3   1672088.51645
  25165777.20345        36.200          18.300  
  22642296.844 6     -2314.742 6     -1803.69447   5205287.539 6   4030479.37547
  22642291.57847        45.500          32.500  
  24207391.383 5      -413.829 5      -322.46646   1780346.031 5   1389842.36346
  24207388.07446        39.700          21.500  
  24251755.047 5      4154.558 5      3237.31746  -3123139.539 5  -2255563.41046
  24251750.81346        39.700          22.000  
 08  1 16 16 48 15.0000000  0 10G01G02G04G05G09G12G14G17G20G30    0.000303232
  25328056.695 5       968.089 5       754.35546    386327.133 5    320057.53546
  25328052.68846        40.400          20.900  
  21730798.742 7      3306.531 7      2576.51748  -3674707.156 7  -2834989.87948
  21730791.74648        49.400          35.500  
  20604395.906 7       704.955 7       549.31548    -50127.840 7    -25519.12548
  20604391.71148        49.700          35.200  
  22439655.430 5      3591.642 5      2798.68147  -3822723.008 5  -2952593.56347
  22439650.79347        42.400          27.100  
  21785168.961 7     -1905.130 7     -1484.51647   4095051.680 7   3182762.01647
  21785164.29347        48.100          32.900  
  21792541.055 7      2812.191 7      2191.31848  -2862919.684 7  -2198431.25848
  21792535.95348        48.200          37.200  
  25167558.047 3      -622.205 3      -484.83245   2153731.145 3   1679360.99245
  25167553.00845        36.500          16.900  
  22648899.852 6     -2313.458 6     -1802.69447   5239989.402 6   4057519.78147
  22648895.28947        45.800          32.400  
  24208588.281 5      -419.109 5      -326.57846   1786632.672 5   1394741.02746
  24208584.14146        40.200          20.600  
  24239888.734 5      4157.120 5      3239.31246  -3185496.340 5  -2304153.09046
  24239885.12546        40.500          20.600  
 08  1 16 16 48 30.0000000  0 10G01G02G04G05G09G12G14G17G20G30    0.000298414
  25325306.289 5       963.256 5       750.59046    371878.293 5    308798.69146
  25325302.38346        40.100          20.100  
  21721366.680 7      3304.402 7      2574.85948  -3724273.191 7  -2873612.76648
  21721360.26248        48.800          35.600  
  20602401.273 7       698.790 7       544.51248    -60609.691 7    -33686.80948
  20602397.03948        50.300          35.600  
  22429403.719 5      3591.561 5      2798.61947  -3876596.422 5  -2994572.85247
  22429399.24647        42.400          27.300  
  21790620.539 7     -1909.742 7     -1488.11047   4123697.813 7   3205083.67247
  21790615.69547        47.900          33.300  
  21784517.039 7      2811.140 7      2190.49948  -2905086.785 7  -2231288.73848
  21784511.89848        47.800          37.200  
  25169347.086 3      -626.442 3      -488.13745   2163127.777 3   1686683.04345
  25169341.21945        37.000          18.300  
  22655499.914 6     -2312.184 6     -1801.70147   5274672.160 6   4084545.30147
  22655495.12147        45.600          32.900  
  24209799.852 5      -424.405 5      -330.70846   1792998.754 5   1399701.64146
  24209795.47346        41.300          22.200  
  24228016.789 5      4159.638 5      3241.28146  -3247890.914 5  -2352772.30946
  24228011.20346        40.900          20.900  
 08  1 16 16 48 45.0000000  0 10G01G02G04G05G09G12G14G17G20G30    0.000293558
  25322572.586 5       958.255 5       746.69446    357504.461 5    297598.28146
  25322566.85946        41.300          20.600  
  21711941.063 7      3302.084 7      2573.05348  -3773804.453 7  -2912208.55948
  21711934.48448        49.100          35.500  
  20600424.523 7       692.454 7       539.57448    -70996.504 7    -41780.42648
  20600420.22748        50.200          35.900  
  22419152.773 6      3591.301 6      2798.41747  -3930465.930 6  -3036549.10247
  22419147.74247        42.500          26.800  
  21796085.039 7     -1914.511 7     -1491.82648   4152415.473 7   3227461.05548
  21796080.66048        48.200          34.500  
  21776496.727 7      2809.904 7      2189.53648  -2947235.344 7  -2264131.77348
  21776491.08248        49.100          38.000  
  25171147.383 2      -630.831 2      -491.55745   2172590.246 2   1694056.39845
  25171142.07845        35.600          16.900  
  22662096.086 6     -2311.069 6     -1800.83147   5309338.188 6   4111557.76647
  22662091.76247        45.800          32.800  
  24211027.141 5      -429.870 5      -334.96246   1799446.805 5   1404726.07846
  24211022.35946        41.600          22.000  
  24216136.070 5      4161.991 5      3243.10646  -3310320.777 5  -2401418.90246
  24216131.70746        40.500          21.300  
 08  1 16 16 49  0.0000000  0 10G01G02G04G05G09G12G14G17G20G30    0.000288666
  25319851.367 5       953.146 5       742.71346    343207.273 5    286457.59446
  25319846.32446        40.200          19.300  
  21702522.750 7      3299.650 7      2571.15648  -3823299.203 7  -2950775.89548
  21702515.75448        49.200          35.800  
  20598466.398 7       686.018 7       534.56048    -81286.781 7    -49798.82048
  20598462.28948        50.600          35.700  
  22408903.281 6      3590.915 6      2798.11547  -3984329.652 6  -3078520.82447
  22408898.38347        42.500          27.000  
  21801563.672 7     -1919.364 7     -1495.60748   4181205.926 7   3249895.15248
  21801559.27348        48.200          34.000  
  21768479.930 7      2808.542 7      2188.47548  -2989363.480 7  -2296958.89548
  21768474.40648        48.500          37.700  
  25172961.102 2      -635.324 2      -495.05745   2182120.105 2   1701482.25445
  25172955.58245        35.100          16.900  
  22668690.242 6     -2310.057 6     -1800.04447   5343989.043 6   4138558.42247
  22668685.78947        45.100          32.100  
  24212269.797 5      -435.436 5      -339.30146   1805978.348 5   1409815.58646
  24212265.23046        41.700          22.200  
  24204249.727 6      4164.211 6      3244.84246  -3372783.949 6  -2450091.53546
  24204245.36746        42.500          22.500  
 08  1 16 16 49 15.0000000  0 10G01G02G04G05G09G12G14G17G20G30    0.000283735
  25317145.391 5       947.889 5       738.61146    328988.941 5    275378.42246
  25317140.99246        39.600          19.600  
  21693111.742 7      3297.037 7      2569.12048  -3872754.758 7  -2989312.68848
  21693104.87548        49.100          36.100  
  20596527.078 7       679.441 7       529.43548    -91478.402 7    -57740.34848
  20596522.59848        50.300          35.700  
  22398654.500 5      3590.361 5      2797.68547  -4038185.063 5  -3120486.09847
  22398649.88347        42.100          26.500  
  21807056.758 7     -1924.324 7     -1499.47348   4210070.793 7   3272387.24248
  21807052.15648        48.100          33.800  
  21760467.313 7      2807.030 7      2187.29748  -3031468.930 7  -2329768.34448
  21760462.53148        48.600          38.200  
  25174786.492 2      -639.937 2      -498.65645   2191719.160 2   1708962.09045
  25174782.34045        35.100          16.300  
  22675281.523 6     -2309.178 6     -1799.35847   5378626.715 6   4165548.79747
  22675277.23047        45.200          31.600  
  24213529.031 5      -441.126 5      -343.73646   1812595.238 5   1414971.62546
  24213524.59446        41.800          21.500  
  24192357.023 5      4166.271 5      3246.44546  -3435278.012 5  -2498788.20746
  24192352.93046        39.700          21.500  
 08  1 16 16 49 30.0000000  0 10G01G02G04G05G09G12G14G17G20G30    0.000278770
  25314454.914 5       942.542 5       734.44946    314850.809 5    264361.69146
  25314450.19146        39.300          19.600  
  21683708.313 7      3294.329 7      2567.00948  -3922169.695 7  -3027817.82848
  21683701.89848        48.700          36.200  
  20594606.648 7       672.773 7       524.23848   -101569.992 7    -65603.91448
  20594602.36748        50.300          36.000  
  22388408.102 5      3589.706 5      2797.17247  -4092030.656 5  -3162443.68047
  22388403.39847        42.000          26.400  
  21812563.953 7     -1929.353 7     -1503.39147   4239011.094 7   3294938.10547
  21812559.28947        47.800          33.600  
  21752459.547 7      2805.418 7      2186.03948  -3073550.195 7  -2362558.93448
  21752454.40648        48.500          38.100  
  25176626.711 4      -644.632 4      -502.31245   2201388.645 4   1716496.77345
  25176622.07845        37.400          17.400  
  22681871.359 6     -2308.359 6     -1798.72047   5413252.098 6   4192529.59447
  22681865.56347        44.600          31.600  
  24214805.430 6      -446.902 6      -348.23446   1819298.766 6   1420195.14146
  24214800.45346        43.700          22.000  
  24180458.781 5      4168.228 5      3247.97146  -3497801.422 5  -2547507.77346
  24180455.16446        41.700          21.500  
 08  1 16 16 49 45.0000000  0 10G01G02G04G05G09G12G14G17G20G30    0.000273767
  25311779.234 4       937.330 4       730.38746    300790.863 4    253405.88346
  25311774.63746        38.900          19.600  
  21674312.180 7      3291.761 7      2565.00848  -3971546.105 7  -3066292.94548
  21674305.58248        49.600          36.000  
  20592704.953 7       666.259 7       519.16348   -111563.875 7    -73391.35548
  20592700.62148        50.500          35.900  
  22378163.039 5      3589.173 5      2796.75947  -4145868.258 5  -3204395.06347
  22378158.60947        42.200          27.300  
  21818084.742 6     -1934.213 6     -1507.17847   4268024.281 6   3317545.77047
  21818079.77047        47.300          33.300  
  21744456.281 7      2803.923 7      2184.87548  -3115609.035 7  -2395332.05948
  21744450.85548        49.100          38.200  
  25178479.641 4      -649.157 4      -505.83545   2211126.004 4   1724084.29345
  25178475.39545        37.700          17.400  
  22688456.977 6     -2307.399 6     -1797.97347   5447863.086 6   4219499.18447
  22688452.15647        45.100          30.900  
  24216096.758 5      -452.528 5      -352.61946   1826086.688 5   1425484.42646
  24216091.94146        42.100          22.600  
  24168555.898 5      4170.304 5      3249.58646  -3560355.984 5  -2596251.57046
  24168551.58246        40.900          22.900  
 08  1 16 16 50  0.0000000  0 10G01G02G04G05G09G12G14G17G20G30    0.000268728
  25309118.766 5       932.069 5       726.28546    286809.824 5    242511.60246
  25309115.07446        39.400          19.900  
  21664923.719 7      3289.119 7      2562.94948  -4020882.887 7  -3104737.18448
  21664917.69548        49.600          36.400  
  20590821.938 7       659.695 7       514.04848   -121459.293 7    -81102.07048
  20590817.26248        50.700          36.400  
  22367919.711 5      3588.574 5      2796.29247  -4199696.863 5  -3246339.43447
  22367915.18847        41.600          27.200  
  21823619.945 7     -1939.105 7     -1510.99047   4297110.859 7   3340210.62547
  21823615.74247        48.100          33.400  
  21736457.078 7      2802.370 7      2183.66448  -3157644.578 7  -2428087.02048
  21736451.95348        48.800          38.200  
  25180346.359 2      -653.724 2      -509.39145   2220931.863 2   1731725.15645
  25180340.60945        35.500          16.900  
  22695040.734 6     -2306.476 6     -1797.25347   5482460.230 6   4246457.98047
  22695035.69947        44.800          31.900  
  24217405.047 6      -458.200 6      -357.03846   1832959.691 6   1430839.99246
  24217399.93446        42.600          22.800  
  24156646.031 5      4172.317 5      3251.15946  -3622940.734 5  -2645018.96146
  24156641.62946        42.100          20.400  
 08  1 16 16 50 15.0000000  0 10G01G02G04G05G09G12G14G17G20G30    0.000263655
  25306474.367 4       926.813 4       722.19446    272907.629 4    231678.69546
  25306469.52746        38.900          19.900  
  21655543.250 7      3286.464 7      2560.88148  -4070179.844 7  -3143150.39548
  21655536.47348        49.500          36.400  
  20588957.594 7       653.138 7       508.93848   -131256.355 7    -88736.14548
  20588952.98048        50.500          36.200  
  22357677.523 5      3587.961 5      2795.81347  -4253516.281 5  -3288276.63347
  22357673.37147        42.300          27.200  
  21829168.930 7     -1943.968 7     -1514.77947   4326270.379 7   3362932.31647
  21829164.14147        48.000          33.400  
  21728462.242 7      2800.813 7      2182.45248  -3199656.777 7  -2460823.79748
  21728456.93048        49.000          38.200  
  25182226.188 3      -658.278 3      -512.94545   2230806.031 3   1739419.33645
  25182219.86745        37.300          15.600  
  22701621.672 6     -2305.536 6     -1796.52047   5517043.266 6   4273405.78547
  22701616.49647        44.500          32.400  
  24218729.336 5      -463.853 5      -361.44446   1839917.492 5   1436261.65646
  24218724.30146        41.800          22.300  
  24144731.484 5      4174.319 5      3252.71646  -3685555.527 5  -2693809.69546
  24144726.82046        39.300          20.900  
 08  1 16 16 50 30.0000000  0 10G01G02G04G05G09G12G14G17G20G30    0.000258543
  25303843.664 5       921.542 5       718.08846    259084.492 5    220907.37546
  25303838.48046        39.200          19.600  
  21646169.922 7      3283.777 7      2558.78648  -4119436.496 7  -3181532.19148
  21646163.16848        49.200          35.900  
  20587112.125 7       646.575 7       503.82448   -140954.977 7    -96293.51248
  20587107.73448        50.700          36.000  
  22347438.758 5      3587.317 5      2795.31347  -4307326.039 5  -3330206.32047
  22347434.07847        42.400          26.900  
  21834731.578 7     -1948.810 7     -1518.55247   4355502.531 7   3385710.59847
  21834727.02047        47.600          33.200  
  21720472.367 7      2799.214 7      2181.20648  -3241644.980 7  -2493541.88748
  21720467.02748        48.400          38.000  
  25184116.555 4      -662.826 4      -516.48745   2240748.418 4   1747166.64845
  25184111.87145        37.900          17.400  
  22708200.070 6     -2304.607 6     -1795.79847   5551612.367 6   4300342.75447
  22708195.00847        45.300          32.100  
  24220069.453 6      -469.516 6      -365.85446   1846960.227 6   1441749.46146
  24220064.34446        42.500          22.300  
  24132810.352 5      4176.292 5      3254.25546  -3748199.910 5  -2742623.52046
  24132805.59446        40.400          20.400  
 08  1 16 16 50 45.0000000  0 10G01G02G04G05G09G12G14G17G20G30    0.000253395
  25301227.820 4       916.265 4       713.97346    245340.520 4    210197.77746
  25301222.95746        39.000          19.900  
  21636804.484 7      3281.070 7      2556.67848  -4168652.539 7  -3219882.36348
  21636797.66048        49.500          36.400  
  20585285.273 7       640.001 7       498.70348   -150554.992 7   -103774.05148
  20585280.77348        51.200          36.900  
  22337201.055 6      3586.647 6      2794.78947  -4361125.742 6  -3372128.16047
  22337196.33247        42.900          29.000  
  21840307.836 7     -1953.625 7     -1522.30548   4384806.906 7   3408545.16848
  21840303.45348        48.800          34.000  
  21712486.805 7      2797.597 7      2179.94648  -3283608.941 7  -2526241.07448
  21712481.41048        48.000          37.800  
  25186022.164 4      -667.353 4      -520.01445   2250758.711 4   1754966.85245
  25186016.57445        37.600          18.300  
  22714775.266 6     -2303.655 6     -1795.05547   5586167.191 6   4327268.57847
  22714770.70347        45.000          31.900  
  24221425.477 5      -475.174 5      -370.26746   1854087.844 5   1447303.46946
  24221420.33246        42.000          23.000  
  24120884.234 5      4178.249 5      3255.77546  -3810873.648 5  -2791460.14546
  24120879.24646        41.500          21.500  
 08  1 16 16 51  0.0000000  0 10G01G02G04G05G09G12G14G17G20G30    0.000248215
  25298628.602 5       910.715 5       709.64846    231679.801 5    199553.05146
  25298622.93846        39.600          19.600  
  21627447.188 7      3278.079 7      2554.34748  -4217823.727 7  -3258197.57048
  21627440.76248        49.800          36.500  
  20583478.055 7       633.167 7       493.37748   -160052.504 7   -111174.70348
  20583473.78148        50.800          36.900  
  22326965.727 6      3585.692 6      2794.04747  -4414911.121 6  -3414038.85947
  22326961.07047        43.300          28.900  
  21845898.594 7     -1958.702 7     -1526.26148   4414187.441 7   3431439.08648
  21845894.77748        48.400          34.000  
  21704506.914 7      2795.693 7      2178.46248  -3325544.336 7  -2558918.00848
  21704501.71548        48.500          37.900  
  25187941.047 3      -672.151 3      -523.75645   2260840.969 3   1762823.19145
  25187935.39145        36.900          17.400  
  22721349.852 6     -2302.980 6     -1794.52947   5620711.887 6   4354186.52047
  22721344.30147        44.500          32.600  
  24222798.000 5      -481.089 5      -374.87346   1861304.172 5   1452926.57046
  24222793.78546        41.400          24.200  
  24108952.688 5      4179.908 5      3257.07346  -3873572.266 5  -2840316.24646
  24108947.78546        41.300          21.700  
 08  1 16 16 51 15.0000000  0 10G01G02G04G05G09G12G14G17G20G30    0.000242998
  25296044.391 4       905.245 4       705.38546    218101.133 4    188972.28346
  25296039.34446        39.000          20.100  
  21618098.492 7      3275.153 7      2552.06748  -4266951.023 7  -3296478.57448
  21618092.23048        49.800          36.300  
  20581689.953 7       626.416 7       488.11748   -169448.746 7   -118496.45348
  20581685.47748        50.500          36.900  
  22316733.602 6      3584.798 6      2793.34947  -4468683.086 6  -3455939.09047
  22316728.74247        43.900          28.800  
  21851503.195 7     -1963.662 7     -1530.12548   4443642.379 7   3454390.96948
  21851499.31348        47.900          34.000  
  21696532.383 7      2793.863 7      2177.03648  -3367452.285 7  -2591573.54748
  21696526.91048        48.500          37.800  
  25189872.125 3      -676.837 3      -527.40445   2270993.520 3   1770734.24645
  25189867.27345        36.500          17.800  
  22727920.344 6     -2302.212 6     -1793.93247   5655245.070 6   4381095.49247
  22727916.08647        44.500          32.700  
  24224188.977 6      -486.925 6      -379.42146   1868608.051 6   1458617.87946
  24224183.24246        42.500          22.500  
  24097017.680 5      4181.641 5      3258.42246  -3936296.883 5  -2889192.57846
  24097011.48446        41.600          21.100  
 08  1 16 16 51 30.0000000  0 10G01G02G04G05G09G12G14G17G20G30    0.000237751
  25293476.852 4       899.570 4       700.96445    204607.586 4    178457.81645
  25293472.30945        39.000          18.300  
  21608758.828 7      3272.016 7      2549.62248  -4316031.258 7  -3334722.90248
  21608752.32848        49.200          34.800  
  20579921.922 7       619.476 7       482.70848   -178740.883 7   -125737.07448
  20579917.26248        49.900          34.800  
  22306504.406 6      3583.689 6      2792.48347  -4522438.418 6  -3497826.34047
  22306499.21547        43.800          26.700  
  21857124.398 6     -1968.805 6     -1534.13147   4473174.453 6   3477402.94147
  21857119.40647        47.500          31.700  
  21688563.023 7      2791.828 7      2175.45148  -3409329.707 7  -2624205.31648
  21688557.80148        48.600          36.100  
  25191819.438 4      -681.717 4      -531.21045   2281219.277 4   1778702.40245
  25191813.86745        37.500          15.600  
  22734490.609 6     -2301.622 6     -1793.47147   5689769.402 6   4407997.56347
  22734485.60247        44.700          30.400  
  24225595.063 5      -492.937 5      -384.10846   1876002.105 5   1464379.49246
  24225590.65646        41.600          19.600  
  24085076.313 5      4183.155 5      3259.60346  -3999044.207 5  -2938086.62546
  24085071.29346        40.500          19.600  
 08  1 16 16 51 45.0000000  0 10G01G02G04G05G09G12G14G17G20G30    0.000232470
  25290924.891 4       894.010 4       696.63045    191197.434 4    168008.35945
  25290920.44545        39.100          17.400  
  21599428.047 7      3268.968 7      2547.24848  -4365065.781 7  -3372931.61748
  21599421.28548        49.300          35.000  
  20578173.086 7       612.640 7       477.38248   -187930.480 7   -132897.80148
  20578168.62548        49.500          35.100  
  22296277.883 6      3582.671 6      2791.69346  -4576178.480 6  -3539701.73446
  22296272.77346        43.000          26.000  
  21862757.992 7     -1973.809 7     -1538.03247   4502781.582 7   3500473.41847
  21862752.80147        47.600          31.400  
  21680599.117 7      2789.880 7      2173.93248  -3451177.906 7  -2656814.30148
  21680594.41048        48.400          35.100  
  25193778.602 4      -686.466 4      -534.90845   2291516.266 4   1786726.02345
  25193773.41845        37.500          16.900  
  22741058.297 6     -2300.914 6     -1792.91947   5724283.105 6   4434891.34847
  22741053.84847        44.300          31.100  
  24227019.492 5      -498.834 5      -388.69846   1883484.617 5   1470209.95746
  24227014.23446        40.400          20.900  
  24073131.234 4      4184.761 4      3260.85446  -4061815.617 4  -2986999.43046
  24073126.10946        39.100          19.600  
 08  1 16 16 52  0.0000000  0 10G01G02G04G05G09G12G14G17G20G30    0.000227152
  25288388.789 5       888.577 5       692.39945    177868.777 5    157622.37145
  25288383.78145        39.700          17.400  
  21590105.445 7      3266.028 7      2544.95648  -4414056.199 7  -3411105.96148
  21590098.89148        49.600          34.900  
  20576443.852 7       605.943 7       472.16448   -197019.633 7   -139980.25448
  20576438.81348        49.400          34.700  
  22286053.875 6      3581.759 6      2790.98147  -4629904.867 6  -3581566.45747
  22286048.73047        44.100          28.200  
  21868405.617 6     -1978.666 6     -1541.81747   4532461.578 6   3523600.67647
  21868401.02347        47.300          32.100  
  21672641.313 7      2788.026 7      2172.48748  -3492998.293 7  -2689401.60948
  21672635.80148        48.700          35.300  
  25195750.836 4      -691.078 4      -538.50745   2301882.441 4   1794803.62545
  25195745.78545        37.500          16.900  
  22747623.375 6     -2300.077 6     -1792.26647   5758784.258 6   4461775.34047
  22747619.14847        44.500          30.700  
  24228458.750 5      -504.602 5      -393.20046   1891053.652 5   1476107.95346
  24228454.60546        39.500          19.600  
  24061181.867 5      4186.474 5      3262.18746  -4124612.727 5  -3035932.23846
  24061176.41446        41.100          19.900  
 08  1 16 16 52 15.0000000  0 10G01G02G04G05G09G12G14G17G20G30    0.000221802
  25285866.945 4       883.039 4       688.08145    164623.188 4    147301.15645
  25285863.47345        38.000          18.300  
  21580791.367 7      3262.973 7      2542.57548  -4463000.793 7  -3449244.59448
  21580784.96948        49.000          34.400  
  20574733.055 7       599.139 7       466.86148   -206006.711 7   -146983.17248
  20574728.59448        50.900          34.900  
  22275833.133 6      3580.729 6      2790.17947  -4683615.809 6  -3623419.13747
  22275828.32847        43.800          27.000  
  21874067.391 6     -1983.590 6     -1545.65447   4562215.430 6   3546785.48047
  21874063.00847        47.400          30.200  
  21664688.859 7      2786.063 7      2170.95948  -3534789.246 7  -2721965.99248
  21664683.88748        48.100          34.900  
  25197736.727 4      -695.763 4      -542.14345   2312318.883 4   1802935.77045
  25197732.16845        38.500          16.300  
  22754186.742 6     -2299.328 6     -1791.68447   5793274.184 6   4488650.59847
  22754182.17247        44.600          31.000  
  24229916.422 5      -510.458 5      -397.75645   1898710.523 5   1482074.28945
  24229911.97345        40.900          18.600  
  24049225.828 5      4188.080 5      3263.43846  -4187433.926 5  -3084883.80146
  24049221.89146        40.400          20.100  
 08  1 16 16 52 30.0000000  0 10G01G02G04G05G09G12G14G17G20G30    0.000216415
  25283363.148 4       877.637 4       683.87545    151458.629 4    137043.03545
  25283358.47745        38.300          17.400  
  21571485.898 7      3260.039 7      2540.29048  -4511901.379 7  -3487348.93848
  21571479.57848        49.500          35.500  
  20573041.930 7       592.483 7       461.67548   -214893.961 7   -153908.30148
  20573037.30548        51.100          34.900  
  22265614.688 6      3579.824 6      2789.47247  -4737313.168 6  -3665261.22347
  22265609.54747        43.900          26.700  
  21879743.180 7     -1988.350 7     -1549.36247   4592040.676 7   3570025.91047
  21879738.80147        47.700          31.300  
  21656741.500 7      2784.230 7      2169.53048  -3576552.695 7  -2754508.94148
  21656736.61348        48.200          34.400  
  25199735.992 4      -700.296 4      -545.69045   2322823.320 4   1811121.11745
  25199730.84445        38.000          16.300  
  22760747.703 6     -2298.431 6     -1790.98447   5827750.648 6   4515515.36347
  22760742.99247        44.000          30.700  
  24231389.172 5      -516.167 5      -402.20946   1906453.035 5   1488107.42246
  24231384.45746        39.600          19.000  
  24037267.977 5      4189.811 5      3264.78846  -4250281.094 5  -3133855.62546
  24037262.41846        40.400          19.600  
 08  1 16 16 52 45.0000000  0 10G01G02G04G05G09G12G14G17G20G30    0.000210999
  25280874.375 4       871.830 4       679.35045    138381.184 4    126852.78545
  25280869.60945        38.200          16.900  
  21562190.500 7      3256.685 7      2537.67648  -4560751.660 7  -3525414.08248
  21562183.47348        50.400          35.300  
  20571371.031 7       585.430 7       456.17948   -223675.410 7   -160750.98448
  20571366.58248        50.700          34.700  
  22255400.320 6      3578.488 6      2788.43347  -4790990.488 6  -3707087.71947
  22255395.71947        44.800          26.900  
  21885433.305 7     -1993.493 7     -1553.37147   4621943.074 7   3593326.47347
  21885428.78547        47.600          30.600  
  21648800.594 7      2781.979 7      2167.77648  -3618282.375 7  -2787025.57448
  21648795.48448        48.300          34.800  
  25201747.836 3      -705.230 3      -549.52945   2333401.770 3   1819364.04745
  25201743.50445        36.300          13.900  
  22767306.734 6     -2297.920 6     -1790.58647   5862219.453 6   4542374.15647
  22767302.23447        44.800          31.100  
  24232880.641 5      -522.274 5      -406.96245   1914287.145 5   1494211.85945
  24232875.82445        39.300          18.600  
  24025304.383 5      4191.118 5      3265.80546  -4313147.867 5  -3182842.69946
  24025299.52346        40.800          20.100  
 08  1 16 16 53  0.0000000  0 10G01G02G04G05G09G12G14G17G20G30    0.000205547
  25278400.609 3       866.266 3       675.01145    125387.188 3    116727.61345
  25278396.75845        36.200          18.300  
  21552902.758 7      3253.557 7      2535.23948  -4609555.020 7  -3563442.67248
  21552896.87548        49.900          35.300  
  20569719.531 7       578.618 7       450.87148   -232354.676 7   -167514.04748
  20569714.96948        51.200          35.200  
  22245189.125 6      3577.379 6      2787.56847  -4844651.172 6  -3748901.24247
  22245184.03547        44.100          26.500  
  21891137.070 6     -1998.373 6     -1557.17347   4651918.672 6   3616684.06347
  21891132.99247        47.000          30.000  
  21640865.234 6      2779.948 6      2166.19348  -3659981.586 6  -2819518.46548
  21640860.08248        47.200          35.200  
  25203774.977 4      -709.898 4      -553.16645   2344050.234 4   1827661.53945
  25203770.00045        37.600          16.900  
  22773863.523 6     -2297.156 6     -1789.99147   5896676.793 6   4569224.02047
  22773859.17247        44.200          31.000  
  24234388.188 5      -528.129 5      -411.52946   1922209.082 5   1500384.79746
  24234383.16046        40.900          19.000  
  24013337.055 5      4192.637 5      3266.99346  -4376037.418 5  -3231847.59046
  24013332.11346        41.200          20.100  
 08  1 16 16 53 15.0000000  0 10G01G02G04G05G09G12G14G17G20G30    0.000200064
  25275944.484 3       860.666 3       670.64845    112477.199 3    106667.89545
  25275940.63745        35.900          18.600  
  21543625.367 7      3250.389 7      2532.77048  -4658310.855 7  -3601434.22348
  21543618.69548        49.600          34.400  
  20568087.664 7       571.783 7       445.54548   -240931.414 7   -174197.21548
  20568082.80148        51.500          34.600  
  22234981.234 6      3576.221 6      2786.66747  -4898294.492 6  -3790701.24247
  22234975.69947        44.200          26.700  
  21896855.188 6     -2003.260 6     -1560.98147   4681967.570 6   3640098.77747
  21896851.38747        47.400          30.400  
  21632936.016 7      2777.875 7      2164.57848  -3701649.707 7  -2851987.12948
  21632930.89548        48.100          35.100  
  25205815.477 3      -714.588 3      -556.82445   2354769.047 3   1836013.89845
  25205809.21545        37.300          16.300  
  22780418.555 6     -2296.414 6     -1789.41247   5931123.000 6   4596065.19947
  22780414.22347        44.200          29.900  
  24235912.102 4      -534.008 4      -416.10946   1930219.203 4   1506626.43846
  24235907.81646        39.000          19.300  
  24001364.008 5      4194.124 5      3268.14846  -4438949.270 5  -3280869.80946
  24001360.21146        40.500          19.900  
 08  1 16 16 53 30.0000000  0 10G01G02G04G05G09G12G14G17G20G30    0.000194546
  25273505.000 4       855.031 4       666.25945     99651.738 4     96674.01245
  25273499.82845        38.800          16.900  
  21534356.648 7      3247.164 7      2530.25748  -4707018.313 7  -3639388.07048
  21534349.96948        49.500          34.200  
  20566474.773 7       564.913 7       440.19248   -249405.109 7   -180800.09848
  20566470.13748        51.300          34.600  
  22224776.828 6      3575.012 6      2785.72347  -4951919.680 6  -3832487.09047
  22224771.88747        44.400          27.500  
  21902588.141 6     -2008.153 6     -1564.79347   4712089.863 6   3663570.67247
  21902583.32847        47.500          30.800  
  21625013.023 7      2775.756 7      2162.92748  -3743286.051 7  -2884431.03948
  21625007.93048        47.900          34.600  
  25207867.102 4      -719.298 4      -560.49045   2365558.516 4   1844421.24645
  25207862.82845        38.400          16.900  
  22786971.898 6     -2295.689 6     -1788.84847   5965558.340 6   4622897.92247
  22786966.93047        45.000          30.900  
  24237453.734 5      -539.905 5      -420.70445   1938317.777 5   1512937.00445
  24237448.43045        39.500          16.900  
  23989388.641 5      4195.561 5      3269.27046  -4501882.676 5  -3329908.85946
  23989384.84446        40.500          19.600  
 08  1 16 16 53 45.0000000  0 10G01G02G04G05G09G12G14G17G20G30    0.000188993
  25271079.578 4       849.577 4       662.00545     86908.086 4     86743.93445
  25271074.31645        38.200          16.900  
  21525096.828 7      3244.101 7      2527.87148  -4755679.824 7  -3677306.12948
  21525089.90648        49.800          34.000  
  20564881.586 7       558.227 7       434.98248   -257778.520 7   -187324.82848
  20564876.57848        50.800          34.700  
  22214574.836 6      3573.953 6      2784.89947  -5005528.973 6  -3874260.57447
  22214570.34047        44.700          26.800  
  21908333.281 6     -2012.844 6     -1568.44947   4742282.520 6   3687097.40647
  21908329.00047        47.300          30.700  
  21617095.164 7      2773.787 7      2161.39348  -3784892.859 7  -2916851.93448
  21617090.69548        48.000          34.600  
  25209933.852 4      -723.798 4      -563.99845   2376415.488 4   1852881.21545
  25209928.85545        38.300          15.600  
  22793521.773 6     -2294.785 6     -1788.14347   5999980.117 6   4649720.06647
  22793517.12147        44.900          31.200  
  24239009.398 4      -545.620 4      -425.15945   1946502.082 4   1519314.38345
  24239006.23045        38.100          17.400  
  23977409.000 5      4197.151 5      3270.50646  -4564839.938 5  -3378966.44946
  23977404.68046        39.700          20.100  
 08  1 16 16 54  0.0000000  0 10G01G02G04G05G09G12G14G17G20G30    0.000183411
  25268669.578 4       843.761 4       657.47745     74251.668 4     76881.77345
  25268665.58645        37.900          17.800  
  21515846.563 7      3240.673 7      2525.19948  -4804289.914 7  -3715184.11748
  21515840.02748        49.600          34.700  
  20563308.219 7       551.184 7       429.49548   -266046.281 7   -193767.24648
  20563303.24648        49.600          34.400  
  22204377.688 6      3572.531 6      2783.79047  -5059116.938 6  -3916017.42647
  22204373.01647        44.600          27.600  
  21914093.266 7     -2017.857 7     -1572.35447   4772550.371 7   3710682.71947
  21914088.60547        47.900          30.200  
  21609184.938 7      2771.458 7      2159.57848  -3826464.727 7  -2949245.59848
  21609179.63748        48.600          35.200  
  25212013.781 4      -728.641 4      -567.77445   2387345.098 4   1861397.83245
  25212008.96145        37.700          16.300  
  22800070.602 6     -2294.233 6     -1787.71447   6034393.605 6   4676535.77047
  22800065.96547        44.900          30.600  
  24240585.211 5      -551.693 5      -429.89045   1954777.473 5   1525762.73045
  24240581.10945        40.400          18.600  
  23965424.445 5      4198.365 5      3271.45446  -4627815.406 5  -3428038.25846
  23965420.77046        42.000          20.400  
 08  1 16 16 54 15.0000000  0 10G01G02G04G05G09G12G14G17G20G30    0.000177797
  25266278.102 4       837.799 4       652.83045     61684.680 4     67089.31645
  25266274.45345        37.900          17.800  
  21506606.320 7      3237.071 7      2522.39247  -4852845.977 7  -3753020.00447
  21506599.58247        49.300          33.500  
  20561755.508 7       544.005 7       423.89948   -274206.355 7   -200125.73448
  20561751.15248        50.000          34.800  
  22194184.797 6      3570.935 6      2782.54747  -5112680.961 6  -3957755.62947
  22194179.68047        44.700          26.500  
  21919867.773 7     -2023.003 7     -1576.36647   4802895.422 7   3734328.20347
  21919863.23447        48.200          31.200  
  21601280.852 7      2768.959 7      2157.63048  -3867999.117 7  -2981610.05148
  21601275.77748        48.500          35.300  
  25214108.523 4      -733.635 4      -571.65945   2398349.617 4   1869972.72345
  25214102.55545        38.800          16.900  
  22806617.992 6     -2293.817 6     -1787.39047   6068800.867 6   4703346.62547
  22806613.51647        45.000          30.000  
  24242177.727 4      -557.890 4      -434.72045   1963145.820 4   1532283.52345
  24242173.69945        38.800          18.600  
  23953437.633 5      4199.414 5      3272.26946  -4690806.609 5  -3477122.28946
  23953433.79746        41.800          19.900  
 08  1 16 16 54 30.0000000  0 10G01G02G04G05G09G12G14G17G20G30    0.000172153
  25263904.281 4       831.928 4       648.25746     49205.766 4     57365.46946
  25263899.54346        38.500          19.900  
  21497376.320 7      3233.547 7      2519.64748  -4901349.188 7  -3790814.71548
  21497369.69548        49.100          34.200  
  20560222.625 7       536.915 7       418.37548   -282260.074 7   -206401.36348
  20560218.03148        50.100          34.800  
  22183995.945 6      3569.414 6      2781.36147  -5166222.164 6  -3999476.04747
  22183991.35247        45.100          28.400  
  21925656.781 7     -2028.028 7     -1580.28147   4833315.840 7   3758032.41047
  21925652.19147        48.200          30.600  
  21593384.023 7      2766.560 7      2155.76248  -3909497.523 7  -3013946.48048
  21593378.96148        48.600          34.900  
  25216215.922 3      -738.499 3      -575.45345   2409427.102 3   1878604.51645
  25216211.06345        36.700          16.300  
  22813163.984 6     -2293.302 6     -1786.98947   6103200.402 6   4730151.45347
  22813158.78147        45.300          29.500  
  24243789.484 5      -563.990 5      -439.47045   1971605.676 5   1538875.57445
  24243783.34445        41.700          18.600  
  23941448.539 6      4200.544 6      3273.15546  -4753814.777 6  -3526219.60946
  23941443.87146        42.900          20.900  
 08  1 16 16 54 45.0000000  0 10G01G02G04G05G09G12G14G17G20G30    0.000166479
  25261547.063 5       825.870 5       643.53546     36817.715 5     47712.44546
  25261542.51246        39.500          19.600  
  21488157.336 7      3229.818 7      2516.74147  -4949796.461 7  -3828565.82447
  21488150.44947        49.400          33.600  
  20558710.461 7       529.647 7       412.71148   -290204.773 7   -212592.03548
  20558706.21948        50.100          34.400  
  22173812.781 6      3567.684 6      2780.01447  -5219737.430 6  -4041176.25447
  22173807.98847        44.700          27.800  
  21931460.039 7     -2033.221 7     -1584.32747   4863814.148 7   3781797.30947
  21931455.61747        48.100          30.800  
  21585494.617 7      2763.931 7      2153.71348  -3950956.492 7  -3046252.17248
  21585489.46948        47.900          35.100  
  25218338.938 4      -743.555 4      -579.39545   2420580.430 4   1887295.44145
  25218333.10245        37.800          17.800  
  22819708.914 6     -2292.958 6     -1786.72047   6137594.766 6   4756952.25047
  22819703.80547        45.400          30.300  
  24245416.250 5      -570.278 5      -444.37346   1980159.840 5   1545541.16446
  24245411.85946        39.200          20.400  
  23929454.867 5      4201.468 5      3273.87246  -4816836.797 5  -3575327.68446
  23929451.62146        41.000          20.400  
 08  1 16 16 55  0.0000000  0 10G01G02G04G05G09G12G14G17G20G30    0.000160774
  25259205.492 4       820.143 4       639.07245     24515.566 4     38126.36345
  25259201.41845        38.900          18.300  
  21478948.008 7      3226.416 7      2514.09048  -4998192.703 7  -3866277.17648
  21478941.14548        50.000          34.300  
  20557218.953 7       522.733 7       407.32448   -298045.766 7   -218701.89548
  20557214.47348        50.400          34.900  
  22163633.594 6      3566.275 6      2778.91547  -5273231.559 6  -4082859.98047
  22163628.36747        44.300          28.800  
  21937277.609 7     -2038.032 7     -1588.07647   4894384.633 7   3805618.44547
  21937272.62147        48.000          31.400  
  21577611.609 7      2761.621 7      2151.91248  -3992380.809 7  -3078530.85548
  21577606.92648        48.400          35.200  
  25220474.656 4      -748.248 4      -583.04945   2431804.152 4   1896041.17645
  25220469.43045        38.300          16.900  
  22826252.211 6     -2292.262 6     -1786.17947   6171978.695 6   4783744.93447
  22826247.34847        45.900          30.500  
  24247059.555 5      -576.193 5      -448.98146   1988802.742 5   1552275.88346
  24247056.41046        40.700          19.900  
  23917459.055 6      4202.717 6      3274.84546  -4879877.559 6  -3624450.35546
  23917455.27746        42.600          20.600  
 08  1 16 16 55 15.0000000  0 10G01G02G04G05G09G12G14G17G20G30    0.000155039
  25256881.875 5       814.264 5       634.49246     12301.602 5     28608.98046
  25256877.66846        40.500          19.300  
  21469748.461 7      3222.839 7      2511.30348  -5046535.293 7  -3903946.71948
  21469741.76648        49.500          34.300  
  20555746.945 7       515.650 7       401.80548   -305780.512 7   -224728.97348
  20555742.43048        50.500          34.400  
  22153457.703 6      3564.692 6      2777.68447  -5326701.945 6  -4124525.23447
  22153452.98447        45.300          28.000  
  21943109.172 7     -2042.988 7     -1591.93847   4925029.449 7   3829497.50847
  21943104.73847        48.000          30.800  
  21569736.531 7      2759.134 7      2149.97448  -4033767.820 7  -3110780.47348
  21569731.15248        48.600          35.700  
  25222624.477 4      -753.073 4      -586.81045   2443100.254 4   1904843.32845
  25222618.94545        38.400          17.800  
  22832793.750 6     -2291.716 6     -1785.75247   6206354.438 6   4810531.21147
  22832788.53147        45.800          29.900  
  24248723.016 5      -582.265 5      -453.71146   1997536.715 5   1559081.54746
  24248718.12946        39.500          19.300  
  23905459.414 5      4203.780 5      3275.67346  -4942934.262 5  -3673585.44946
  23905455.78146        41.700          20.600  
 08  1 16 16 55 30.0000000  0 10G01G02G04G05G09G12G14G17G20G30    0.000149271
  25254574.797 4       808.358 4       629.89246       176.230 4     19160.60546
  25254570.43846        39.100          19.900  
  21460559.539 7      3219.221 7      2508.48448  -5094823.609 7  -3941573.97348
  21460552.89148        49.300          34.500  
  20554295.570 7       508.551 7       396.27348   -313408.770 7   -230673.06648
  20554290.74648        50.400          34.500  
  22143288.000 6      3563.067 6      2776.41647  -5380147.953 6  -4166171.47347
  22143283.11347        44.500          27.900  
  21948955.125 7     -2047.952 7     -1595.80647   4955748.730 7   3853434.59447
  21948950.43447        47.600          31.700  
  21561867.820 7      2756.616 7      2148.01248  -4075117.055 7  -3143000.66048
  21561862.81648        48.500          36.000  
  25224787.875 4      -757.914 4      -590.58145   2454468.957 4   1913702.04345
  25224782.37145        38.500          17.800  
  22839333.438 6     -2291.188 6     -1785.34247   6240722.250 6   4837311.33647
  22839328.66447        45.600          29.100  
  24250403.000 5      -588.371 5      -458.46746   2006362.281 5   1565958.55946
  24250397.75846        39.700          19.600  
  23893457.445 5      4204.805 5      3276.47246  -5006006.336 5  -3722732.53146
  23893452.59846        42.300          20.100  
 08  1 16 16 55 45.0000000  0 10G01G02G04G05G09G12G14G17G20G30    0.000143473
  25252283.172 3       802.513 3       625.33646    -11861.469 3      9780.56346
  25252279.16046        36.400          19.000  
  21451380.727 7      3215.644 7      2505.69648  -5143058.266 7  -3979159.40648
  21451374.04348        49.400          34.600  
  20552863.773 7       501.517 7       390.79348   -320931.531 7   -236534.95748
  20552858.96948        50.200          34.700  
  22133121.523 6      3561.470 6      2775.17247  -5433570.012 6  -4207799.04747
  22133116.95747        44.900          27.800  
  21954814.289 7     -2052.824 7     -1599.60347   4986541.090 7   3877428.64547
  21954809.71547        47.600          30.800  
  21554006.289 7      2754.147 7      2146.08948  -4116429.258 7  -3175191.98848
  21554001.12948        48.700          35.700  
  25226964.047 4      -762.686 4      -594.30145   2465909.242 4   1922616.55945
  25226958.86345        38.600          16.300  
  22845871.922 6     -2290.589 6     -1784.87547   6275081.090 6   4864084.45347
  22845867.05547        45.800          29.800  
  24252098.516 5      -594.388 5      -463.15946   2015278.094 5   1572905.94946
  24252094.26246        40.600          19.300  
  23881451.570 5      4205.875 5      3277.30746  -5069094.457 5  -3771892.13346
  23881448.12146        41.900          20.400  
 08  1 16 16 56  0.0000000  0 10G01G02G04G05G09G12G14G17G20G30    0.000137648
  25250010.555 4       796.299 4       620.49445    -23805.961 4       473.15645
  25250006.40245        38.200          18.600  
  21442213.445 7      3211.697 7      2502.62048  -5191233.719 7  -4016698.71148
  21442206.59048        49.800          34.200  
  20551453.250 7       494.120 7       385.02848   -328343.324 7   -242310.38348
  20551448.53948        50.100          34.300  
  22122961.219 6      3559.505 6      2773.64147  -5486962.590 6  -4249403.66047
  22122956.30947        45.300          28.000  
  21960688.688 7     -2058.029 7     -1603.65847   5017411.523 7   3901483.51247
  21960684.31647        47.600          31.700  
  21546153.203 7      2751.296 7      2143.86648  -4157698.691 7  -3207349.98048
  21546147.98048        48.500          36.300  
  25229156.172 4      -767.807 4      -598.28945   2477426.340 4   1931590.89845
  25229150.89845        38.900          17.400  
  22852408.977 6     -2290.335 6     -1784.67747   6309436.121 6   4890854.60247
  22852404.56347        46.100          29.400  
  24253814.227 5      -600.769 5      -468.13046   2024289.625 5   1579927.89846
  24253808.47346        40.400          19.600  
  23869445.000 6      4206.571 6      3277.84346  -5132193.016 6  -3821059.77746
  23869441.14146        42.500          20.600  
 08  1 16 16 56 15.0000000  0 10G01G02G04G05G09G12G14G17G20G30    0.000131792
  25247754.328 4       790.326 4       615.83646    -35660.844 4     -8764.38346
  25247750.81646        38.700          19.000  
  21433056.102 7      3207.964 7      2499.71148  -5239353.180 7  -4054194.37548
  21433050.12548        49.900          34.400  
  20550063.477 7       486.970 7       379.45748   -335647.875 7   -248002.23848
  20550058.89148        49.900          34.000  
  22112806.125 6      3557.753 6      2772.27447  -5540328.879 6  -4290987.77747
  22112801.33647        44.000          28.100  
  21966577.180 7     -2062.970 7     -1607.50947   5048356.082 7   3925596.14147
  21966572.61347        48.000          30.500  
  21538307.359 7      2748.668 7      2141.81948  -4198928.707 7  -3239477.27048
  21538302.10248        48.300          35.700  
  25231360.617 4      -772.647 4      -602.06245   2489016.051 4   1940621.83245
  25231356.02345        37.900          16.900  
  22858945.383 6     -2289.838 6     -1784.28947   6343783.695 6   4917618.93447
  22858940.99247        44.700          29.000  
  24255545.398 5      -606.896 5      -472.90746   2033393.063 5   1587021.50046
  24255541.20746        39.500          19.300  
  23857434.977 5      4207.476 5      3278.55846  -5195305.152 5  -3870238.14846
  23857430.44546        42.200          20.900  
 08  1 16 16 56 30.0000000  0 10G01G02G04G05G09G12G14G17G20G30    0.000125904
  25245514.547 4       784.653 4       611.41945    -47430.637 4    -17935.66845
  25245510.78545        37.900          18.600  
  21423909.453 7      3204.514 7      2497.02348  -5287420.891 7  -4091649.72748
  21423902.54748        49.700          35.400  
  20548692.898 7       480.127 7       374.12548   -342849.781 7   -253614.11748
  20548688.43848        50.900          34.100  
  22102654.609 6      3556.283 6      2771.13047  -5593673.121 6  -4332554.72747
  22102650.21547        45.100          27.500  
  21972479.047 6     -2067.591 6     -1611.10947   5079369.941 6   3949762.77347
  21972474.61747        47.300          31.200  
  21530467.727 7      2746.321 7      2139.99148  -4240123.527 7  -3271577.12948
  21530462.66848        48.700          37.000  
  25233580.094 4      -777.188 4      -605.60345   2500673.871 4   1949705.87545
  25233575.00445        38.800          16.300  
  22865479.250 6     -2289.040 6     -1783.66747   6378119.297 6   4944373.93447
  22865474.68447        44.600          29.900  
  24257294.742 4      -612.712 4      -477.43746   2042583.742 4   1594183.05146
  24257289.92646        38.500          19.600  
  23845421.633 6      4208.665 6      3279.47746  -5258435.125 6  -3919430.30146
  23845418.28146        42.900          20.400  
 08  1 16 16 56 45.0000000  0 10G01G02G04G05G09G12G14G17G20G30    0.000119986
  25243293.109 4       778.621 4       606.71945    -59109.949 4    -27036.44945
  25243288.42245        38.200          17.400  
  21414773.508 7      3200.694 7      2494.04748  -5335431.297 7  -4129060.42648
  21414767.01648        50.000          35.300  
  20547343.063 7       472.930 7       368.51748   -349943.730 7   -259141.87148
  20547338.34048        50.000          34.400  
  22092509.281 6      3554.439 6      2769.69247  -5646989.707 6  -4374100.11347
  22092504.95347        45.100          29.100  
  21978394.469 6     -2072.539 6     -1614.96547   5110458.031 6   3973987.24647
  21978390.93447        47.500          31.900  
  21522636.391 7      2743.598 7      2137.86848  -4281277.492 7  -3303645.15648
  21522631.43448        49.300          35.600  
  25235812.633 4      -782.072 4      -609.40445   2512404.945 4   1958846.93045
  25235807.89545        38.700          16.900  
  22872011.219 6     -2288.586 6     -1783.31347   6412448.086 6   4971123.62947
  22872006.84047        45.000          29.700  
  24259061.742 5      -618.880 5      -482.24546   2051866.949 5   1601416.72346
  24259055.86346        39.800          19.300  
  23833406.148 5      4209.479 5      3280.11646  -5321577.320 5  -3968632.03546
  23833402.30946        42.300          20.100  
 08  1 16 16 57  0.0000000  0 10G01G02G04G05G09G12G14G17G20G30    0.000114038
  25241087.688 4       772.573 4       602.00745    -70698.547 4    -36066.55945
  25241081.86745        39.000          16.900  
  21405648.281 7      3196.836 7      2491.04048  -5383383.844 7  -4166426.02748
  21405641.65648        49.800          34.800  
  20546013.625 7       465.719 7       362.89848   -356929.516 7   -264585.33648
  20546008.75848        50.000          33.800  
  22082368.602 6      3552.552 6      2768.22347  -5700277.992 6  -4415623.46147
  22082364.31347        44.900          28.600  
  21984324.531 6     -2077.492 6     -1618.82447   5141620.414 6   3998269.61347
  21984320.60247        46.800          31.600  
  21514812.906 7      2740.850 7      2135.72748  -4322390.238 7  -3335681.06348
  21514808.24248        48.800          36.400  
  25238059.289 5      -786.952 5      -613.21145   2524209.231 5   1968045.10045
  25238054.14545        39.400          16.900  
  22878542.633 6     -2288.148 6     -1782.97247   6446770.313 6   4997868.21147
  22878538.34447        44.900          29.500  
  24260846.391 5      -625.055 5      -487.05446   2061242.773 5   1608722.53946
  24260840.55946        40.800          19.300  
  23821388.969 5      4210.255 5      3280.72046  -5384731.152 5  -4017842.83246
  23821384.45746        42.000          21.300  
 08  1 16 16 57 15.0000000  0 10G01G02G04G05G09G12G14G17G20G30    0.000108061
  25238899.586 3       766.638 3       597.37745    -82198.121 3    -45027.21545
  25238893.86345        37.200          16.900  
  21396533.930 7      3193.077 7      2488.11248  -5431280.004 7  -4203747.69948
  21396527.09048        49.500          34.900  
  20544704.242 7       458.627 7       357.37248   -363808.922 7   -269945.91448
  20544699.74648        50.000          34.100  
  22072233.336 6      3550.759 6      2766.82547  -5753539.371 6  -4457125.84047
  22072228.36747        44.200          27.700  
  21990268.547 6     -2082.301 6     -1622.57147   5172854.926 6   4022608.17647
  21990264.41447        47.000          32.400  
  21506997.242 7      2738.191 7      2133.65648  -4363463.102 7  -3367685.89548
  21506992.27748        48.700          37.000  
  25240318.406 4      -791.712 4      -616.92245   2536084.914 4   1977298.92245
  25240314.16445        38.100          16.900  
  22885072.547 6     -2287.584 6     -1782.53247   6481084.070 6   5024606.19147
  22885068.15247        45.800          29.300  
  24262647.398 5      -631.105 5      -491.77246   2070709.348 5   1616099.11346
  24262641.98846        41.000          20.100  
  23809368.813 5      4211.128 5      3281.39746  -5447898.074 5  -4067063.78546
  23809364.32846        41.400          20.900  
 08  1 16 16 57 30.0000000  0 10G01G02G04G05G09G12G14G17G20G30    0.000102057
  25236728.805 4       760.515 4       592.61245    -93605.840 4    -53916.39545
  25236723.71545        38.400          17.800  
  21387431.023 7      3189.128 7      2485.03348  -5479116.918 7  -4241023.19948
  21387424.55148        49.600          35.000  
  20543415.742 7       451.356 7       351.70548   -370579.258 7   -275221.49648
  20543411.23848        49.700          33.900  
  22062103.898 6      3548.762 6      2765.26947  -5806770.801 6  -4498604.87547
  22062099.24247        45.500          29.100  
  21996226.602 6     -2087.268 6     -1626.44247   5204163.945 6   4047004.80147
  21996222.14847        47.100          31.100  
  21499189.539 7      2735.330 7      2131.42548  -4404493.047 7  -3399657.27348
  21499184.43048        48.200          36.300  
  25242592.656 4      -796.626 4      -620.74645   2548034.297 4   1986610.11345
  25242587.53145        39.000          16.900  
  22891601.422 6     -2287.191 6     -1782.22647   6515391.934 6   5051339.58647
  22891596.74247        45.900          30.500  
  24264466.594 5      -637.339 5      -496.62746   2080269.426 5   1623548.51646
  24264461.24246        42.200          19.000  
  23797346.500 5      4211.802 5      3281.92346  -5511075.102 5  -4116292.63746
  23797342.06346        40.300          20.900  
 08  1 16 16 57 45.0000000  0 10G01G02G04G05G09G12G14G17G20G30    0.000096022
  25234575.305 5       754.327 5       587.78645   -104920.750 5    -62733.19145
  25234570.17645        39.400          18.600  
  21378339.539 7      3185.087 7      2481.88648  -5526893.227 7  -4278251.48448
  21378332.87948        48.900          35.500  
  20542148.469 7       444.023 7       345.99248   -377239.602 7   -280411.38348
  20542143.81348        50.500          34.000  
  22051980.359 6      3546.685 6      2763.65147  -5859971.078 6  -4540059.63747
  22051975.62947        45.100          28.400  
  22002198.828 6     -2092.271 6     -1630.33947   5235548.004 6   4071459.88747
  22002194.44947        47.000          31.400  
  21491390.117 7      2732.400 7      2129.14348  -4445479.051 7  -3431594.42248
  21491384.98848        48.900          36.000  
  25244880.961 4      -801.599 4      -624.62045   2560058.277 4   1995979.40645
  25244875.69945        38.600          16.900  
  22898128.977 6     -2286.843 6     -1781.95547   6549694.582 6   5078068.91047
  22898124.30947        45.800          30.100  
  24266303.820 5      -643.627 5      -501.52546   2089923.828 5   1631071.39546
  24266298.55546        39.400          19.900  
  23785323.188 5      4212.384 5      3282.37946  -5574260.855 5  -4165528.32046
  23785317.69146        42.200          21.700  
 08  1 16 16 58  0.0000000  0 10G01G02G04G05G09G12G14G17G20G30    0.000089962
  25232441.039 5       748.057 5       582.90245   -116141.609 5    -71476.72345
  25232435.66845        39.700          18.300  
  21369259.500 7      3180.954 7      2478.66548  -5574607.543 7  -4315431.45348
  21369253.10548        49.500          34.900  
  20540902.172 7       436.620 7       340.22348   -383788.895 7   -285514.72348
  20540897.55148        50.700          34.000  
  22041863.273 6      3544.504 6      2761.95147  -5913138.633 6  -4581488.89847
  22041858.19947        45.100          28.900  
  22008185.391 6     -2097.335 6     -1634.28647   5267008.035 6   4095974.18447
  22008181.01647        47.100          30.800  
  21483599.430 7      2729.370 7      2126.78248  -4486419.598 7  -3463496.14848
  21483594.88748        48.500          36.400  
  25247183.031 5      -806.643 5      -628.55245   2572157.930 5   2005407.68045
  25247178.00045        39.400          16.300  
  22904655.750 6     -2286.572 6     -1781.74547   6583993.164 6   5104795.07847
  22904651.16847        46.600          28.600  
  24268158.844 5      -649.981 5      -506.47746   2099673.543 5   1638668.55546
  24268153.82446        39.200          19.000  
  23773297.000 5      4212.872 5      3282.75746  -5637453.926 5  -4214769.67246
  23773292.81346        42.000          20.100  
 08  1 16 16 58 15.0000000  0 10G01G02G04G05G09G12G14G17G20G30    0.000083872
  25230322.648 4       741.952 4       578.14345   -127270.891 4    -80148.87145
  25230318.28145        38.400          17.800  
  21360191.117 7      3176.961 7      2475.55248  -5622261.953 7  -4352564.74248
  21360184.92248        49.600          35.100  
  20539676.641 7       429.369 7       334.57348   -390229.430 7   -290533.32448
  20539672.16048        50.300          34.100  
  22031751.828 6      3542.462 6      2760.36047  -5966275.559 6  -4622894.29347
  22031746.68047        44.900          28.800  
  22014185.750 6     -2102.207 6     -1638.08247   5298541.137 6   4120545.41847
  22014181.93047        47.200          31.200  
  21475817.258 7      2726.479 7      2124.52948  -4527316.789 7  -3495364.08248
  21475812.00448        48.000          37.300  
  25249500.180 4      -811.511 4      -632.34745   2584330.594 4   2014892.89145
  25249494.11345        38.800          16.300  
  22911181.242 6     -2286.144 6     -1781.41147   6618285.328 6   5131516.23847
  22911176.50047        45.900          28.000  
  24270031.047 4      -656.163 4      -511.29846   2109515.984 4   1646338.03146
  24270026.59046        39.000          19.600  
  23761269.852 5      4213.502 5      3283.25146  -5700656.457 5  -4264018.44146
  23761265.35546        41.500          20.100  
 08  1 16 16 58 30.0000000  0 10G01G02G04G05G09G12G14G17G20G30    0.000077753
  25228222.633 5       736.005 5       573.51046   -138310.965 5    -88751.52046
  25228217.34846        39.800          19.600  
  21351133.617 7      3173.113 7      2472.55548  -5669858.645 7  -4389653.06348
  21351127.18048        49.200          34.200  
  20538471.344 7       422.296 7       329.06248   -396563.875 7   -295469.25848
  20538466.76648        50.200          34.000  
  22021645.094 6      3540.566 6      2758.88347  -6019384.051 6  -4664277.53547
  22021640.26247        45.200          27.300  
  22020199.539 6     -2106.895 6     -1641.73547   5330144.566 6   4145171.44547
  22020195.52747        46.800          30.400  
  21468042.820 7      2723.736 7      2122.39248  -4568172.828 7  -3527199.96548
  21468037.66448        48.400          37.400  
  25251828.156 4      -816.183 4      -635.98745   2596573.336 4   2024432.69145
  25251824.43845        38.600          17.400  
  22917705.313 6     -2285.534 6     -1780.93647   6652568.344 6   5158230.27747
  22917700.12147        45.500          28.700  
  24271921.523 5      -662.169 5      -515.97446   2119448.516 5   1654077.63746
  24271917.25446        40.000          19.000  
  23749241.070 5      4214.286 5      3283.85846  -5763870.742 5  -4313276.31346
  23749236.30146        41.400          21.300  
 08  1 16 16 58 45.0000000  0 10G01G02G04G05G09G12G14G17G20G30    0.000071604
  25226138.000 4       729.927 4       568.77446   -149259.867 4    -97283.13746
  25226133.43446        38.600          19.000  
  21342087.461 7      3169.114 7      2469.43948  -5717395.359 7  -4426694.64548
  21342081.08648        49.600          34.500  
  20537286.438 7       415.086 7       323.44348   -402790.164 7   -300320.91048
  20537281.96548        50.200          34.400  
  22011544.609 6      3538.515 6      2757.28547  -6072461.781 6  -4705636.80547
  22011539.89847        45.800          28.700  
  22026227.188 6     -2111.693 6     -1645.47547   5361819.965 6   4169853.56647
  22026223.27047        46.700          31.300  
  21460276.234 7      2720.837 7      2120.13348  -4608985.383 7  -3559001.95348
  21460271.13348        48.900          37.400  
  25254172.852 4      -820.977 4      -639.72245   2608887.996 4   2034028.52045
  25254167.64545        38.700          16.300  
  22924227.445 6     -2285.057 6     -1780.56447   6686844.199 6   5184938.73447
  22924222.82447        46.000          28.500  
  24273828.914 5      -668.301 5      -520.75346   2129473.023 5   1661888.93446
  24273824.77346        40.300          20.100  
  23737210.234 5      4214.906 5      3284.34346  -5827094.332 5  -4362541.46146
  23737204.66046        41.300          20.400  
 08  1 16 16 59  0.0000000  0 10G01G02G04G05G09G12G14G17G20G30    0.000065426
  25224071.453 5       723.871 5       564.05545   -160117.938 5   -105743.96945
  25224066.87145        39.200          16.900  
  21333053.125 7      3165.124 7      2466.33048  -5764872.223 7  -4463689.59048
  21333046.87948        49.900          34.800  
  20536121.977 7       407.917 7       317.85848   -408908.926 7   -305088.78548
  20536117.17248        50.500          34.400  
  22001450.430 6      3536.466 6      2755.68847  -6125508.766 6  -4746972.11747
  22001445.42247        45.400          27.600  
  22032268.656 6     -2116.448 6     -1649.17947   5393566.684 6   4194591.25047
  22032264.57847        47.000          30.000  
  21452518.109 7      2717.945 7      2117.87948  -4649754.555 7  -3590770.13348
  21452512.89148        48.700          36.400  
  25256529.023 4      -825.743 4      -643.43945   2621274.148 4   2043680.10945
  25256523.66845        39.000          17.800  
  22930747.602 6     -2284.551 6     -1780.16947   6721112.469 6   5211641.27347
  22930743.14847        45.000          27.900  
  24275754.469 5      -674.404 5      -525.50746   2139589.082 5   1669771.54346
  24275750.43446        40.400          20.100  
  23725176.609 5      4215.535 5      3284.83046  -5890327.359 5  -4411813.91446
  23725171.47746        41.200          20.100  
 08  1 16 16 59 15.0000000  0 10G01G02G04G05G09G12G14G17G20G30    0.000059219
  25222022.430 3       717.883 3       559.38845   -170886.180 3   -114134.79345
  25222017.89545        37.200          18.300  
  21324030.313 7      3161.190 7      2463.26448  -5812290.078 7  -4500638.55548
  21324023.56348        49.800          34.700  
  20534977.875 7       400.810 7       312.32048   -414921.074 7   -309773.58248
  20534973.34848        50.500          34.400  
  21991361.523 6      3534.468 6      2754.13047  -6178525.781 6  -4788284.07447
  21991356.62147        45.500          27.200  
  22038323.180 6     -2121.103 6     -1652.80647   5425383.223 6   4219383.34047
  22038319.39147        47.300          31.000  
  21444768.195 7      2715.111 7      2115.67148  -4690481.223 7  -3622505.19948
  21444762.80548        48.800          36.000  
  25258900.375 4      -830.405 4      -647.07045   2633730.230 4   2053386.15245
  25258894.36345        38.900          16.900  
  22937267.438 6     -2283.958 6     -1779.70747   6755371.840 6   5238336.88347
  22937262.48047        45.300          27.800  
  24277698.148 5      -680.441 5      -530.21046   2149795.691 5   1677724.69146
  24277692.22346        39.500          19.300  
  23713142.000 5      4216.215 5      3285.36446  -5953570.582 5  -4461094.37546
  23713137.34046        41.600          21.700  
 08  1 16 16 59 30.0000000  0 10G01G02G04G05G09G12G14G17G20G30    0.000052982
  25219990.813 5       711.816 5       554.66246   -181563.418 5   -122454.72746
  25219986.21946        39.400          19.600  
  21315018.398 7      3157.148 7      2460.11448  -5859647.301 7  -4537540.26648
  21315011.73848        50.000          34.400  
  20533854.508 7       393.630 7       306.72548   -420825.527 7   -314374.45348
  20533849.95748        51.100          34.600  
  21981278.188 6      3532.361 6      2752.48947  -6231511.195 6  -4829571.41447
  21981273.46547        45.500          28.800  
  22044391.172 6     -2125.815 6     -1656.47847   5457270.453 6   4244230.51647
  22044387.10947        47.100          31.200  
  21437026.313 7      2712.165 7      2113.37548  -4731163.691 7  -3654205.82448
  21437021.07448        49.000          36.400  
  25261283.109 4      -835.147 4      -650.76645   2646257.434 4   2063147.63745
  25261278.92245        38.300          17.800  
  22943784.977 6     -2283.448 6     -1779.31047   6789623.559 6   5265026.53547
  22943780.89547        44.100          27.700  
  24279657.898 5      -686.535 5      -534.96046   2160093.711 5   1685749.09846
  24279651.45746        39.700          19.300  
  23701105.719 6      4216.785 6      3285.80746  -6016822.359 6  -4510381.48446
  23701100.86346        42.600          20.600  
 08  1 16 16 59 45.0000000  0 10G01G02G04G05G09G12G14G17G20G30    0.000046717
  25217976.273 4       705.711 4       549.90445   -192149.078 4   -130703.29345
  25217971.95345        37.900          18.600  
  21306017.688 7      3153.066 7      2456.93548  -5906943.293 7  -4574394.28548
  21306011.57848        49.700          34.400  
  20532751.492 7       386.427 7       301.11248   -426621.938 7   -318891.13748
  20532747.11348        50.600          34.400  
  21971201.781 6      3530.207 6      2750.80947  -6284464.293 6  -4870833.55547
  21971196.83647        45.600          28.300  
  22050472.398 6     -2130.539 6     -1660.15947   5489228.531 6   4269132.89547
  22050468.50047        46.500          30.700  
  21429293.125 7      2709.180 7      2111.05048  -4771801.391 7  -3685871.56648
  21429287.79348        48.700          36.400  
  25263681.406 5      -839.909 5      -654.47445   2658856.070 5   2072964.75445
  25263676.53945        39.400          16.900  
  22950301.883 6     -2282.958 6     -1778.92747   6823867.922 6   5291710.43447
  22950297.33247        44.100          26.900  
  24281633.758 5      -692.651 5      -539.72746   2170483.477 5   1693845.00046
  24281628.78946        39.900          19.900  
  23689068.305 6      4217.308 6      3286.21546  -6080081.980 6  -4559674.70346
  23689062.89146        42.900          20.900  
 08  1 16 17  0  0.0000000  0 10G01G02G04G05G09G12G14G17G20G30    0.000040426
  25215979.461 4       699.502 4       545.06945   -202641.602 4   -138879.32245
  25215975.18445        38.500          17.800  
  21297030.047 7      3148.853 7      2453.65148  -5954176.090 7  -4611199.04748
  21297023.41448        50.000          34.200  
  20531669.055 7       379.125 7       295.42248   -432308.809 7   -323322.46948
  20531664.77748        50.800          34.400  
  21961131.766 6      3527.924 6      2749.03247  -6337383.152 6  -4912069.03147
  21961126.95347        45.500          27.600  
  22056568.164 6     -2135.341 6     -1663.90147   5521258.648 6   4294091.41447
  22056563.48447        46.700          29.600  
  21421569.180 7      2706.089 7      2108.64048  -4812392.719 7  -3717501.17248
  21421563.44148        49.100          35.900  
  25266091.289 5      -844.754 5      -658.25245   2671527.379 5   2082838.53145
  25266087.59445        39.400          16.900  
  22956817.398 6     -2282.558 6     -1778.61747   6858106.297 6   5318389.68447
  22956812.64547        43.200          27.000  
  24283628.641 5      -698.859 5      -544.56746   2180966.355 5   1702013.50046
  24283623.69946        39.500          20.400  
  23677028.164 5      4217.707 5      3286.52546  -6143347.586 5  -4608972.57846
  23677024.13746        41.000          19.900  
 08  1 16 17  0 15.0000000  0 10G01G02G04G05G09G12G14G17G20G30    0.000034105
  25214000.102 4       693.329 4       540.25645   -213041.535 4   -146983.16445
  25213996.19545        38.700          18.300  
  21288053.938 7      3144.664 7      2450.38748  -6001346.051 7  -4647954.85248
  21288047.39848        49.700          34.300  
  20530608.023 7       371.841 7       289.74648   -437886.426 7   -327668.66448
  20530603.27348        50.800          34.600  
  21951067.984 6      3525.652 6      2747.26147  -6390267.934 6  -4953277.94947
  21951063.03547        46.200          27.500  
  22062675.969 6     -2140.078 6     -1667.59347   5553359.824 6   4319105.30547
  22062672.13347        46.900          29.700  
  21413853.797 7      2702.979 7      2106.21848  -4852937.402 7  -3749094.44148
  21413848.40248        49.000          36.900  
  25268517.164 4      -849.555 4                   2684270.703 4
                        38.600  
  22963331.422 6     -2282.118 6     -1778.27347   6892338.074 6   5345063.77347
  22963327.30947        44.200          27.300  
  24285641.594 5      -705.040 5      -549.38046   2191541.953 5   1710254.19946
  24285636.46946        40.100          20.400  
  23664988.484 5      4218.119 5      3286.84746  -6206619.375 5  -4658275.28946
  23664984.04746        41.700          21.100  
 08  1 16 17  0 30.0000000  0 10G01G02G04G05G09G12G14G17G20G30    0.000027760
  25212040.516 4       686.806 4       535.17346   -223343.625 4   -155010.76646
  25212036.19146        38.700          19.900  
  21279090.789 7      3140.114 7      2446.84248  -6048447.762 7  -4684657.47748
  21279084.19548        49.800          34.400  
  20529568.164 7       364.230 7       283.81648   -443349.871 7   -331925.90248
  20529563.54348        50.900          34.600  
  21941012.219 6      3523.017 6      2745.20847  -6443113.188 6  -4994456.06647
  21941006.75847        46.200          28.300  
  22068799.711 6     -2145.143 6     -1671.53947   5585536.965 6   4344178.39147
  22068795.46547        46.500          30.200  
  21406148.141 7      2699.519 7      2103.52148  -4893430.180 7  -3780647.25448
  21406142.39848        49.200          37.000  
  25270955.617 5      -854.686 5                   2697090.988 5
                        39.900  
  22969845.750 6     -2282.020 6     -1778.19747   6926568.375 6   5371736.72347
  22969840.77747        43.700          26.400  
  24287670.820 5      -711.554 5      -554.45846   2202215.258 5   1718571.06646
  24287667.66446        40.500          21.300  
  23652948.141 5      4218.176 5      3286.88746  -6269892.016 5  -4707578.59446
  23652942.98446        41.600          20.600  
 08  1 16 17  0 45.0000000  0 10G01G02G04G05G09G12G14G17G20G30    0.000021387
  25210096.867 4       680.497 4       530.25745   -233551.074 4   -162964.62545
  25210093.96145        38.400          18.300  
  21270139.852 7      3135.755 7      2443.44548  -6095484.094 7  -4721309.15248
  21270133.29748        50.100          34.400  
  20528549.656 7       356.841 7       278.05848   -448702.480 7   -336096.77348
  20528545.35248        50.800          34.800  
  21930963.070 6      3520.574 6      2743.30647  -6495921.805 6  -5035605.65247
  21930957.66847        45.800          28.900  
  22074936.438 6     -2149.968 6     -1675.29947   5617786.484 6   4369307.87947
  22074932.33647        46.000          29.700  
  21398451.875 7      2696.272 7      2100.99148  -4933874.254 7  -3812162.11348
  21398446.64848        49.500          36.800  
  25273410.586 4      -859.583 4                   2709984.727 4
                        39.000  
  22976358.656 6     -2281.705 6     -1777.95347   6960793.953 6   5398406.01247
  22976353.71547        43.800          27.300  
  24289720.844 5      -717.835 5      -559.35146   2212982.789 5   1726961.33646
  24289716.57446        39.200          19.600  
  23640907.023 5      4218.411 5      3287.07646  -6333168.180 5  -4756884.73046
  23640902.37946        40.600          21.100  
 08  1 16 17  1  0.0000000  0 10G01G02G04G05G09G12G14G17G20G30    0.000014992
  25208173.500 5       673.963 5       525.16646   -243660.523 5   -170842.12146
  25208169.85946        39.600          19.600  
  21261202.531 7      3131.149 7      2439.85648  -6142451.332 7  -4757906.99648
  21261196.04748        48.700          34.300  
  20527553.047 7       349.220 7       272.12048   -453940.781 7   -340178.57048
  20527548.31348        50.700          34.400  
  21920921.430 6      3517.876 6      2741.20047  -6548689.949 6  -5076723.65647
  21920916.59847        46.200          27.900  
  22081087.125 6     -2155.001 6     -1679.22147   5650111.500 6   4394496.19947
  22081083.11747        46.000          30.100  
  21390765.570 7      2692.752 7      2098.24848  -4974265.535 7  -3843635.83248
  21390760.07848        48.900          35.900  
  25275879.539 5      -864.686 5                   2722955.023 5
                        39.200  
  22982871.320 6     -2281.606 6     -1777.87447   6995018.039 6   5425074.11747
  22982865.94547        44.000          27.800  
  24291788.305 5      -724.343 5      -564.42246   2223847.930 5   1735427.66446
  24291784.16846        40.100          19.600  
  23628866.438 5      4218.395 5      3287.06046  -6396444.105 5  -4806190.62946
  23628861.66446        41.100          21.800  
 08  1 16 17  1 15.0000000  0 10G01G02G04G05G09G12G14G17G20G30    0.000008570
  25206268.508 4       667.560 4       520.17746   -253673.926 4   -178644.77746
  25206265.32446        38.700          20.100  
  21252277.570 7      3126.670 7      2436.36648  -6189351.379 7  -4794452.48848
  21252270.84848        49.400          34.200  
  20526577.273 7       341.745 7       266.29548   -459066.953 7   -344172.99248
  20526572.87948        50.800          34.600  
  21910886.820 6      3515.296 6      2739.19247  -6601419.395 6  -5117811.53147
  21910881.94547        46.300          27.900  
  22087253.273 6     -2159.881 6     -1683.02347   5682509.711 6   4419741.54347
  22087248.43447        45.800          29.700  
  21383089.367 7      2689.357 7      2095.60348  -5014605.891 7  -3875069.88348
  21383083.45748        48.800          35.600  
  25278361.578 4      -869.647 4                   2735999.730 4
                        38.300  
  22989383.078 6     -2281.370 6     -1777.69047   7029238.582 6   5451739.46547
  22989378.11347        43.900          27.000  
  24293874.180 4      -730.704 4      -569.38146   2234808.496 4   1743968.37546
  24293869.73446        38.800          19.600  
  23616824.750 5      4218.501 5      3287.14546  -6459721.629 5  -4855497.80546
  23616820.52346        40.800          21.500  
 08  1 16 17  1 30.0000000  0 10G01G02G04G05G09G12G14G17G20G30    0.000002121
  25204381.188 5       661.140 5       515.17546   -263591.027 5   -186372.40246
  25204377.70346        39.200          20.600  
  21243365.563 7      3122.154 7      2432.84647  -6236183.688 7  -4830945.18447
  21243358.98447        50.000          33.600  
  20525623.203 7       334.259 7       260.46248   -464080.840 7   -348079.91848
  20525618.78548        51.200          34.600  
  21900860.555 6      3512.680 6      2737.15447  -6654109.594 6  -5158868.83647
  21900855.84847        46.300          27.500  
  22093432.188 6     -2164.739 6     -1686.80947   5714980.801 6   4445043.67647
  22093427.88747        46.400          29.100  
  21375422.219 7      2685.937 7      2092.93848  -5054894.938 7  -3906463.94548
  21375416.85548        48.800          36.600  
  25280857.180 3      -874.599 3                   2749118.719 3
                        36.600  
  22995894.180 6     -2281.132 6     -1777.50547   7063455.555 6   5478402.03947
  22995889.28947        43.900          26.800  
  24295977.195 4      -737.058 4      -574.32946   2245864.371 4   1752583.31346
  24295974.03946        38.300          19.900  
  23604782.992 5      4218.572 5      3287.19646  -6523000.203 5  -4904805.75046
  23604779.03146        40.600          20.900  
 08  1 16 17  1 45.0000000  0 10G01G02G04G05G09G12G14G17G20G30   -0.000004351
  25202512.547 4       654.678 4       510.14246   -273411.199 4   -194024.53146
  25202509.08646        38.600          19.600  
  21234466.820 7      3117.573 7      2429.27848  -6282947.281 7  -4867384.34848
  21234460.03948        49.300          33.900  
  20524690.641 7       326.731 7       254.59648   -468981.809 7   -351898.85948
  20524686.20348        51.000          34.300  
  21890842.125 6      3509.999 6      2735.06447  -6706759.574 6  -5199894.80147
  21890836.83247        46.400          27.800  
  22099624.922 6     -2169.623 6     -1690.61547   5747525.145 6   4470402.90247
  22099620.77347        45.800          29.900  
  21367765.570 7      2682.450 7      2090.22048  -5095131.684 7  -3937817.25448
  21367760.28948        49.000          36.300  
  25283368.148 4      -879.590 4                   2762312.563 4
                        38.400  
  23002404.820 6     -2280.935 6     -1777.35247   7097669.578 6   5505062.31647
  23002400.19147        44.000          27.600  
  24298099.328 4      -743.460 4      -579.32046   2257016.277 4   1761273.10946
  24298095.43446        38.900          19.600  
  23592742.031 5      4218.578 5      3287.20546  -6586278.871 5  -4954113.82446
  23592737.10546        39.500          21.100  
 08  1 16 17  2  0.0000000  0 10G01G02G04G05G09G12G14G17G20G30   -0.000010849
  25200662.039 4       648.202 4       505.09446   -283134.235 4   -201600.94346
  25200659.04346        38.400          19.000  
  21225580.852 7      3112.971 7      2425.69148  -6329641.852 7  -4903769.71948
  21225574.31348        49.500          34.100  
  20523779.617 7       319.204 7       248.73048   -473769.863 7   -355629.81648
  20523774.69548        50.600          34.400  
  21880830.758 6      3507.291 6      2732.95447  -6759368.938 6  -5240889.11347
  21880825.69547        46.300          28.300  
  22105831.844 6     -2174.488 6     -1694.40647   5780142.461 6   4495818.98847
  22105827.10547        45.400          29.800  
  21360118.492 7      2678.949 7      2087.49348  -5135315.918 7  -3969129.64548
  21360113.10948        48.700          35.900  
  25285893.727 4      -884.561 4                   2775580.980 4
                        38.100  
  23008915.125 6     -2280.743 6     -1777.20247   7131880.723 6   5531720.34047
  23008910.52347        43.500          27.200  
  24300240.656 4      -749.857 4      -584.30146   2268264.125 4   1770037.62946
  24300235.73046        38.900          19.300  
  23580700.586 5      4218.558 5      3287.18946  -6649557.246 5  -5003421.65646
  23580695.92246        41.100          21.100  
 08  1 16 17  2 15.0000000  0 10G01G02G04G05G09G12G14G17G20G30   -0.000017370
  25198829.758 3       641.626 3       499.96745   -292758.629 3   -209100.44145
  25198827.73845        36.800          18.300  
  21216708.797 7      3108.241 7      2422.00748  -6376265.473 7  -4940099.81648
  21216702.49248        49.900          33.800  
  20522890.266 7       311.563 7       242.77748   -478443.309 7   -359271.46548
  20522885.97748        51.100          34.500  
  21870827.203 6      3504.441 6      2730.73247  -6811935.547 6  -5281850.09847
  21870822.26247        46.700          26.500  
  22112053.039 6     -2179.441 6     -1698.26447   5812834.070 6   4521292.94547
  22112048.83247        45.700          29.800  
  21352482.602 7      2675.303 7      2084.65248  -5175445.465 7  -4000399.42648
  21352477.39148        49.500          35.900  
  25288431.617 3      -889.635 3                   2788925.504 3
                        36.900  
  23015425.398 6     -2280.656 6     -1777.13447   7166090.563 6   5558377.35247
  23015420.27747        44.700          28.300  
  24302399.484 5      -756.366 5      -589.37446   2279609.621 5   1778878.24646
  24302394.91846        39.900          19.600  
  23568659.133 5      4218.407 5      3287.07146  -6712833.344 5  -5052727.71946
  23568655.24246        40.100          21.700  
 08  1 16 17  2 30.0000000  0 10G01G02G04G05G09G12G14G17G20G30   -0.000023918
  25197016.711 3       635.216 3       494.97345   -302286.863 3   -216525.03145
  25197014.25045        36.400          17.400  
  21207849.992 7      3103.677 7      2418.44948  -6422820.633 7  -4976376.55948
  21207843.36748        50.200          34.300  
  20522022.563 7       304.110 7       236.96948   -483004.957 7   -362826.00448
  20522017.76248        50.800          34.500  
  21860831.695 6      3501.761 6      2728.64647  -6864461.957 6  -5322779.78147
  21860826.87147        46.400          27.900  
  22118287.180 6     -2184.191 6     -1701.96647   5845596.934 6   4546822.43847
  22118283.10247        46.200          29.900  
  21344855.844 7      2671.823 7      2081.93948  -5215522.801 7  -4031628.51648
  21344850.20748        49.100          36.300  
  25290984.875 4      -894.523 4                   2802343.344 4
                        38.000  
  23021934.180 6     -2280.385 6     -1776.92347   7200296.336 6   5585031.19147
  23021929.70347        43.900          27.800  
  24304577.500 5      -762.682 5      -594.29646   2291049.852 5   1787792.68846
  24304571.96146        40.500          19.600  
  23556618.156 5      4218.419 5      3287.07946  -6776109.629 5  -5102033.90646
  23556614.07446        40.400          22.600  
 08  1 16 17  2 45.0000000  0 10G01G02G04G05G09G12G14G17G20G30   -0.000030489
  25195222.859 3       628.708 3       489.90245   -311717.484 3   -223873.55545
  25195219.44145        36.700          18.300  
  21199004.008 7      3098.989 7      2414.79648  -6469305.473 7  -5012598.50048
  21198997.39548        50.200          34.100  
  20521175.797 7       296.565 7       231.09048   -487453.430 7   -366292.35548
  20521171.19548        50.500          34.300  
  21850845.375 6      3498.949 6      2726.45447  -6916946.195 6  -5363676.59447
  21850839.18847        46.300          27.600  
  22124535.313 6     -2189.020 6     -1705.72947   5878432.234 6   4572408.37147
  22124531.32447        45.600          28.600  
  21337239.297 7      2668.234 7      2079.14448  -5255546.316 7  -4062815.66848
  21337234.34048        48.400          36.500  
  25293552.883 3      -899.491 3                   2815835.707 3
                        37.000  
  23028442.867 6     -2280.200 6     -1776.77847   7234499.344 6   5611682.85547
  23028438.47747        44.300          27.500  
  24306772.570 5      -769.077 5      -599.28346   2302586.008 5   1796781.92646
  24306766.46146        41.000          19.000  
  23544578.133 5      4218.302 5      3286.98846  -6839384.160 5  -5151338.72746
  23544573.46946        39.700          22.200  
 08  1 16 17  3  0.0000000  0 10G01G02G04G05G09G12G14G17G20G30   -0.000037083
  25193447.531 4       621.972 4       484.65346   -321047.059 4   -231143.34446
  25193444.39846        37.900          19.600  
  21190172.070 7      3094.052 7      2410.95048  -6515716.262 7  -5048762.74648
  21190165.57848        50.700          34.200  
  20520351.094 7       288.791 7       225.03248   -491785.293 7   -369667.83648
  20520346.98448        50.800          34.400  
  21840866.609 6      3495.883 6      2724.06547  -6969384.438 6  -5404537.56647
  21840860.79747        47.200          27.500  
  22130798.570 6     -2194.051 6     -1709.64947   5911343.000 6   4598053.10947
  22130794.61347        45.100          29.700  
  21329634.391 7      2664.378 7      2076.13948  -5295511.992 7  -4093957.75448
  21329628.92648        48.400          36.400  
  25296135.164 4      -904.668 4                   2829405.730 4
                        37.800  
  23034951.359 5     -2280.245 5     -1776.81447   7268703.020 5   5638335.05947
  23034946.80147        42.000          27.500  
  24308986.883 5      -775.715 5      -604.45446   2314221.734 5   1805848.74246
  24308981.03546        40.200          19.900  
  23532537.820 5      4217.923 5      3286.69446  -6902653.004 5  -5200639.13746
  23532533.72346        41.100          21.300  
 08  1 16 17  3 15.0000000  0 10G01G02G04G05G09G12G14G17G20G30   -0.000043701
  25191690.922 4       615.283 4       479.44345   -330276.301 4   -238334.98845
  25191687.73045        38.400          18.300  
  21181354.938 7      3089.136 7      2407.11948  -6562053.305 7  -5084869.53148
  21181348.10248        49.800          34.300  
  20519549.055 7       281.068 7       219.01548   -496001.316 7   -372953.05548
  20519544.69548        50.700          34.200  
  21830895.992 6      3492.842 6      2721.69547  -7021777.070 6  -5445362.98847
  21830890.75447        46.800          28.800  
  22137075.531 6     -2199.016 6     -1713.51847   5944328.242 6   4623755.88747
  22137071.17247        45.900          28.900  
  21322040.266 7      2660.562 7      2073.16548  -5335420.418 7  -4125055.23048
  21322034.64548        48.600          36.100  
  25298732.516 3      -909.783 3                   2843052.469 3
                        37.000  
  23041460.609 6     -2280.234 6     -1776.80547   7302906.523 6   5664987.12947
  23041455.36347        44.300          27.700  
  24311219.617 5      -782.274 5      -609.56546   2325955.848 5   1814992.22346
  24311213.75046        40.400          19.300  
  23520498.961 4      4217.580 4      3286.42646  -6965916.707 4  -5249935.53146
  23520494.48046        39.000          21.800  
 08  1 16 17  3 30.0000000  0 10G01G02G04G05G09G12G14G17G20G30   -0.000050341
  25189954.336 4       608.587 4       474.22545   -339405.102 4   -245448.35945
  25189950.26245        38.600          18.600  
  21172551.266 7      3084.209 7      2403.28048  -6608316.445 7  -5120918.72748
  21172544.40648        50.200          34.300  
  20518768.836 7       273.342 7       212.99348   -500101.441 7   -376147.95748
  20518764.21148        50.400          34.200  
  21820935.008 6      3489.778 6      2719.30847  -7074123.742 6  -5486152.60547
  21820929.42247        47.100          29.000  
  22143366.445 6     -2203.960 6     -1717.37147   5977387.645 6   4649516.44947
  22143362.19147        45.600          29.900  
  21314456.891 7      2656.717 7      2070.16848  -5375271.168 7  -4156107.75448
  21314451.32048        48.500          36.900  
  25301343.641 4      -914.881 4                   2856775.684 4
                        37.700  
  23047969.406 5     -2280.219 5     -1776.79447   7337109.813 5   5691639.03547
  23047964.19547        42.200          27.000  
  24313470.391 4      -788.840 4      -614.68146   2337788.441 4   1824212.44146
  24313465.62546        38.800          19.900  
  23508461.617 5      4217.216 5      3286.14346  -7029174.949 5  -5299227.67646
  23508457.00846        40.800          22.000  
 08  1 16 17  3 45.0000000  0 10G01G02G04G05G09G12G14G17G20G30   -0.000057003
  25188236.180 4       601.924 4       469.03346   -348433.961 4   -252483.85546
  25188232.27346        38.300          19.300  
  21163761.531 7      3079.284 7      2399.44148  -6654505.699 7  -5156910.34848
  21163754.78948        50.000          34.500  
  20518010.250 7       265.658 7       207.00648   -504086.309 7   -379253.05148
  20518006.38748        50.700          34.700  
  21810981.852 6      3486.725 6      2716.92847  -7126424.621 6  -5526906.53147
  21810976.68447        47.200          27.600  
  22149671.625 6     -2208.858 6     -1721.18647   6010520.508 6   4675334.24647
  22149667.39847        45.600          30.200  
  21306884.031 7      2652.883 7      2067.18148  -5415064.410 7  -4187115.47348
  21306879.01648        48.200          36.600  
  25303969.797 3      -919.950 3                   2870574.930 3
                        36.500  
  23054477.461 6     -2280.168 6     -1776.75347   7371312.340 6   5718290.33247
  23054472.92647        43.700          27.700  
  24315739.938 5      -795.362 5      -619.76246   2349718.871 5   1833508.87546
  24315735.89146        39.900          19.900  
  23496425.328 5      4216.854 5      3285.86146  -7092427.762 5  -5348515.59446
  23496420.89546        40.500          24.200  
 08  1 16 17  4  0.0000000  0 10G01G02G04G05G09G12G14G17G20G30   -0.000063686
  25186538.672 4       595.115 4       463.72446   -357360.691 4   -259439.71546
  25186533.41046        38.900          19.600  
  21154986.555 7      3074.213 7      2395.49048  -6700618.898 7  -5192842.69948
  21154979.91048        50.800          34.000  
  20517274.680 7       257.829 7       200.90648   -507953.742 7   -382266.64548
  20517270.59448        50.300          34.200  
  21801039.477 6      3483.497 6      2714.41447  -7178677.070 6  -5567622.73847
  21801033.41047        46.800          28.000  
  22155991.156 6     -2213.865 6     -1725.09047   6043728.488 6   4701210.59047
  22155986.95347        47.000          29.800  
  21299323.719 7      2648.884 7      2064.06548  -5454797.668 7  -4218076.44948
  21299317.84448        48.300          36.100  
  25306609.789 4      -925.148 4                   2884452.148 4
                        37.500  
  23060986.789 6     -2280.254 6     -1776.82047   7405516.156 6   5744942.63347
  23060981.98047        43.900          29.100  
  24318030.742 5      -802.026 5      -624.95546   2361749.258 5   1842883.20746
  24318025.16446        41.600          19.900  
  23484390.047 5      4216.329 5      3285.45146  -7155672.688 5  -5397797.36346
  23484385.35546        41.400          22.300  
 08  1 16 17  4 15.0000000  0 10G01G02G04G05G09G12G14G17G20G30   -0.000070395
  25184858.133 4       588.406 4       458.49846   -366186.781 4   -266317.19146
  25184854.15246        38.200          19.000  
  21146225.469 7      3069.222 7      2391.60247  -6746657.234 7  -5228716.72347
  21146218.96147        49.800          33.400  
  20516560.633 7       250.103 7       194.88648   -511705.293 7   -385189.93448
  20516556.37548        50.500          34.500  
  21791104.477 6      3480.348 6      2711.95847  -7230882.297 6  -5608302.11747
  21791099.31347        47.500          28.600  
  22162323.867 6     -2218.756 6     -1728.90047   6077009.824 6   4727144.09047
  22162319.57047        46.100          29.300  
  21291773.305 7      2644.969 7      2061.01548  -5494472.199 7  -4248991.68048
  21291768.35548        48.300          36.500  
  25309265.898 3      -930.225 3                   2898405.520 3
                        36.700  
  23067495.242 6     -2280.246 6     -1776.81447   7439719.852 6   5771594.83647
  23067490.51247        43.900          28.300  
  24320339.266 5      -808.586 5      -630.06546   2373878.047 5   1852334.18846
  24320333.59046        40.700          19.600  
  23472356.578 5      4215.866 5      3285.08946  -7218910.680 5  -5447073.70346
  23472351.90646        41.800          22.300  
 08  1 16 17  4 30.0000000  0 10G01G02G04G05G09G12G14G17G20G30   -0.000077124
  25183197.891 3       581.723 3       453.29345   -374912.621 3   -273116.59045
  25183193.73845        36.800          17.400  
  21137479.516 7      3064.241 7      2387.72047  -6792620.852 7  -5264532.52747
  21137472.12547        50.300          33.700  
  20515869.086 7       242.416 7       188.89648   -515341.527 7   -388023.37148
  20515864.72748        51.400          34.600  
  21781179.422 6      3477.206 6      2709.51147  -7283040.383 6  -5648944.78547
  21781174.18447        46.900          28.100  
  22168671.031 6     -2223.593 6     -1732.66947   6110363.715 6   4753134.12147
  22168666.60947        46.200          30.400  
  21284234.914 7      2641.074 7      2057.97948  -5534088.313 7  -4279861.37148
  21284229.51648        48.700          36.000  
  25311933.906 4      -935.254 4                   2912434.324 4
                        37.800  
  23074004.148 6     -2280.196 6     -1776.77647   7473922.789 6   5798246.46947
  23073999.06647        44.300          28.300  
  24322664.852 5      -815.092 5      -635.13445   2386104.434 5   1861861.19145
  24322660.61745        39.700          18.600  
  23460323.820 5      4215.427 5      3284.74946  -7282142.082 5  -5496344.93046
  23460319.33646        41.300          22.600  
 08  1 16 17  4 45.0000000  0 10G01G02G04G05G09G12G14G17G20G30   -0.000083876
  25181555.391 4       575.094 4       448.12645   -383539.031 4   -279838.47745
  25181552.50445        37.700          18.300  
  21128746.969 7      3059.288 7      2383.86147  -6838510.176 7  -5300290.44147
  21128739.62547        50.400          33.100  
  20515198.727 7       234.779 7       182.94548   -518863.215 7   -390767.54348
  20515194.10548        50.500          34.400  
  21771263.750 6      3474.094 6      2707.08647  -7335151.801 6  -5689551.08247
  21771257.29347        47.500          28.300  
  22175032.023 6     -2228.354 6     -1736.37947   6143789.027 6   4779179.81347
  22175027.67247        46.100          29.400  
  21276707.172 7      2637.206 7      2054.96648  -5573646.395 7  -4310685.85948
  21276701.70348        48.500          36.600  
  25314619.656 4      -940.227 4                   2926537.730 4
                        38.300  
  23080512.156 6     -2280.086 6     -1776.68947   7508124.082 6   5824896.80947
  23080507.84847        44.100          27.900  
  24325010.750 4      -821.562 4      -640.17645   2398427.863 4   1871463.82845
  24325005.21945        37.900          18.600  
  23448292.969 5      4215.017 5      3284.42746  -7345367.336 5  -5545611.34046
  23448287.46946        42.100          21.800  
 08  1 16 17  5  0.0000000  0 10G01G02G04G05G09G12G14G17G20G30   -0.000090651
  25179934.016 4       568.304 4       442.83445   -392063.594 4   -286480.98445
  25179929.79345        38.300          17.800  
  21120028.633 7      3054.167 7      2379.87047  -6884322.676 7  -5335988.48847
  21120022.18047        50.200          33.200  
  20514550.773 7       227.000 7       176.88348   -522268.215 7   -393420.78948
  20514546.17248        50.200          34.100  
  21761355.461 6      3470.806 6      2704.52447  -7387213.887 6  -5730118.94547
  21761350.37147        47.500          28.600  
  22181406.117 6     -2233.250 6     -1740.19547   6177287.785 6   4805282.73847
  22181401.66047        46.500          29.900  
  21269191.203 7      2633.160 7      2051.81348  -5613143.797 7  -4341463.05148
  21269185.64148        48.800          36.400  
  25317317.172 4      -945.318 4                   2940717.500 4
                        38.700  
  23087020.320 6     -2280.125 6     -1776.71947   7542325.949 6   5851547.59047
  23087016.15647        44.500          28.100  
  24327373.602 5      -828.141 5      -645.30546   2410849.980 5   1881143.41046
  24327369.14846        39.200          19.600  
  23436262.586 6      4214.420 6      3283.96646  -7408583.641 6  -5594870.82446
  23436258.00846        43.200          22.000  
 08  1 16 17  5 15.0000000  0 10G01G02G04G05G09G12G14G17G20G30   -0.000097448
  25178331.422 4       561.563 4       437.58345   -400487.043 4   -293044.73045
  25178326.20345        37.600          17.800  
  21111325.656 7      3049.067 7      2375.89748  -6930058.680 7  -5371626.93848
  21111319.00848        50.300          33.900  
  20513924.961 7       219.268 7       170.85948   -525557.234 7   -395983.66848
  20513920.53948        50.500          34.300  
  21751458.305 6      3467.542 6      2701.98047  -7439227.012 6  -5770648.64547
  21751452.37547        47.500          28.100  
  22187794.266 6     -2238.073 6     -1743.95247   6210858.875 6   4831442.02047
  22187790.32447        46.400          30.000  
  21261686.320 7      2629.144 7      2048.68448  -5652580.961 7  -4372193.31348
  21261680.84048        49.200          36.700  
  25320029.758 5      -950.360 5                   2954972.906 5
                        39.200  
  23093528.828 6     -2280.110 6     -1776.70947   7576527.602 6   5878198.22347
  23093524.18047        43.600          28.400  
  24329756.484 5      -834.680 5      -650.39646   2423370.176 5   1890899.34846
  24329751.69946        40.700          19.600  
  23424235.125 6      4213.851 6      3283.52246  -7471791.406 6  -5644123.66046
  23424230.00846        43.000          22.200  
 08  1 16 17  5 30.0000000  0 10G01G02G04G05G09G12G14G17G20G30   -0.000104265
  25176747.094 4       554.731 4       432.25646   -408808.012 4   -299528.57446
  25176743.56346        38.000          19.000  
  21102637.172 7      3043.855 7      2371.83647  -6975716.512 7  -5407204.47347
  21102630.18047        50.000          33.400  
  20513321.102 7       211.446 7       164.76248   -528728.918 7   -398455.10248
  20513316.90648        50.400          34.000  
  21741570.070 6      3464.161 6      2699.34747  -7491189.426 6  -5811138.84847
  21741564.26247        47.400          28.600  
  22194197.109 6     -2242.968 6     -1747.76747   6244503.398 6   4857658.52347
  22194192.66047        46.100          29.800  
  21254193.703 7      2625.006 7      2045.45948  -5691956.055 7  -4402875.20348
  21254188.34848        49.100          37.100  
  25322756.227 2      -955.478 2                   2969305.078 2
                        35.300  
  23100037.750 6     -2280.188 6     -1776.76947   7610730.418 6   5904849.75447
  23100032.85547        44.900          28.700  
  24332156.352 5      -841.310 5      -655.56646   2435989.832 5   1900732.84446
  24332153.07446        40.300          19.600  
  23412208.516 6      4213.177 6      3282.99346  -7534989.066 6  -5693368.55546
  23412203.60946        43.200          22.300  
 08  1 16 17  5 45.0000000  0 10G01G02G04G05G09G12G14G17G20G30   -0.000111105
  25175183.633 3       547.927 3       426.95745   -417026.910 3   -305932.93445
  25175179.73845        36.900          18.600  
  21093963.805 7      3038.670 7      2367.79447  -7021296.563 7  -5442721.38747
  21093956.58647        49.900          33.500  
  20512739.563 7       203.665 7       158.70048   -531783.887 7   -400835.60548
  20512735.14848        50.100          34.200  
  21731691.359 6      3460.790 6      2696.71947  -7543101.273 6  -5851589.64147
  21731686.14547        47.100          28.700  
  22200613.227 6     -2247.796 6     -1751.52847   6278220.336 6   4883931.44947
  22200609.12547        46.300          29.400  
  21246712.820 7      2620.897 7      2042.25748  -5731269.512 7  -4433509.06348
  21246707.60548        49.100          36.800  
  25325499.734 3      -960.551 3                   2983713.340 3
                        37.100  
  23106546.148 6     -2280.232 6     -1776.80347   7644933.898 6   5931501.80547
  23106541.69947        45.000          28.900  
  24334578.414 5      -847.887 5      -660.68646   2448708.137 5   1910643.14146
  24334573.68846        41.500          19.000  
  23400183.961 6      4212.514 6      3282.47846  -7598176.770 6  -5742605.72746
  23400179.19946        43.000          22.200  
 08  1 16 17  6  0.0000000  0 10G01G02G04G05G09G12G14G17G20G30   -0.000117964
  25173639.133 4       541.003 4       421.55946   -425141.961 4   -312256.31646
  25173635.50046        38.100          19.300  
  21085305.727 7      3033.344 7      2363.64547  -7066796.715 7  -5478176.06347
  21085298.73047        50.000          33.600  
  20512180.992 7       195.766 7       152.54548   -534720.375 7   -403123.77748
  20512176.80948        50.100          34.200  
  21721823.109 7      3457.275 7      2693.98047  -7594960.402 7  -5891999.34447
  21721817.53947        47.800          28.500  
  22207043.250 6     -2252.735 6     -1755.37747   6312011.359 6   4910262.10947
  22207039.08647        46.200          30.200  
  21239243.641 7      2616.645 7      2038.94448  -5770519.180 7  -4464093.22748
  21239238.08648        49.300          36.700  
  25328255.836 4      -965.728 4                   2998199.254 4
                        38.100  
  23113055.797 6     -2280.383 6     -1776.92147   7679139.637 6   5958155.61347
  23113051.27347        45.600          28.900  
  24337017.563 4      -854.584 4      -665.90946   2461526.891 4   1920631.77046
  24337012.85246        37.600          19.000  
  23388162.266 6      4211.698 6      3281.84346  -7661352.242 6  -5791833.36746
  23388157.51246        43.200          22.300  
 08  1 16 17  6 15.0000000  0 10G01G02G04G05G09G12G14G17G20G30   -0.000124846
  25172114.188 4       534.190 4       416.25345   -433154.809 4   -318500.10945
  25172110.14145        37.500          18.300  
  21076661.992 7      3028.105 7      2359.56247  -7112218.297 7  -5513569.49647
  21076655.43847        49.500          33.000  
  20511644.211 7       187.972 7       146.47148   -537539.953 7   -405320.84848
  20511639.68448        51.000          34.300  
  21711964.461 6      3453.841 6      2691.30447  -7646768.023 6  -5932368.90647
  21711958.83647        47.400          29.600  
  22213487.117 6     -2257.539 6     -1759.12147   6345874.445 6   4936648.92647
  22213482.73847        46.000          30.400  
  21231786.477 7      2612.473 7      2035.69348  -5809706.281 7  -4494628.62948
  21231780.66848        49.000          36.400  
  25331027.141 4      -970.786 4                   3012761.051 4   2093127.66456
  25331023.56646        38.000          19.600  
  23119564.766 6     -2280.427 6     -1776.95447   7713346.035 6   5984809.93047
  23119560.30147        45.800          29.100  
  24339475.414 5      -861.155 5      -671.03046   2474444.219 5   1930697.21946
  24339471.17246        39.600          20.100  
  23376142.273 6      4210.966 6      3281.27246  -7724516.738 6  -5841052.44146
  23376137.68046        43.000          22.300  
 08  1 16 17  6 30.0000000  0 10G01G02G04G05G09G12G14G17G20G30   -0.000131748
  25170608.875 4       527.505 4       411.04645   -441067.379 4   -324665.80145
  25170603.87545        38.100          18.300  
  21068033.078 7      3022.984 7      2355.57247  -7157563.051 7  -5548903.07047
  21068025.80547        49.600          33.300  
  20511129.836 7       180.327 7       140.51548   -540244.863 7   -407428.57448
  20511125.31648        50.700          34.100  
  21702115.313 6      3450.522 6      2688.71947  -7698525.852 6  -5972699.69147
  21702110.01247        47.000          28.900  
  22219944.766 6     -2262.187 6     -1762.74247   6379807.242 6   4963090.05547
  22219940.24647        46.000          30.500  
  21224341.180 7      2608.423 7      2032.53748  -5848832.625 7  -4525116.68848
  21224335.82048        49.300          36.300  
  25333811.781 4      -975.691 4      -760.27655   3027396.418 4   2104531.80945
  25333808.03945        38.100          16.900  
  23126073.891 6     -2280.327 6     -1776.87747   7747550.934 6   6011463.08647
  23126069.52747        45.700          29.100  
  24341952.273 5      -867.591 5      -676.04046   2487458.078 5   1940837.81346
  24341947.11746        39.700          19.300  
  23364123.930 6      4210.348 6      3280.79246  -7787671.957 6  -5890264.31346
  23364119.44146        42.800          22.900  
 08  1 16 17  6 45.0000000  0  9G01G02G04G05G09G12G17G20G30   -0.000138672
  25169122.469 3       520.559 3       405.63245   -448875.766 3   -330750.28545
  25169118.36745        37.300          17.400  
  21059419.641 7      3017.577 7      2351.35947  -7202826.703 7  -5584173.46147
  21059412.90247        49.800          33.400  
  20510637.773 7                                   -542831.207 7   -409443.91047
  20510633.30147        50.200          33.700  
  21692275.969 6      3446.913 6      2685.90647  -7750229.551 6  -6012988.28947
  21692270.81347        47.500          28.600  
  22226416.023 6     -2267.073 6     -1766.55047   6413813.340 6   4989588.30147
  22226411.11747        46.400          30.800  
  21216907.977 7                                  -5887893.996 7  -4555554.12548
  21216902.35548        48.600          36.100  
  23132583.641 6     -2280.485 6     -1777.00147   7781758.207 6   6038118.09847
  23132578.90647        45.500          28.900  
  24344448.258 5                                   2500572.406 5   1951056.77046
  24344442.96146        40.000          19.600  
  23352108.828 6      4209.453 6      3280.09446  -7850813.754 6  -5939465.72346
  23352103.83246        43.000          22.500  
 08  1 16 17  7  0.0000000  0  9G01G02G04G05G09G12G17G20G30   -0.000145617
  25167657.633 4       513.720 4       400.29645   -456581.570 4   -336754.72745
  25167651.50445        37.800          18.300  
  21050821.508 7      3012.277 7      2347.22848  -7248010.855 7  -5619381.88748
  21050814.84848        49.800          34.000  
  20510167.406 7       164.622 7       128.27748   -545300.543 7   -411368.06348
  20510163.06648        50.200          33.900  
  21682447.680 7      3443.394 7      2683.16447  -7801880.465 7  -6053235.75447
  21682441.97747        47.800          29.700  
  22232900.164 6     -2271.831 6     -1770.25847   6447890.805 6   5016142.16447
  22232895.57447        45.800          29.900  
  21209486.766 7      2599.838 7      2025.84848  -5926891.563 7  -4585941.84048
  21209481.48848        48.500          36.500  
  23139092.969 6     -2280.536 6     -1777.04047   7815966.242 6   6064773.69947
  23139088.33247        45.000          27.800  
  24346963.438 4      -880.864 4      -686.38745   2513785.371 4   1961352.57045
  24346957.60245        38.300          18.600  
  23340095.523 5      4208.637 5      3279.45646  -7913943.313 5  -5988657.56346
  23340090.84846        42.200          22.800  
 08  1 16 17  7 15.0000000  0  9G01G02G04G05G09G12G17G20G30   -0.000152582
  25166209.867 4       506.808 4       394.92045   -464183.691 4   -342678.52745
  25166205.45345        37.900          16.300  
  21042238.313 7      3006.870 7      2343.01647  -7293113.902 7  -5654527.12147
  21042231.68847        49.300          33.400  
  20509720.133 7       156.760 7       122.15148   -547651.945 7   -413200.32848
  20509715.85548        50.200          33.900  
  21672628.875 6      3439.767 6      2680.33947  -7853476.965 6  -6093440.84047
  21672623.67647        47.300          30.500  
  22239399.086 6     -2276.637 6     -1774.00347   6482040.359 6   5042752.21147
  22239394.40647        46.000          30.000  
  21202078.586 7      2595.488 7      2022.45848  -5965823.887 7  -4616278.71548
  21202072.71548        48.600          35.900  
  23145602.953 6     -2280.651 6     -1777.13047   7850176.004 6   6091430.65247
  23145598.52047        44.900          27.900  
  24349495.734 4      -887.496 4      -691.55345   2527097.805 4   1971725.86745
  24349491.17245        38.500          17.800  
  23328084.945 6      4207.705 6      3278.73246  -7977058.891 6  -6037838.53946
  23328080.32046        43.200          22.800  
 08  1 16 17  7 30.0000000  0  9G01G02G04G05G09G12G17G20G30   -0.000159569
  25164782.969 4       500.203 4       389.76745   -471686.738 4   -348525.03145
  25164777.70745        38.300          18.600  
  21033670.250 7      3001.746 7      2339.02347  -7338140.094 7  -5689612.46947
  21033663.43047        49.900          33.500  
  20509294.281 7       149.209 7       116.26747   -549890.086 7   -414944.33647
  20509289.98847        50.200          33.500  
  21662820.117 6      3436.437 6      2677.74247  -7905023.512 6  -6133606.96547
  21662814.48047        47.300          29.400  
  22245909.844 6     -2281.109 6     -1777.48747   6516257.000 6   5069414.52047
  22245905.64147        45.800          30.400  
  21194681.219 7      2591.440 7      2019.30448  -6004695.488 7  -4646568.27348
  21194675.99248        49.200          36.800  
  23152111.648 6     -2280.457 6     -1776.97947   7884382.859 6   6118085.33647
  23152107.80147        45.400          28.700  
  24352046.477 4      -893.818 4      -696.48146   2540505.082 4   1982173.08646
  24352042.40646        38.100          19.000  
  23316077.086 6      4207.087 6      3278.24946  -8040165.199 6  -6087012.27746
  23316071.60546        43.900          22.800  
 08  1 16 17  7 45.0000000  0  9G01G02G04G05G09G12G17G20G30   -0.000166580
  25163373.914 4       493.610 4       384.63245   -479090.895 4   -354294.50845
  25163368.84445        38.700          18.300  
  21025116.766 7      2996.621 7      2335.02948  -7383089.406 7  -5724637.90648
  21025110.32848        49.200          33.800  
  20508889.805 7       141.673 7       110.39447   -552015.180 7   -416600.24647
  20508885.21547        50.000          33.600  
  21653020.961 6      3433.084 6      2675.13147  -7956519.770 6  -6173733.93447
  21653015.68047        47.100          27.300  
  22252433.445 6     -2285.554 6     -1780.95047   6550540.309 6   5096128.77047
  22252430.02047        45.600          29.700  
  21187295.953 7      2587.377 7      2016.13848  -6043506.148 7  -4676810.34448
  21187290.65248        49.300          36.400  
  23158620.750 6     -2280.246 6     -1776.81447   7918586.551 6   6144737.55147
  23158616.40647        44.200          28.100  
  24354616.078 3      -900.118 3      -701.39045   2554006.848 3   1992693.94145
  24354611.57845        36.700          17.800  
  23304070.055 5      4206.443 5      3277.74946  -8103261.848 5  -6136178.51246
  23304065.03146        41.800          22.900  
 08  1 16 17  8  0.0000000  0  9G01G02G04G05G09G12G17G20G30   -0.000173613
  25161984.125 4       486.683 4       379.23145   -486391.145 4   -359982.97745
  25161979.75445        38.900          16.900  
  21016578.711 7      2991.140 7      2330.75847  -7427956.500 7  -5759599.28147
  21016571.95747        49.800          33.300  
  20508507.945 7       133.812 7       104.26947   -554022.363 7   -418164.28147
  20508503.75447        50.200          33.200  
  21643231.938 7      3429.376 7      2672.24147  -8007960.418 7  -6213817.54747
  21643226.56347        47.600          29.700  
  22258970.875 6     -2290.306 6     -1784.65347   6584894.902 6   5122898.56347
  22258967.04347        45.900          29.400  
  21179923.141 7      2582.965 7      2012.70148  -6082250.629 7  -4707000.85548
  21179917.94948        49.600          36.600  
  23165129.922 6     -2280.355 6     -1776.89947   7952791.875 6   6171391.03147
  23165125.50847        45.100          28.200  
  24357204.109 4      -906.741 4      -706.55345   2567607.961 4   2003292.24245
  24357199.80545        38.100          17.800  
  23292064.555 5      4205.442 5      3276.96846  -8166343.480 5  -6185333.02746
  23292060.85246        42.400          24.400  
 08  1 16 17  8 15.0000000  0  9G01G02G04G05G09G12G17G20G30   -0.000180668
  25160613.508 4       480.255 4       374.22445   -493594.969 4   -365596.34445
  25160608.70745        38.900          17.400  
  21008055.320 7      2986.142 7      2326.86447  -7472748.625 7  -5794502.24647
  21008048.62947        49.400          33.600  
  20508146.836 7       126.452 7        98.53447   -555919.141 7   -419642.28947
  20508142.39147        50.300          33.500  
  21633452.391 6      3426.145 6      2669.72347  -8059352.586 6  -6253863.39847
  21633446.95747        46.300          29.700  
  22265520.914 6     -2294.538 6     -1787.95247   6619312.969 6   5149717.83647
  22265516.90647        45.500          29.300  
  21172561.445 7      2579.027 7      2009.63148  -6120936.035 7  -4737145.32848
  21172556.12948        49.600          36.200  
  23171637.969 6     -2279.976 6     -1776.60447   7986991.508 6   6198040.09047
  23171633.14847        44.900          28.400  
  24359810.109 4      -912.847 4      -711.30846   2581300.660 4   2013961.86346
  24359805.90646        38.200          19.600  
  23280063.484 6      4204.916 6      3276.55846  -8229417.223 6  -6234481.39846
  23280058.62146        43.200          22.900  
 08  1 16 17  8 30.0000000  0  9G01G02G04G05G09G12G17G20G30   -0.000187744
  25159261.797 4       473.512 4       368.97246   -500697.652 4   -371130.92246
  25159257.10246        38.900          19.300  
  20999546.891 7      2980.816 7      2322.71348  -7517460.859 7  -5829342.94548
  20999540.18848        49.900          33.800  
  20507807.680 7       118.783 7        92.55848   -557700.879 7   -421030.65648
  20507803.52048        49.500          33.800  
  21623683.156 6      3422.582 6      2666.94747  -8110691.320 6  -6293867.60247
  21623677.67647        46.700          28.900  
  22272083.367 6     -2299.056 6     -1791.47247   6653798.809 6   5176589.91047
  22272079.33647        44.900          30.400  
  21165212.148 7      2574.758 7      2006.30548  -6159557.398 7  -4767239.89848
  21165206.92648        49.600          37.300  
  23178145.734 6     -2279.898 6     -1776.54347   8021189.984 6   6224688.23847
  23178140.99247        45.100          28.200  
  24362432.664 5      -919.266 5      -716.30845   2595089.648 5   2024706.48445
  24362429.30545        39.300          17.400  
  23268063.883 5      4204.054 5      3275.88546  -8292478.039 5  -6283619.68046
  23268058.65246        42.200          24.000  
 08  1 16 17  8 45.0000000  0  9G01G02G04G05G09G12G17G20G30   -0.000194845
  25157928.906 5       466.881 5       363.80446   -507700.871 5   -376587.98446
  25157924.19546        40.100          20.900  
  20991053.195 7      2975.591 7      2318.64348  -7562094.727 7  -5864122.59048
  20991046.28148        49.900          34.100  
  20507490.297 7       111.239 7        86.68048   -559369.461 7   -422330.85248
  20507486.11348        49.700          34.200  
  21613922.930 6      3419.101 6      2664.23547  -8161977.840 6  -6333831.13347
  21613918.30147        47.300          28.200  
  22278658.297 6     -2303.437 6     -1794.88547   6688350.363 6   5203513.18447
  22278654.30547        44.300          30.000  
  21157875.078 7      2570.580 7      2003.04948  -6198116.094 7  -4797285.63748
  21157869.41448        49.100          37.000  
  23184652.961 6     -2279.704 6     -1776.39147   8055385.547 6   6251334.10547
  23184647.88747        44.500          27.700  
  24365075.750 5      -925.562 5      -721.21845   2608973.082 5   2035524.75445
  24365070.89145        39.200          18.300  
  23256065.273 6      4203.290 6      3275.29246  -8355527.383 6  -6332749.05146
  23256060.68446        43.000          24.300  
 08  1 16 17  9  0.0000000  0  9G01G02G04G05G09G12G17G20G30   -0.000201967
  25156616.266 5       460.143 5       358.55546   -514603.020 5   -381966.30546
  25156611.12946        40.100          20.600  
  20982574.523 7      2970.219 7      2314.45648  -7606648.004 7  -5898839.42248
  20982568.05148        49.900          34.200  
  20507194.641 7       103.573 7        80.70747   -560923.063 7   -423541.44947
  20507190.57447        50.200          33.700  
  21604174.289 6      3415.487 6      2661.41847  -8213210.148 6  -6373752.41047
  21604168.80147        47.200          28.900  
  22285246.102 6     -2307.910 6     -1798.37147   6722969.020 6   5230488.74647
  22285242.18047        44.500          29.900  
  21150549.617 7      2566.273 7      1999.69348  -6236610.195 7  -4827281.03548
  21150544.30548        49.800          36.900  
  23191159.797 6     -2279.610 6     -1776.31847   8089579.691 6   6277978.87547
  23191155.54747        44.100          27.200  
  24367736.531 5      -931.971 5      -726.20846   2622952.641 5   2046417.87146
  24367732.03146        39.400          19.900  
  23244070.031 6      4202.380 6      3274.58246  -8418563.082 6  -6381867.78546
  23244065.37546        43.600          24.700  
 08  1 16 17  9 15.0000000  0  9G01G02G04G05G09G12G17G20G30   -0.000209112
  25155322.125 4       453.606 4       353.46246   -521407.113 4   -387268.24246
  25155316.43446        39.100          19.900  
  20974111.703 7      2965.044 7      2310.42548  -7651123.664 7  -5933495.79348
  20974104.76248        50.000          34.100  
  20506919.977 7        96.129 7        74.90548   -562364.996 7   -424665.02348
  20506915.70748        49.800          33.900  
  21594434.508 6      3412.056 6      2658.74447  -8264390.988 6  -6413633.57447
  21594429.60947        46.900          29.600  
  22291846.102 6     -2312.163 6     -1801.68547   6757651.465 6   5257514.02747
  22291842.14147        44.100          29.900  
  21143236.234 7      2562.155 7      1996.48448  -6275042.512 7  -4857228.29348
  21143230.45748        50.100          37.300  
  23197665.492 6     -2279.318 6     -1776.09147   8123769.457 6   6304620.24247
  23197661.38747        44.200          28.300  
  24370413.617 4      -938.144 4      -731.02046   2637024.797 4   2057383.16446
  24370409.40646        38.600          19.600  
  23232076.656 6      4201.649 6      3274.01246  -8481587.816 6  -6430977.97346
  23232072.60546        43.400          24.200  
 08  1 16 17  9 30.0000000  0  9G01G02G04G05G09G12G17G20G30   -0.000216280
  25154045.633 4       447.039 4       348.34046   -528112.695 4   -392493.33646
  25154041.19546        39.000          20.100  
  20965663.078 7      2959.831 7      2306.36248  -7695521.133 7  -5968091.22348
  20965656.60948        49.600          34.000  
  20506666.992 7        88.657 7        69.08447   -563694.844 7   -425701.27747
  20506662.68447        50.000          33.600  
  21584704.891 6      3408.562 6      2656.02347  -8315519.422 6  -6453473.92247
  21584700.23047        46.000          29.400  
  22298457.969 6     -2316.419 6     -1805.00247   6792397.758 6   5284589.05547
  22298454.02047        45.600          30.500  
  21135934.586 7      2557.973 7      1993.22548  -6313412.105 7  -4887126.67248
  21135929.44548        49.600          37.400  
  23204171.508 6     -2279.047 6     -1775.88047   8157955.164 6   6331258.44947
  23204166.45747        44.500          28.000  
  24373108.672 5      -944.349 5      -735.85845   2651190.027 5   2068421.03945
  24373105.18045        39.500          17.800  
  23220085.625 6      4200.865 6      3273.40246  -8544600.793 6  -6480079.00046
  23220081.77046        43.200          24.700  
 08  1 16 17  9 45.0000000  0  9G01G02G04G05G09G12G17G20G30   -0.000223471
  25152786.727 5       440.465 5       343.21746   -534719.672 5   -397641.58646
  25152784.05546        39.300          19.300  
  20957229.688 7      2954.587 7      2302.27548  -7739839.938 7  -6002625.35248
  20957222.61348        49.500          34.500  
  20506435.430 7        81.181 7        63.25748   -564912.559 7   -426650.13348
  20506430.85248        49.600          33.900  
  21574985.750 6      3405.044 6      2653.28147  -8366595.078 6  -6493273.12947
  21574981.13747        47.200          29.900  
  22305081.594 6     -2320.651 6     -1808.29947   6827207.527 6   5311713.53947
  22305078.21547        45.700          30.900  
  21128645.000 7      2553.766 7      1989.94848  -6351718.590 7  -4916975.88748
  21128639.69548        49.000          36.700  
  23210675.758 6     -2278.780 6     -1775.67247   8192136.863 6   6357893.52347
  23210671.17247        44.400          28.500  
  24375823.375 5      -950.558 5      -740.69246   2665448.391 5   2079531.41446
  24375818.41846        41.700          19.000  
  23208097.453 5      4200.052 5      3272.76546  -8607601.566 5  -6529170.47346
  23208093.16846        42.400          24.900  
 08  1 16 17 10  0.0000000  0  9G01G02G04G05G09G12G17G20G30   -0.000230684
  25151548.969 4       433.714 4       337.96246   -541225.383 4   -402711.01646
  25151545.50846        38.700          19.600  
  20948811.453 7      2949.140 7      2298.03148  -7784077.031 7  -6037095.80948
  20948804.79748        49.300          34.000  
  20506225.461 7        73.532 7        57.29847   -566015.543 7   -427509.60547
  20506220.86747        49.800          33.400  
  21565276.945 6      3401.323 6      2650.38147  -8417614.922 6  -6533028.84447
  21565272.09847        46.800          29.700  
  22311718.328 6     -2325.047 6     -1811.72447   6862083.234 6   5338889.40647
  22311714.35947        45.300          29.700  
  21121368.016 7      2549.364 7      1986.51848  -6389959.055 7  -4946773.65248
  21121362.96548        49.700          37.400  
  23217180.391 6     -2278.696 6     -1775.60647   8226317.301 6   6384527.60947
  23217175.80547        44.600          28.400  
  24378553.969 5      -956.929 5      -745.66146   2679802.328 5   2090716.32846
  24378549.58646        40.400          20.100  
  23196112.008 6      4199.049 6      3271.98746  -8670587.297 6  -6578250.27046
  23196107.56646        43.200          24.500  
 08  1 16 17 10 15.0000000  0  9G01G02G04G05G09G12G17G20G30   -0.000237921
  25150329.914 5       427.206 5       332.89146   -547633.473 5   -407704.37546
  25150326.20746        39.200          19.000  
  20940407.898 7      2943.919 7      2293.96248  -7828235.820 7  -6071505.24648
  20940401.21948        49.300          33.800  
  20506037.070 7        66.131 7        51.53147   -567007.512 7   -428282.57047
  20506032.29747        49.600          33.100  
  21555578.039 6      3397.815 6      2647.64847  -8468582.152 6  -6572743.57047
  21555573.78547        46.500          29.300  
  22318366.992 6     -2329.174 6     -1814.94047   6897020.844 6   5366113.50447
  22318363.18847        45.600          29.500  
  21114102.813 7      2545.193 7      1983.26748  -6428136.949 7  -4976522.65648
  21114097.85248        49.900          37.500  
  23223684.352 6     -2278.354 6     -1775.34047   8260492.605 6   6411157.71147
  23223679.07847        45.000          28.700  
  24381303.961 5      -963.054 5      -750.43046   2694248.145 5   2101972.78146
  24381298.87146        39.700          19.600  
  23184127.680 6      4198.249 6      3271.36546  -8733561.031 6  -6627320.74646
  23184123.42646        43.200          22.300  
 08  1 16 17 10 30.0000000  0  9G01G02G04G05G09G12G17G20G30   -0.000245178
  25149128.992 5       420.461 5       327.63445   -553940.383 5   -412618.87945
  25149125.60245        39.700          17.400  
  20932020.750 7      2938.450 7      2289.70048  -7872312.570 7  -6105850.75048
  20932014.10248        49.700          34.200  
  20505869.664 7        58.504 7        45.58848   -567885.078 7   -428966.38348
  20505865.33248        50.100          33.800  
  21545890.266 7      3394.060 7      2644.72247  -8519493.051 7  -6612414.40247
  21545885.29747        47.700          30.200  
  22325027.406 6     -2333.522 6     -1818.32847   6932023.668 6   5393388.42647
  22325023.80147        44.700          29.800  
  21106850.750 7      2540.771 7      1979.82148  -6466248.508 7  -5006219.97748
  21106845.37148        49.800          36.800  
  23230186.695 6     -2278.245 6     -1775.25547   8294666.273 6   6437786.53147
  23230181.85547        45.600          28.900  
  24384070.805 5      -969.398 5      -755.37346   2708789.117 5   2113303.37546
  24384065.69946        40.500          19.600  
  23172147.352 6      4197.201 6      3270.54446  -8796519.039 6  -6676378.91046
  23172143.58646        43.000          25.200  
 08  1 16 17 10 45.0000000  0  9G01G02G04G05G09G12G17G20G30   -0.000252457
  25147948.844 4       413.814 4       322.45245   -560147.598 4   -417455.66045
  25147944.44145        38.700          16.900  
  20923648.789 7      2933.051 7      2285.49448  -7916308.336 7  -6140133.16048
  20923641.68048        49.200          34.000  
  20505724.797 7        50.976 7        39.72247   -568649.715 7   -429562.21147
  20505719.81347        50.300          33.700  
  21536212.734 6      3390.360 6      2641.83947  -8570348.457 6  -6652041.99247
  21536207.98847        46.600          29.800  
  22331700.938 6     -2337.744 6     -1821.61847   6967089.828 6   5420712.69547
  22331696.69147        45.700          29.400  
  21099610.727 7      2536.402 7      1976.41748  -6504294.543 7  -5035866.23048
  21099605.43448        49.400          36.800  
  23236689.406 6     -2278.033 6     -1775.09147   8328836.773 6   6464412.89147
  23236684.36347        45.900          28.100  
  24386855.313 5      -975.633 5      -760.23245   2723423.605 5   2124706.85245
  24386850.12945        40.000          18.600  
  23160169.188 6      4196.212 6      3269.77646  -8859462.223 6  -6725425.55146
  23160165.60246        43.600          24.400  
 08  1 16 17 11  0.0000000  0  9G01G02G04G05G09G12G17G20G30   -0.000259758
  25146786.422 4       407.097 4       317.21945   -566254.055 4   -422213.94545
  25146782.66445        38.600          16.300  
  20915291.930 7      2927.571 7      2281.22448  -7960221.906 7  -6174351.51648
  20915285.41848        49.100          34.000  
  20505600.500 7        43.387 7        33.80748   -569300.516 7   -430069.32048
  20505596.17248        50.000          33.800  
  21526546.250 6      3386.580 6      2638.89347  -8621147.156 6  -6691625.38747
  21526541.28547        47.300          29.400  
  22338385.852 6     -2342.016 6     -1824.94747   7002220.063 6   5448086.89847
  22338381.46947        45.000          28.800  
  21092383.289 7      2531.959 7      1972.95648  -6542273.934 7  -5065460.56648
  21092378.11748        50.000          37.400  
  23243191.242 6     -2277.890 6     -1774.97847   8363005.117 6   6491037.56647
  23243186.44147        45.300          27.500  
  24389658.469 5      -981.935 5      -765.14346   2738152.637 5   2136184.00446
  24389652.98046        40.400          19.300  
  23148194.961 6      4195.139 6      3268.93846  -8922389.313 6  -6774459.62146
  23148191.14146        44.300          24.500  
 08  1 16 17 11 15.0000000  0  9G01G02G04G05G09G12G17G20G30   -0.000267080
  25145643.945 5       400.316 5       311.93445   -572258.801 5   -426892.94945
  25145639.90245        40.200          17.800  
  20906951.641 7      2922.008 7      2276.88848  -8004052.023 7  -6208504.84448
  20906944.70748        49.200          34.600  
  20505498.438 7        35.724 7        27.83748   -569836.379 7   -430486.87948
  20505494.09048        49.900          34.500  
  21516889.961 6      3382.703 6      2635.87447  -8671887.707 6  -6731163.49647
  21516885.95747        46.900          30.200  
  22345082.664 6     -2346.329 6     -1828.30747   7037414.992 6   5475511.51247
  22345079.10247        44.500          30.400  
  21085169.227 7      2527.422 7      1969.42048  -6580185.262 7  -5095001.86348
  21085163.93848        49.500          37.400  
  23249693.305 6     -2277.810 6     -1774.91747   8397172.273 6   6517661.31647
  23249688.37147        43.200          27.600  
  24392479.586 5      -988.286 5      -770.09145   2752976.926 5   2147735.36345
  24392473.67245        40.500          18.300  
  23136223.820 6      4193.967 6      3268.02846  -8985298.813 6  -6823480.03946
  23136219.57846        43.200          24.600  
 08  1 16 17 11 30.0000000  0  9G01G02G04G05G09G12G17G20G30   -0.000274424
  25144521.086 4       393.596 4       306.70245   -578162.746 4   -431493.47745
  25144516.27345        38.300          17.400  
  20898626.609 7      2916.489 7      2272.58848  -8047799.359 7  -6242593.66848
  20898619.92248        48.300          34.600  
  20505418.086 7        28.147 7        21.93248   -570258.578 7   -430815.86348
  20505413.79348        49.400          34.400  
  21507245.602 6      3378.869 6      2632.88547  -8722570.746 6  -6770656.76647
  21507241.16047        46.900          30.500  
  22351793.180 6     -2350.554 6     -1831.60047   7072673.305 6   5502985.51247
  22351788.92247        45.600          30.100  
  21077967.609 7      2522.947 7      1965.93248  -6618029.461 7  -5124490.84848
  21077962.71948        49.800          37.400  
  23256194.477 6     -2277.665 6     -1774.80347   8431337.242 6   6544283.36347
  23256189.77747        45.400          28.800  
  24395318.664 4      -994.573 4      -774.99245   2767895.516 4   2159360.24645
  24395313.27745        38.700          18.600  
  23124254.992 6      4192.856 6      3267.15946  -9048191.648 6  -6872487.42646
  23124251.43446        44.500          23.900  
 08  1 16 17 11 45.0000000  0  9G01G02G04G05G09G12G17G20G30   -0.000281790
  25143416.453 4       387.002 4       301.55745   -583967.777 4   -436016.82845
  25143411.53545        38.800          17.800  
  20890317.047 7      2911.078 7      2268.37248  -8091465.531 7  -6276619.24248
  20890310.78148        49.200          34.000  
  20505359.305 7        20.693 7        16.12447   -570568.980 7   -431057.72747
  20505354.48447        49.800          33.200  
  21497611.242 6      3375.137 6      2629.97747  -8773197.809 6  -6810106.41447
  21497606.78147        47.400          29.000  
  22358513.469 6     -2354.630 6     -1834.77647   7107992.750 6   5530507.15247
  22358509.64147        45.100          29.500  
  21070778.914 7      2518.573 7      1962.52448  -6655808.047 7  -5153928.70748
  21070773.84448        49.600          37.700  
  23262695.172 6     -2277.394 6     -1774.59347   8465498.156 6   6570902.25447
  23262690.75447        44.200          27.800  
  24398173.172 4     -1000.717 4      -779.78145   2782906.273 4   2171056.96545
  24398169.43445        37.700          17.400  
  23112290.781 6      4191.831 6      3266.36246  -9111069.113 6  -6921482.85946
  23112286.61346        43.900          24.500  
 08  1 16 17 12  0.0000000  0  9G01G02G04G05G09G12G17G20G30   -0.000289177
  25142330.477 5       380.302 5       296.33845   -589672.309 5   -440461.89545
  25142326.48045        39.500          18.300  
  20882023.406 7      2905.534 7      2264.05248  -8135048.539 7  -6310580.02048
  20882016.88348        49.600          34.000  
  20505321.750 7        13.143 7        10.24147   -570766.121 7   -431211.34047
  20505317.30947        50.200          33.700  
  21487988.242 6      3371.279 6      2626.97147  -8823766.996 6  -6849510.97747
  21487984.20747        46.900          29.500  
  22365246.344 6     -2358.784 6     -1838.01347   7143374.508 6   5558077.34447
  22365242.75047        45.100          29.500  
  21063602.578 7      2514.057 7      1959.00548  -6693518.902 7  -5183313.78548
  21063597.57048        50.000          37.700  
  23269195.070 6     -2277.235 6     -1774.46847   8499656.684 6   6597519.27747
  23269190.44547        43.800          27.900  
  24401048.234 5     -1006.957 5      -784.63846   2798010.629 5   2182826.53546
  24401043.82046        40.000          19.000  
  23100329.000 6      4190.672 6      3265.45846  -9173929.191 6  -6970464.73046
  23100324.54346        44.600          24.600  
 08  1 16 17 12 15.0000000  0  9G01G02G04G05G09G12G17G20G30   -0.000296583
  25141263.961 4       373.472 4       291.02045   -595274.395 4   -444827.19545
  25141259.78145        38.300          17.400  
  20873746.305 7      2899.848 7      2259.62148  -8178546.266 7  -6344474.34048
  20873739.58648        49.300          34.700  
  20505306.430 7         5.455 7         4.25148   -570847.941 7   -431275.09848
  20505301.43448        50.000          33.800  
  21478377.047 7      3367.253 7      2623.83347  -8874275.789 7  -6888868.47747
  21478372.16847        47.800          30.300  
  22371991.250 6     -2363.063 6     -1841.34747   7178820.449 6   5585697.55147
  22371987.86347        46.300          29.200  
  21056439.492 7      2509.396 7      1955.37348  -6731159.836 7  -5212644.38748
  21056434.70748        49.400          38.200  
  23275695.313 6     -2277.169 6     -1774.41847   8533814.227 6   6624135.54347
  23275690.64547        45.000          27.700  
  24403940.844 4     -1013.319 4      -789.59345   2813210.418 4   2194670.42645
  24403936.30945        38.400          17.400  
  23088370.148 6      4189.363 6      3264.43946  -9236769.637 6  -7019431.31346
  23088366.69946        44.500          22.900  
 08  1 16 17 12 30.0000000  0  9G01G02G04G05G09G12G17G20G30   -0.000304010
  25140217.664 4       366.529 4       285.60545   -600772.324 4   -449111.26645
  25140213.78945        39.000          17.400  
  20865485.555 7      2894.035 7      2255.09148  -8221956.789 7  -6378300.70748
  20865478.83648        49.500          34.800  
  20505313.094 7        -2.330 7        -1.81647   -570812.984 7   -431247.85547
  20505308.45347        50.100          33.400  
  21468777.617 7      3363.093 7      2620.59247  -8924722.180 7  -6928177.35547
  21468772.98047        47.600          30.700  
  22378749.008 6     -2367.427 6     -1844.74847   7214331.863 6   5613368.76647
  22378745.07447        45.600          29.900  
  21049290.375 7      2504.593 7      1951.63048  -6768728.730 7  -5241918.84048
  21049285.19148        49.900          37.400  
  23282195.391 6     -2277.230 6     -1774.46447   8567972.680 6   6650752.50447
  23282190.57847        45.600          27.600  
  24406852.461 4     -1019.798 4      -794.64545   2828507.395 4   2206590.10545
  24406847.36745        37.700          17.800  
  23076416.313 6      4187.913 6      3263.31046  -9299588.324 6  -7068380.95746
  23076412.25046        43.400          22.200  
 08  1 16 17 12 45.0000000  0  9G01G02G04G05G09G12G17G20G30   -0.000311459
  25139190.289 4       359.950 4       280.48245   -606171.570 4   -453318.50045
  25139186.26645        38.900          18.300  
  20857240.406 7      2888.562 7      2250.82748  -8265285.211 7  -6412063.10548
  20857233.71548        49.000          34.000  
  20505340.516 7        -9.756 7        -7.60248   -570666.641 7   -431133.82048
  20505336.10948        48.900          34.000  
  21459188.656 6      3359.269 6      2617.61247  -8975111.211 6  -6967441.52747
  21459183.92247        46.500          29.800  
  22385518.398 6     -2371.409 6     -1847.85147   7249902.996 6   5641086.53147
  22385514.03547        45.900          28.000  
  21042154.438 7      2500.134 7      1948.15748  -6806230.746 7  -5271141.19948
  21042149.06348        49.800          37.400  
  23288694.133 6     -2276.935 6     -1774.23647   8602126.711 6   6677366.03947
  23288690.23047        44.800          27.200  
  24409780.914 5     -1025.893 5      -799.39745   2843895.793 5   2218581.05545
  24409776.07045        39.300          17.800  
  23064465.148 6      4186.795 6      3262.43746  -9362390.250 6  -7117317.50446
  23064461.32846        44.400          22.800  
 08  1 16 17 13  0.0000000  0  9G01G02G04G05G09G12G17G20G30   -0.000318930
  25138181.898 5       353.078 5       275.12345   -611467.742 5   -457445.35245
  25138178.92645        39.200          18.600  
  20849011.836 7      2882.775 7      2246.31748  -8308526.836 7  -6445757.86748
  20849005.05148        48.800          34.800  
  20505390.797 7       -17.464 7       -13.60847   -570404.676 7   -430929.69547
  20505386.30947        49.500          33.700  
  21449612.219 6      3355.128 6      2614.38547  -9025438.125 6  -7006657.30147
  21449607.02347        47.000          29.800  
  22392299.250 6     -2375.661 6     -1851.16447   7285537.914 6   5668853.98847
  22392295.20747        45.400          28.600  
  21035031.492 7      2495.363 7      1944.43848  -6843661.191 7  -5300307.77348
  21035026.22348        50.400          37.700  
  23295193.914 6     -2276.927 6     -1774.22847   8636280.609 6   6703979.45347
  23295189.49647        42.700          27.600  
  24412727.406 4     -1032.277 4      -804.37245   2859379.945 4   2230646.62945
  24412722.44145        38.800          17.800  
  23052518.703 6      4185.358 6      3261.31746  -9425170.621 6  -7166237.26246
  23052514.43046        45.000          24.500  
 08  1 16 17 13 15.0000000  0  9G01G02G04G05G09G12G17G20G30   -0.000326414
  25137195.703 4       345.925 4       269.55445   -616656.613 4   -461488.66445
  25137191.22745        39.000          17.800  
  20840800.297 7      2876.690 7      2241.57648  -8351677.180 7  -6479381.50448
  20840793.93448        48.700          34.800  
  20505463.250 7       -25.453 7       -19.83347   -570022.887 7   -430632.19547
  20505458.46947        49.100          33.600  
  21440047.758 6      3350.677 6      2610.91747  -9075698.289 6  -7045821.06347
  21440042.70747        46.300          30.200  
  22399093.594 6     -2380.160 6     -1854.67047   7321240.309 6   5696674.03147
  22399089.33647        46.000          28.800  
  21027923.133 7      2490.292 7      1940.48748  -6881015.566 7  -5329415.08248
  21027917.87948        49.900          37.000  
  23301693.594 6     -2277.194 6     -1774.43647   8670438.520 6   6730595.99647
  23301689.26647        44.300          27.600  
  24415692.742 4     -1038.935 4      -809.56445   2874963.976 4   2242790.09445
  24415688.14545        38.800          17.400  
  23040576.914 6      4183.618 6      3259.96146  -9487924.883 6  -7215136.67646
  23040572.83646        44.700          22.800  
 08  1 16 17 13 30.0000000  0  9G01G02G04G05G09G12G17G20G30   -0.000333920
  25136228.148 4       339.201 4       264.31645   -621744.625 4   -465453.40245
  25136222.71945        39.100          17.800  
  20832605.453 7      2871.019 7      2237.15748  -8394742.469 7  -6512938.86348
  20832598.64548        48.800          34.600  
  20505557.297 7       -33.004 7       -25.71748   -569527.832 7   -430246.43848
  20505552.62948        49.100          34.500  
  21430495.430 6      3346.637 6      2607.76947  -9125897.848 6  -7084937.60247
  21430489.93447        46.800          30.400  
  22405898.547 6     -2384.209 6     -1857.82447   7357003.445 6   5724541.39847
  22405894.80947        46.800          29.000  
  21020828.000 7      2485.627 7      1936.85248  -6918299.973 7  -5358467.86348
  21020822.59048        49.600          37.600  
  23308193.445 6     -2277.024 6     -1774.30447   8704593.883 6   6757210.55547
  23308188.99247        44.400          27.700  
  24418675.758 4     -1045.146 4      -814.39846   2890641.172 4   2255006.07046
  24418671.52346        38.600          19.000  
  23028639.023 6      4182.280 6      3258.92146  -9550659.078 6  -7264020.49646
  23028635.15646        44.300          24.300  
 08  1 16 17 13 45.0000000  0  9G01G02G04G05G09G12G17G20G30   -0.000341446
  25135278.883 4       332.383 4       258.99845   -626730.371 4   -469338.37145
  25135274.41045        38.600          18.300  
  20824427.250 7      2865.227 7      2232.64348  -8437720.867 7  -6546428.50848
  20824420.24248        48.600          34.500  
  20505673.414 7       -40.641 7       -31.66848   -568918.211 7   -429771.41048
  20505668.67248        49.200          33.900  
  21420954.461 6      3342.476 6      2604.52747  -9176034.988 6  -7124005.50447
  21420949.49647        46.700          30.000  
  22412715.367 6     -2388.331 6     -1861.03747   7392828.406 6   5752456.94947
  22412711.56347        45.400          28.900  
  21013747.000 7      2480.853 7      1933.13348  -6955512.762 7  -5387464.85248
  21013741.91448        49.900          37.200  
  23314692.578 5     -2276.956 5     -1774.25046   8738748.215 5   6783824.30146
  23314688.14546        42.400          26.200  
  24421676.820 4     -1051.445 4      -819.30946   2906412.840 4   2267295.70346
  24421672.44946        38.400          19.000  
  23016705.688 6      4180.821 6      3257.78146  -9613371.387 6  -7312887.20346
  23016701.10946        44.600          23.200  
 08  1 16 17 14  0.0000000  0  9G01G02G04G05G09G12G17G20G30   -0.000348991
  25134350.156 4       325.549 4       253.67445   -631613.602 4   -473143.48445
  25134344.26245        38.700          17.800  
  20816265.008 7      2859.404 7      2228.10648  -8480611.922 7  -6579850.10248
  20816258.28548        48.600          34.400  
  20505811.055 7       -48.291 7       -37.63048   -568193.844 7   -429206.96548
  20505806.49648        49.900          34.200  
  21411425.242 6      3338.274 6      2601.25247  -9226109.102 6  -7163024.28547
  21411420.63347        47.300          30.200  
  22419545.531 6     -2392.462 6     -1864.25547   7428715.336 6   5780420.78147
  22419541.32847        46.300          28.500  
  21006679.586 7      2476.040 7      1929.38248  -6992653.359 7  -5416405.57848
  21006673.69948        49.900          37.100  
  23321191.828 6     -2276.899 6     -1774.20747   8772901.699 6   6810437.39847
  23321187.55947        43.800          27.200  
  24424695.578 4     -1057.753 4      -824.22346   2922279.133 4   2279659.04746
  24424691.56646        38.200          19.300  
  23004776.305 6      4179.331 6      3256.62246  -9676061.348 6  -7361736.53146
  23004771.28546        44.500          24.100  
 08  1 16 17 14 15.0000000  0  9G01G02G04G05G09G12G17G20G30   -0.000356554
  25133439.313 4       318.554 4       248.22345   -636391.910 4   -476866.83245
  25133435.35245        38.700          18.300  
  20808120.461 7      2853.405 7      2223.43248  -8523412.988 7  -6613201.57848
  20808113.68448        49.000          34.500  
  20505971.492 7       -56.108 7       -43.72048   -567352.227 7   -428551.16048
  20505966.85948        49.900          33.800  
  21401908.938 6      3333.875 6      2597.82547  -9276117.234 6  -7201991.66447
  21401904.73447        47.100          29.900  
  22426387.109 6     -2396.729 6     -1867.58047   7464666.273 6   5808434.48447
  22426382.29347        46.000          29.300  
  20999626.141 7      2471.037 7      1925.48448  -7029718.918 7  -5445287.83248
  20999620.62148        49.900          37.700  
  23327691.219 6     -2277.005 6     -1774.28947   8807056.770 6   6837051.73447
  23327686.89847        43.600          27.800  
  24427733.953 3     -1064.214 3      -829.25945   2938242.344 3   2292097.93445
  24427729.67245        36.900          17.800  
  22992851.820 6      4177.647 6      3255.30946  -9738726.059 6  -7410566.17246
  22992846.62146        45.200          22.800  
 08  1 16 17 14 30.0000000  0  9G01G02G04G05G09G12G17G20G30   -0.000364138
  25132551.359 5       311.697 5       242.88146   -641067.367 5   -480510.04346
  25132546.80146        39.900          19.900  
  20799992.383 7      2847.524 7      2218.84948  -8566125.848 7  -6646484.30948
  20799985.42648        49.400          34.200  
  20506153.266 7       -63.768 7       -49.68947   -566395.711 7   -427805.82447
  20506148.93847        50.100          33.700  
  21392405.125 6      3329.603 6      2594.49647  -9326061.273 6  -7240909.09847
  21392400.55547        46.300          29.300  
  22433239.805 6     -2400.839 6     -1870.78247   7500678.855 6   5836496.21947
  22433235.18447        45.700          29.400  
  20992586.703 7      2466.156 7      1921.68048  -7066711.254 7  -5474113.03148
  20992581.01648        49.800          37.400  
  23334190.578 6     -2276.972 6     -1774.26346   8841211.348 6   6863665.68446
  23334186.46146        43.000          25.300  
  24430788.328 3     -1070.515 3      -834.16746   2954300.070 3   2304610.43446
  24430785.30946        37.000          19.000  
  22980931.898 6      4176.078 6      3254.08746  -9801367.227 6  -7459377.47346
  22980926.27746        44.800          23.300  
 08  1 16 17 14 45.0000000  0  9G01G02G04G05G09G12G17G20G30   -0.000371740
  25131679.469 5       304.927 5       237.60345   -645641.277 5   -484074.09445
  25131676.97345        39.300          18.600  
  20791880.484 7      2841.706 7      2214.31648  -8608751.430 7  -6679699.04348
  20791874.12548        49.000          34.200  
  20506357.023 7       -71.339 7       -55.58847   -565325.633 7   -426972.00447
  20506352.36347        50.000          33.400  
  21382913.297 6      3325.385 6      2591.20947  -9375942.051 6  -7279777.23447
  21382908.28947        47.000          30.900  
  22440103.734 6     -2404.841 6     -1873.90247   7536751.473 6   5864604.74247
  22440099.55947        46.300          28.700  
  20985560.930 7      2461.336 7      1917.92448  -7103631.297 7  -5502881.89548
  20985555.60548        50.500          37.600  
  23340689.891 6     -2276.846 6     -1774.16447   8875364.035 6   6890278.14847
  23340685.65247        43.100          27.100  
  24433862.773 3     -1076.738 3      -839.01346   2970451.137 3   2317195.62146
  24433859.20346        36.900          19.000  
  22969015.320 6      4174.565 6      3252.90846  -9863985.711 6  -7508171.09446
  22969010.32046        45.400          22.600  
 08  1 16 17 15  0.0000000  0  9G01G02G04G05G09G12G17G20G30   -0.000379364
  25130829.281 5       298.255 5       232.40945   -650115.102 5   -487560.22345
  25130824.72345        39.400          18.300  
  20783786.172 7      2835.972 7      2209.84748  -8651291.012 7  -6712846.75048
  20783779.50848        48.400          34.600  
  20506582.219 7       -78.818 7       -61.41748   -564143.359 7   -426050.75048
  20506577.19548        49.600          33.800  
  21373433.109 6      3321.237 6      2587.97747  -9425760.609 6  -7318596.88747
  21373428.61347        46.700          30.400  
  22446979.336 6     -2408.717 6     -1876.92247   7572882.230 6   5892758.57847
  22446975.46147        45.000          28.600  
  20978548.719 7      2456.598 7      1914.23248  -7140480.270 7  -5531595.37548
  20978543.31648        49.900          36.600  
  23347188.125 5     -2276.616 5     -1773.98547   8909513.281 5   6916887.93047
  23347184.09447        42.300          26.700  
  24436954.500 3     -1082.844 3      -843.77245   2986693.789 3   2329852.20745
  24436949.82045        36.600          17.800  
  22957103.484 6      4173.119 6      3251.78146  -9926582.500 6  -7556947.80946
  22957098.14146        44.000          22.500  
 08  1 16 17 15 15.0000000  0  9G01G02G04G05G09G12G17G20G30   -0.000387005
  25129998.172 5       291.278 5       226.97246   -654484.266 5   -490964.80146
  25129993.31646        39.800          19.000  
  20775708.305 7      2829.906 7      2205.12148  -8693739.605 7  -6745923.56648
  20775701.64548        48.800          34.200  
  20506829.047 7       -86.591 7       -67.47447   -562844.492 7   -425038.64547
  20506824.38347        49.900          33.700  
  21363965.953 6      3316.755 6      2584.48447  -9475511.938 6  -7357364.15247
  21363961.03947        46.800          30.800  
  22453866.898 6     -2412.879 6     -1880.16547   7609075.410 6   5920961.04747
  22453862.35547        45.000          29.700  
  20971551.039 7      2451.537 7      1910.28948  -7177253.320 7  -5560249.70348
  20971545.97748        50.200          37.300  
  23353685.633 5     -2276.695 5     -1774.04846   8943663.699 5   6943498.64546
  23353682.34046        42.400          25.200  
  24440063.273 5     -1089.253 5      -848.76745   3003032.578 5   2342583.71545
  24440059.05945        39.200          18.600  
  22945196.758 6      4171.335 6      3250.39046  -9989152.523 6  -7605703.66446
  22945191.16046        43.900          22.600  
 08  1 16 17 15 30.0000000  0  9G01G02G04G05G09G12G17G20G30   -0.000394667
  25129185.680 5       284.462 5       221.65746   -658751.195 5   -494289.65246
  25129180.98046        39.900          19.900  
  20767647.453 7      2823.989 7      2200.51048  -8736099.434 7  -6778931.21148
  20767640.54748        48.700          34.200  
  20507098.383 7       -94.188 7       -73.39347   -561431.676 7   -423937.74247
  20507093.26247        49.500          33.700  
  21354510.758 6      3312.419 6      2581.10647  -9525198.227 6  -7396080.74647
  21354506.09447        47.200          30.700  
  22460765.133 6     -2416.855 6     -1883.26447   7645328.242 6   5949210.00447
  22460761.31647        45.500          28.900  
  20964567.336 7      2446.623 7      1906.46048  -7213952.668 7  -5588846.59848
  20964562.12548        50.500          37.100  
  23360184.836 5     -2276.607 5     -1773.97846   8977812.801 5   6970108.32046
  23360180.47346        41.500          25.700  
  24443190.289 4     -1095.485 4      -853.62546   3019464.851 4   2355388.08746
  24443186.16046        38.600          19.300  
  22933294.547 6      4169.702 6      3249.12046 -10051698.059 6  -7654440.45746
  22933289.08246        43.800          22.900  
 08  1 16 17 15 45.0000000  0  9G01G02G04G05G09G12G17G20G30   -0.000402346
  25128393.102 5       277.476 5       216.21746   -662913.332 5   -497532.90646
  25128389.12946        39.800          19.300  
  20759603.867 7      2817.875 7      2195.74648  -8778367.551 7  -6811867.39848
  20759597.36348        47.800          34.200  
  20507389.477 7      -101.969 7       -79.45648   -559902.137 7   -422745.89848
  20507384.28548        49.400          33.800  
  21345069.117 6      3307.876 6      2577.56647  -9574816.367 6  -7434744.23047
  21345064.00447        46.400          30.200  
  22467675.711 6     -2420.994 6     -1886.48847   7681643.152 6   5977507.32447
  22467671.49647        45.700          29.100  
  20957598.586 7      2441.483 7      1902.45448  -7250574.910 7  -5617383.40648
  20957592.83248        50.100          37.800  
  23366683.383 5     -2276.694 5     -1774.04646   9011963.215 5   6996719.01246
  23366679.19546        42.000          25.800  
  24446334.953 5     -1101.889 5      -858.61546   3035993.188 5   2368267.31646
  24446330.71546        39.900          19.600  
  22921397.375 6      4167.864 6      3247.68746 -10114216.023 6  -7703155.75446
  22921392.42646        44.100          23.000  
 08  1 16 17 16  0.0000000  0  9G01G02G04G05G09G12G17G20G30   -0.000410040
  25127621.563 5       270.334 5       210.64846   -666968.340 5   -500692.62946
  25127617.81346        39.400          19.600  
  20751578.719 7      2811.607 7      2190.86248  -8820541.656 7  -6844730.33248
  20751571.53948        48.500          34.100  
  20507703.203 7      -109.886 7       -85.62648   -558253.844 7   -421461.51248
  20507697.94948        49.700          34.200  
  21335640.305 6      3303.158 6      2573.88847  -9624363.738 6  -7473352.55947
  21335635.62547        46.800          29.900  
  22474598.352 6     -2425.252 6     -1889.80647   7718021.930 6   6005854.41447
  22474594.75047        45.200          26.600  
  20950644.688 7      2436.181 7      1898.32348  -7287117.625 7  -5645858.24648
  20950639.03548        50.000          37.000  
  23373182.477 5     -2276.924 5     -1774.22546   9046117.074 5   7023332.39146
  23373178.38746        40.800          24.700  
  24449499.297 4     -1108.431 4      -863.71046   3052619.652 4   2381222.96146
  24449494.73446        38.400          19.900  
  22909506.984 6      4165.856 6      3246.12246 -10176703.863 6  -7751847.59046
  22909501.63346        44.000          23.300  
 08  1 16 17 16 15.0000000  0  9G01G02G04G05G09G12G17G20G30   -0.000417755
  25126869.156 5       263.547 5       205.36046   -670921.539 5   -503773.02746
  25126865.41846        39.800          19.900  
  20743570.039 7      2805.660 7      2186.22848  -8862626.559 7  -6877523.75048
  20743563.65248        48.000          34.700  
  20508038.172 7      -117.456 7       -91.52447   -556492.000 7   -420088.64547
  20508033.12547        49.300          33.700  
  21326224.305 6      3298.760 6      2570.46347  -9673845.137 6  -7511909.50447
  21326219.32047        46.900          30.000  
  22481532.133 6     -2429.148 6     -1892.84247   7754459.145 6   6034247.04747
  22481528.57847        45.000          27.300  
  20943705.023 7      2431.211 7      1894.45148  -7323585.797 7  -5674275.01248
  20943699.60248        50.000          37.900  
  23379681.523 5     -2276.812 5     -1774.13746   9080269.246 5   7049944.44546
  23379677.50846        40.300          23.900  
  24452681.930 5     -1114.612 5      -868.52846   3069338.828 5   2394250.88746
  24452676.63346        40.200          19.900  
  22897620.359 6      4164.161 6      3244.80146 -10239166.277 6  -7800519.60946
  22897615.29746        44.700          22.800  
 08  1 16 17 16 30.0000000  0  9G01G02G04G05G09G12G17G20G30   -0.000425488
  25126135.984 5       256.706 5       200.02845   -674772.129 5   -506773.44545
  25126131.79345        40.000          16.900  
  20735578.992 7      2799.653 7      2181.54748  -8904621.352 7  -6910246.95348
  20735572.07848        48.500          33.800  
  20508394.727 7      -125.053 7       -97.44547   -554616.203 7   -418626.97747
  20508390.07047        50.300          33.700  
  21316821.039 6      3294.296 6      2566.98447  -9723259.578 6  -7550414.26247
  21316815.89547        47.500          30.400  
  22488477.352 6     -2433.058 6     -1895.88947   7790955.008 6   6062685.37947
  22488473.42647        44.900          27.900  
  20936779.641 7      2426.184 7      1890.53348  -7359978.563 7  -5702633.01248
  20936773.85948        49.500          38.000  
  23386180.344 5     -2276.737 5     -1774.08046   9114420.297 5   7076555.65246
  23386176.18846        40.200          26.000  
  24455880.648 5     -1120.828 5      -873.37346   3086151.242 5   2407351.48446
  24455875.67646        39.900          20.400  
  22885739.453 6      4162.397 6      3243.42546 -10301602.230 6  -7849170.98046
  22885734.10246        43.400          22.600  
 08  1 16 17 16 45.0000000  0  9G01G02G04G05G09G12G17G20G30   -0.000433243
  25125423.070 5       250.007 5       194.81245   -678522.234 5   -509695.62945
  25125418.12145        39.400          18.300  
  20727604.336 7      2793.756 7      2176.95248  -8946527.691 7  -6942901.23448
  20727597.25848        47.600          33.900  
  20508773.430 7      -132.523 7      -103.26547   -552628.359 7   -417078.00447
  20508768.74647        49.500          33.600  
  21307430.164 7      3289.939 7      2563.58947  -9772608.664 7  -7588868.09447
  21307425.25847        47.800          30.300  
  22495432.875 6     -2436.814 6     -1898.81547   7827507.215 6   6091167.60947
  22495428.94547        45.100          27.900  
  20929868.383 7      2421.263 7      1886.69948  -7396297.516 7  -5730933.49648
  20929862.91448        50.000          37.000  
  23392678.422 5     -2276.530 5     -1773.91746   9148568.246 5   7103164.40646
  23392674.34046        40.900          23.600  
  24459096.523 5     -1126.915 5      -878.11446   3103054.961 5   2420523.19946
  24459092.30946        39.900          19.900  
  22873862.945 6      4160.745 6      3242.13946 -10364013.398 6  -7897803.07046
  22873857.68846        43.800          22.600  
 08  1 16 17 17  0.0000000  0  9G01G02G04G05G09G12G17G20G30   -0.000441013
  25124729.648 5       243.049 5       189.38745   -682167.965 5   -512536.44145
  25124724.41445        40.700          16.900  
  20719647.063 7      2787.586 7      2172.14448  -8988341.480 7  -6975483.39848
  20719640.48048        47.900          34.100  
  20509173.508 7      -140.242 7      -109.27948   -550524.723 7   -415438.81348
  20509169.12948        50.000          34.000  
  21298052.531 6      3285.296 6      2559.97147  -9821888.105 6  -7627267.66447
  21298047.86347        46.800          30.100  
  22502399.844 6     -2440.808 6     -1901.92747   7864119.332 6   6119696.52047
  22502395.47747        45.100          28.300  
  20922971.953 7      2416.063 7      1882.64648  -7432538.453 7  -5759173.18048
  20922966.90248        50.000          36.400  
  23399176.953 5     -2276.567 5     -1773.94846   9182716.750 5   7129773.62546
  23399172.61346        40.400          24.800  
  24462332.102 5     -1133.238 5      -883.04446   3120053.535 5   2433768.85246
  24462326.45346        40.400          19.900  
  22861991.875 6      4158.806 6      3240.62646 -10426395.484 6  -7946412.46546
  22861986.68846        44.100          22.500  
 08  1 16 17 17 15.0000000  0  9G01G02G04G05G09G12G17G20G30   -0.000448799
  25124057.477 5       235.828 5       183.76646   -685705.387 5   -515292.92646
  25124051.09046        39.300          19.600  
  20711708.797 7      2781.130 7      2167.11448  -9030058.426 7  -7007990.10248
  20711702.13348        48.300          34.300  
  20509596.930 7      -148.217 7      -115.49448   -548301.469 7   -413706.40248
  20509592.36748        50.300          34.000  
  21288689.211 6      3280.364 6      2556.12747  -9871093.566 6  -7665609.56647
  21288684.07047        47.100          30.700  
  22509379.219 6     -2445.056 6     -1905.23847   7900795.172 6   6148275.08247
  22509374.65247        45.700          27.900  
  20916091.172 7      2410.571 7      1878.36748  -7468697.020 7  -5787348.69148
  20916085.52048        50.000          36.700  
  23405676.031 5     -2276.884 5     -1774.19546   9216870.016 5   7156386.55146
  23405671.46946        41.000          26.000  
  24465585.133 5     -1139.805 5      -888.15846   3137150.617 5   2447091.21946
  24465580.31346        40.400          19.300  
  22850127.781 6      4156.580 6      3238.89346 -10488744.176 6  -7994995.86346
  22850122.59846        43.400          22.600  
 08  1 16 17 17 30.0000000  0  9G01G02G04G05G09G12G17G20G30   -0.000456604
  25123403.000 5       228.937 5       178.39246   -689139.438 5   -517968.80546
  25123398.50446        39.200          19.600  
  20703787.656 7      2774.983 7      2162.32448  -9071683.172 7  -7040424.96148
  20703781.28948        48.800          34.300  
  20510041.539 7      -155.865 7      -121.45348   -545963.500 7   -411884.60548
  20510036.94148        50.000          33.800  
  21279339.047 6      3275.735 6      2552.52047  -9920229.586 6  -7703897.37147
  21279334.26647        46.900          29.900  
  22516369.758 6     -2448.946 6     -1908.26847   7937529.363 6   6176899.10947
  22516365.66047        44.600          27.300  
  20909225.242 7      2405.394 7      1874.33348  -7504777.934 7  -5815463.68848
  20909219.70348        49.900          36.600  
  23412175.367 5     -2276.868 5     -1774.18146   9251023.031 5   7182999.26246
  23412171.07446        41.400          25.200  
  24468856.648 4     -1146.045 4      -893.02045   3154341.297 4   2460486.52345
  24468851.82845        37.600          18.600  
  22838268.438 6      4154.647 6      3237.38846 -10551063.883 6  -8043556.68846
  22838263.16846        43.600          22.800  
 08  1 16 17 17 45.0000000  0  9G01G02G04G05G09G12G17G20G30   -0.000464428
  25122769.180 5       222.159 5       173.11346   -692471.820 5   -520565.50446
  25122764.29346        40.300          20.100  
  20695884.289 7      2768.927 7      2157.60548  -9113217.078 7  -7072789.03948
  20695877.40248        47.700          33.900  
  20510508.352 7      -163.392 7      -127.31947   -543512.617 7   -409974.82447
  20510503.34847        48.900          33.500  
  21270001.758 6      3271.191 6      2548.98147  -9969297.453 6  -7742132.08247
  21269996.87947        47.300          29.900  
  22523370.203 6     -2452.707 6     -1911.20147   7974319.973 6   6205567.11747
  22523366.56647        44.300          26.600  
  20902373.758 7      2400.301 7      1870.36548  -7540782.449 7  -5843519.15648
  20902368.12548        50.000          37.400  
  23418673.961 5     -2276.740 5     -1774.08246   9285174.125 5   7209610.48446
  23418669.44546        41.300          25.200  
  24472144.547 4     -1152.162 4      -897.78746   3171623.723 4   2473953.32446
  24472140.43846        38.100          19.000  
  22826414.289 6      4152.792 6      3235.94146 -10613355.766 6  -8092095.80146
  22826410.43846        43.400          24.000  
 08  1 16 17 18  0.0000000  0  9G01G02G04G05G09G12G17G20G30   -0.000472269
  25122155.500 5       215.162 5       167.65846   -695699.250 5   -523080.37546
  25122150.14846        40.200          19.000  
  20687998.445 7      2762.635 7      2152.70248  -9154656.602 7  -7105079.56648
  20687991.71948        47.800          34.000  
  20510996.109 7      -171.122 7      -133.34247   -540945.789 7   -407974.69547
  20510991.89847        50.000          33.600  
  21260677.805 6      3266.409 6      2545.25347 -10018293.586 6  -7780310.87547
  21260672.97747        46.800          30.200  
  22530382.711 6     -2456.662 6     -1914.28147   8011169.898 6   6234281.32847
  22530379.01247        44.500          27.800  
  20895537.250 7      2394.977 7      1866.21648  -7576707.105 7  -5871512.39848
  20895531.87948        49.600          37.000  
  23425173.016 5     -2276.818 5     -1774.14346   9319326.391 5   7236222.62946
  23425168.42646        41.200          24.400  
  24475451.523 3     -1158.486 3      -902.71545   3189001.016 3   2487494.04345
  24475447.93445        37.000          18.300  
  22814567.141 6      4150.710 6      3234.32046 -10675616.426 6  -8140610.59846
  22814561.80546        43.600          22.800  
 08  1 16 17 18 15.0000000  0  9G01G02G04G05G09G12G17G20G30   -0.000480125
  25121560.773 5       207.917 5       162.01446   -698818.012 5   -525510.58646
  25121556.09846        39.900          19.600  
  20680131.281 7      2756.074 7      2147.58948  -9195997.707 7  -7137293.40248
  20680124.75848        47.900          33.800  
  20511507.695 7      -179.110 7      -139.56647   -538259.137 7   -405881.20747
  20511503.54347        49.000          33.400  
  21251368.953 7      3261.340 7      2541.30447 -10067213.680 7  -7818430.43047
  21251363.60947        48.100          30.100  
  22537406.664 6     -2460.851 6     -1917.54447   8048082.660 6   6263044.48447
  22537402.57447        45.700          27.200  
  20888717.320 7      2389.368 7      1861.84548  -7612547.633 7  -5899440.07448
  20888711.48448        50.400          37.100  
  23431672.547 5     -2277.156 5     -1774.40646   9353483.723 5   7262838.71546
  23431668.37546        41.700          25.400  
  24478776.688 4     -1165.061 4      -907.83745   3206476.930 4   2501111.60245
  24478772.91845        37.500          18.600  
  22802726.031 6      4148.333 6      3232.46646 -10737841.414 6  -8189097.58646
  22802720.70746        43.700          24.300  
 08  1 16 17 18 30.0000000  0  9G01G02G04G05G09G12G17G20G30   -0.000487997
  25120987.977 5       201.024 5       156.64045   -701833.367 5   -527860.18045
  25120982.48845        40.600          18.300  
  20672282.102 7      2749.860 7      2142.74748  -9237245.602 7  -7169434.60248
  20672275.51648        48.000          34.100  
  20512040.625 7      -186.732 7      -145.50547   -535458.152 7   -403698.62547
  20512036.21547        49.400          33.400  
  21242072.906 6      3256.605 6      2537.61447 -10116062.754 6  -7856494.64147
  21242068.05947        47.200          30.900  
  22544442.242 6     -2464.652 6     -1920.50747   8085052.441 6   6291852.09447
  22544438.02747        45.600          27.300  
  20881911.906 7      2384.104 7      1857.74448  -7648309.199 7  -5927306.22748
  20881906.27748        50.000          37.600  
  23438172.344 5     -2277.136 5     -1774.39146   9387640.770 5   7289454.57846
  23438168.14546        40.800          22.900  
  24482119.805 4     -1171.279 4      -912.68645   3224046.121 4   2514801.89145
  24482116.59845        37.900          18.600  
  22790890.781 6      4146.295 6      3230.88046 -10800035.836 6  -8237560.79346
  22790885.77046        43.900          22.900  
 08  1 16 17 18 45.0000000  0  9G01G02G04G05G09G12G17G20G30   -0.000495888
  25120433.617 4       194.001 4       151.16745   -704743.383 4   -530127.69145
  25120428.55545        39.000          18.600  
  20664450.891 7      2743.487 7      2137.78148  -9278397.898 7  -7201501.32048
  20664444.44548        48.600          34.000  
  20512595.938 7      -194.488 7      -151.54947   -532540.840 7   -401425.39547
  20512590.80547        49.900          33.600  
  21232790.859 6      3251.711 6      2533.80147 -10164838.426 6  -7894501.66047
  21232786.57847        47.000          30.500  
  22551488.516 6     -2468.563 6     -1923.55447   8122080.879 6   6320705.40647
  22551484.10247        44.900          27.000  
  20875122.672 7      2378.679 7      1853.51648  -7683989.383 7  -5955108.96548
  20875116.64848        50.800          36.700  
  23444672.531 5     -2277.247 5     -1774.47746   9421799.469 5   7316071.72746
  23444668.03146        41.100          24.500  
  24485481.758 4     -1177.603 4      -917.61545   3241710.168 4   2528566.10945
  24485478.06645        37.600          17.800  
  22779061.492 6      4144.097 6      3229.16646 -10862197.285 6  -8285998.27746
  22779056.97746        43.100          24.500  
 08  1 16 17 18 59.9990000  0  9G01G02G04G05G09G12G17G20G30    0.000496204
  25419691.531 5       187.139 5       145.82546    867869.719 5    695285.07846
  25419686.72346        40.300          19.300  
  20956430.750 7      2737.260 7      2132.92947  -7744034.066 7  -6005893.12947
  20956423.92247        47.900          33.700  
  20812964.773 7      -202.073 7      -157.45947   1045910.059 7    828536.34047
  20812960.01647        49.000          33.500  
  21523316.156 6      3246.951 6      2530.09247  -8638119.441 6  -6704850.50447
  21523311.43447        46.600          30.000  
  22858338.000 6     -2472.297 6     -1926.46347   9734582.859 6   7577200.42647
  22858333.70347        45.200          27.900  
  21168140.781 7      2373.397 7      1849.40148  -6144167.965 7  -4755248.12548
  21168135.12948        49.800          36.500  
  23750964.766 6     -2277.201 6     -1774.44246  11031375.211 6   8570286.57846
  23750960.27346        42.600          25.100  
  24788652.570 3     -1183.758 3      -922.41045   4834885.352 3   3770001.33245
  24788649.39545        36.800          17.400  
  23067031.758 6      4142.028 6      3227.55446  -9348903.570 6  -7106808.36346
  23067026.87146        43.800          24.500  
 08  1 16 17 19 14.9990000  0  9G01G02G04G05G09G12G17G20G30    0.000488281
  25419177.703 5       180.135 5       140.36346    865167.691 5    693179.63746
  25419172.32046        40.000          19.000  
  20948636.086 7      2730.867 7      2127.94847  -7784997.078 7  -6037812.35547
  20948629.28547        48.400          33.700  
  20813564.016 7      -209.793 7      -163.47547   1049056.953 7    830988.46547
  20813559.25447        48.700          33.500  
  21514062.422 6      3242.022 6      2526.25147  -8686749.770 6  -6742744.26647
  21514057.60547        47.200          30.400  
  22865405.578 6     -2476.157 6     -1929.47447   9771725.219 6   7606142.53547
  22865401.40247        45.600          27.000  
  21161381.727 7      2367.945 7      1845.15348  -6179687.145 7  -4782925.41448
  21161375.75848        50.600          36.500  
  23757465.141 5     -2277.291 5     -1774.51246  11065534.578 5   8596904.25446
  23757460.53546        41.100          25.900  
  24792050.203 4     -1190.042 4      -927.30646   4852735.977 4   3783910.92246
  24792045.98446        38.600          19.300  
  23055215.375 6      4139.792 6      3225.81346  -9411000.457 6  -7155195.55146
  23055210.78546        43.600          24.500  
 08  1 16 17 19 29.9990000  0  9G01G02G04G05G09G12G17G20G30    0.000480339
  25418682.797 5       173.144 5       134.91846    862570.527 5    691155.85946
  25418678.11746        39.700          19.000  
  20940858.945 7      2724.469 7      2122.96248  -7825864.109 7  -6069656.78148
  20940852.17248        48.600          33.900  
  20814184.891 7      -217.509 7      -169.48747   1052319.586 7    833530.77347
  20814180.25447        49.500          33.300  
  21504822.727 6      3237.071 6      2522.39347  -8735305.832 6  -6780580.16447
  21504817.28947        45.800          30.600  
  22872484.344 6     -2479.992 6     -1932.46047   9808925.102 6   7635129.43047
  22872480.10247        45.800          28.100  
  21154638.164 7      2362.485 7      1840.89748  -6215124.422 7  -4810538.87548
  21154632.41048        50.200          36.800  
  23763966.242 5     -2277.369 5     -1774.57346  11099695.109 5   8623522.84846
  23763961.47346        42.000          22.900  
  24795464.156 3     -1196.323 3      -932.19945   4870680.828 3   3797893.91445
  24795461.05145        37.000          18.300  
  23043405.195 6      4137.543 6      3224.06046  -9473063.609 6  -7203556.45746
  23043400.11346        43.700          25.500  
 08  1 16 17 19 44.9990000  0  9G01G02G04G05G09G12G17G20G30    0.000472380
  25418208.406 5       166.290 5       129.57645    860076.184 5    689212.21945
  25418204.22345        40.000          18.600  
  20933099.969 7      2718.180 7      2118.06247  -7866636.813 7  -6101427.70747
  20933093.51647        48.800          33.400  
  20814827.297 7      -225.071 7      -175.37947   1055695.645 7    836161.46547
  20814822.26647        49.500          33.300  
  21495596.125 6      3232.234 6      2518.62347  -8783789.340 6  -6818359.51247
  21495591.26647        47.100          30.900  
  22879573.609 6     -2483.671 6     -1935.32746   9846180.160 6   7664159.33646
  22879569.37546        45.400          26.200  
  21147910.078 7      2357.135 7      1836.72948  -6250481.449 7  -4838089.80548
  21147903.96548        50.700          37.500  
  23770466.234 5     -2277.316 5     -1774.53046  11133854.844 5   8650140.79346
  23770461.34046        42.100          22.900  
  24798897.055 4     -1202.440 4      -936.96745   4888717.422 4   3811948.41445
  24798892.47745        37.800          18.600  
  23031601.016 6      4135.392 6      3222.38246  -9535094.480 6  -7251892.18046
  23031596.54746        43.900          26.100  
 08  1 16 17 19 59.9990000  0  9G01G02G04G05G09G12G17G20G30    0.000464405
  25417753.563 5       159.373 5       124.18746    857685.590 5    687349.41046
  25417749.23446        40.300          19.000  
  20925359.883 7      2711.825 7      2113.11048  -7907314.184 7  -6133124.35948
  20925352.61748        48.500          33.900  
  20815491.680 7      -232.697 7      -181.32347   1059186.105 7    838881.30547
  20815486.70347        49.800          33.200  
  21486384.109 6      3227.307 6      2514.78447  -8832198.941 6  -6856081.27047
  21486379.44947        45.200          31.400  
  22886674.336 6     -2487.381 6     -1938.21847   9883490.879 6   7693232.60247
  22886670.14147        45.600          28.600  
  21141197.281 7      2351.700 7      1832.49448  -6285756.957 7  -4865577.21548
  21141191.09848        49.000          36.200  
  23776966.602 5     -2277.315 5     -1774.53146  11168014.574 5   8676758.75846
  23776962.03546        41.800          22.600  
  24802345.625 4     -1208.620 4      -941.78345   4906846.727 4   3826075.16045
  24802342.25445        38.900          16.900  
  23019803.602 6      4133.158 6      3220.64346  -9597091.848 6  -7300201.82046
  23019798.71946        42.900          25.500  
 08  1 16 17 20 14.9990000  0  9G01G02G04G05G09G12G17G20G30    0.000456411
  25417318.742 4       152.404 4       118.75645    855399.531 4    685568.06645
  25417314.23045        38.500          17.800  
  20917637.273 7      2705.383 7      2108.09148  -7947894.934 7  -6164745.72348
  20917630.71948        48.300          33.900  
  20816177.719 7      -240.365 7      -187.29847   1062791.582 7    841690.77047
  20816172.46547        49.600          32.700  
  21477186.555 6      3222.298 6      2510.88247  -8880533.410 6  -6893744.50047
  21477181.79347        46.700          30.700  
  22893784.883 6     -2491.132 6     -1941.14147   9920857.852 6   7722349.71147
  22893779.89547        46.400          27.500  
  21134500.367 7      2346.193 7      1828.20348  -6320949.855 7  -4893000.25448
  21134494.10548        50.000          36.800  
  23783466.875 5     -2277.377 5     -1774.57846  11202175.230 5   8703377.43046
  23783462.45746        42.100          22.900  
  24805814.172 4     -1214.849 4      -946.63445   4925069.465 4   3840274.66845
  24805810.34445        38.800          18.300  
  23008012.984 6      4130.839 6      3218.83646  -9659054.434 6  -7348484.36746
  23008007.71146        44.100          24.000  
 08  1 16 17 20 29.9990000  0  9G01G02G04G05G09G12G17G20G30    0.000448404
  25416903.313 4       145.348 4       113.25745    853219.309 4    683869.20745
  25416899.28145        38.000          17.800  
  20909933.336 7      2698.840 7      2102.99248  -7988377.539 7  -6196290.59848
  20909926.87148        48.600          34.400  
  20816886.094 7      -248.121 7      -193.34147   1066513.402 7    844590.88347
  20816880.74647        49.300          32.500  
  21468003.219 6      3217.180 6      2506.89447  -8928791.113 6  -6931347.90247
  21467998.60547        46.600          30.900  
  22900906.047 6     -2494.962 6     -1944.12747   9958282.285 6   7751511.61747
  22900901.75847        46.700          28.200  
  21127818.883 7      2340.576 7      1823.82648  -6356058.496 7  -4920357.63748
  21127813.29748        50.000          36.400  
  23789967.961 6     -2277.523 6     -1774.69346  11236338.078 6   8729997.82446
  23789963.39146        42.600          24.000  
  24809299.195 3     -1221.156 3      -951.54945   4943386.809 3   3854547.90645
  24809295.46545        37.100          18.300  
  22996227.930 6      4128.397 6      3216.93347  -9720980.395 6  -7396738.35947
  22996223.66447        43.900          26.400  
 08  1 16 17 20 44.9990000  0  9G01G02G04G05G09G12G17G20G30    0.000440378
  25416507.914 4       138.392 4       107.83945    851143.426 4    682251.62145
  25416504.22345        38.600          18.300  
  20902248.805 7      2692.375 7      2097.95448  -8028763.160 7  -6227759.90248
  20902241.97348        48.700          34.400  
  20817615.664 7      -255.775 7      -199.30547   1070350.023 7    847580.46147
  20817611.21147        48.800          32.800  
  21458834.344 6      3212.125 6      2502.95447  -8976972.988 6  -6968892.21547
  21458829.77047        46.800          30.900  
  22908037.883 6     -2498.658 6     -1947.00547   9995762.156 6   7780716.69947
  22908034.22347        46.600          28.800  
  21121153.969 7      2335.021 7      1819.49748  -6391083.805 7  -4947650.08648
  21121148.69948        50.100          36.700  
  23796469.172 6     -2277.575 6     -1774.73546  11270501.711 6   8756618.84446
  23796464.46546        42.500          22.600  
  24812803.063 4     -1227.366 4      -956.38945   4961797.301 4   3868893.74645
  24812799.47345        37.900          17.800  
  22984450.969 6      4126.028 6      3215.08646  -9782870.820 6  -7444964.65246
  22984446.21546        44.000          26.100  
 08  1 16 17 20 59.9990000  0  9G01G02G04G05G09G12G17G20G30    0.000432339
  25416133.766 4       131.301 4       102.31345    849173.914 4    680716.93445
  25416129.38345        37.600          18.600  
  20894582.219 7      2685.760 7      2092.80048  -8069049.559 7  -6259151.89848
  20894575.76648        49.000          34.400  
  20818368.133 7      -263.554 7      -205.36747   1074303.340 7    850660.96147
  20818363.18447        48.700          33.000  
  21449680.406 6      3206.913 6      2498.89347  -9025076.684 6  -7006375.61347
  21449675.48447        46.800          31.000  
  22915181.563 6     -2502.460 6     -1949.96747  10033299.051 6   7809966.20347
  22915177.55947        46.100          28.900  
  21114505.242 7      2329.328 7      1815.06148  -6426023.727 7  -4974876.00048
  21114499.52348        50.300          36.600  
  23802970.891 6     -2277.757 6     -1774.87446  11304668.063 6   8783241.95746
  23802965.84446        42.800          22.900  
  24816324.906 3     -1233.674 3      -961.30445   4980302.414 3   3883313.30945
  24816320.48445        37.100          16.900  
  22972680.789 6      4123.505 6      3213.12147  -9844723.402 6  -7493161.47347
  22972676.34847        44.500          26.400  
 08  1 16 17 21 14.9990000  0  9G01G02G04G05G09G12G17G20G30    0.000424284
  25415780.320 4       124.176 4        96.76245    847311.270 4    679265.50445
  25415774.84845        38.100          17.800  
  20886935.203 7      2679.091 7      2087.60348  -8109235.922 7  -6290465.93848
  20886928.56348        49.300          34.200  
  20819142.664 7      -271.362 7      -211.45147   1078373.777 7    853832.72347
  20819138.09447        49.300          32.100  
  21440542.141 6      3201.642 6      2494.78647  -9073101.313 6  -7043797.40247
  21440537.70747        46.000          30.900  
  22922335.914 6     -2506.284 6     -1952.94847  10070893.316 6   7839260.42647
  22922331.46547        46.500          27.700  
  21107872.992 7      2323.577 7      1810.57948  -6460877.375 7  -5002034.68848
  21107866.97748        49.800          37.800  
  23809473.930 6     -2277.970 6     -1775.04046  11338837.609 6   8809867.56346
  23809468.27346        42.900          24.500  
  24819864.250 4     -1240.006 4      -966.23545   4998902.500 4   3897806.82845
  24819861.13345        38.800          17.800  
  22960918.227 6      4120.913 6      3211.10146  -9906537.102 6  -7541327.98846
  22960913.75046        43.200          25.600  
 08  1 16 17 21 29.9990000  0  9G01G02G04G05G09G12G17G20G30    0.000416214
  25415445.750 5       117.123 5        91.26645    845554.430 5    677896.50845
  25415440.17245        39.300          17.800  
  20879306.984 7      2672.473 7      2082.44648  -8149323.012 7  -6321702.62948
  20879299.94548        49.300          34.700  
  20819939.516 7      -279.101 7      -217.48147   1082560.297 7    857094.94147
  20819934.50447        49.400          32.600  
  21431417.953 6      3196.413 6      2490.71147  -9121047.500 6  -7081158.06647
  21431413.03547        47.200          31.100  
  22929499.938 6     -2510.019 6     -1955.85847  10108543.605 6   7868598.30147
  22929495.93047        46.100          28.300  
  21101256.508 7      2317.869 7      1806.13148  -6495645.410 7  -5029126.66048
  21101250.84448        49.900          37.200  
  23815976.008 6     -2278.114 6     -1775.15346  11373009.313 6   8836494.85946
  23815970.84846        42.600          22.800  
  24823420.898 4     -1246.273 4      -971.12145   5017596.590 4   3912373.64145
  24823417.70345        37.600          17.400  
  22949161.875 6      4118.370 6      3209.11846  -9968312.645 6  -7589464.76646
  22949157.50846        44.200          24.800  
 08  1 16 17 21 44.9990000  0  9G01G02G04G05G09G12G17G20G30    0.000408129
  25415130.438 4       110.163 4        85.84145    843901.980 4    676608.89545
  25415126.24245        38.100          18.300  
  20871697.172 7      2665.933 7      2077.34948  -8189312.000 7  -6352862.86748
  20871690.49248        48.700          34.000  
  20820757.914 7      -286.733 7      -223.42747   1086861.285 7    860446.35247
  20820752.90247        48.400          32.200  
  21422308.922 6      3191.244 6      2486.68447  -9168916.156 6  -7118458.32047
  21422304.33247        46.300          29.800  
  22936675.023 6     -2513.652 6     -1958.69047  10146248.383 6   7897978.64547
  22936670.97747        46.600          29.100  
  21094656.531 7      2312.229 7      1801.73848  -6530328.844 7  -5056152.72348
  21094651.08648        50.000          36.400  
  23822479.367 6     -2278.179 6     -1775.20446  11407182.000 6   8863122.92646
  23822473.87546        42.800          24.800  
  24826997.297 4     -1252.439 4      -975.92345   5036383.180 4   3927012.48845
  24826992.91445        37.800          18.300  
  22937413.828 6      4115.889 6      3207.18546 -10030050.973 6  -7637572.54746
  22937409.12946        42.700          25.400  
 08  1 16 17 21 59.9990000  0  9G01G02G04G05G09G12G17G20G30    0.000400024
  25414835.992 4       103.285 4        80.48445    842352.703 4    675401.62945
  25414831.43045        38.000          17.400  
  20864105.797 7      2659.452 7      2072.30048  -8229203.773 7  -6383947.36348
  20864099.62148        49.300          34.200  
  20821597.641 7      -294.274 7      -229.30547   1091275.395 7    863885.92647
  20821592.93447        48.900          32.800  
  21413214.484 6      3186.141 6      2482.70747  -9216708.266 6  -7155698.91847
  21413209.39847        47.200          30.200  
  22943859.906 6     -2517.165 6     -1961.42747  10184005.855 6   7927400.04347
  22943856.18447        46.400          28.800  
  21088072.281 7      2306.651 7      1797.39048  -6564928.602 7  -5083113.56648
  21088066.77348        49.900          36.900  
  23828981.867 6     -2278.144 6     -1775.17646  11441354.164 6   8889750.56646
  23828976.56346        43.300          22.900  
  24830588.352 2     -1258.515 2      -980.65845   5055260.906 2   3941722.35945
  24830585.54345        35.500          16.900  
  22925672.250 6      4113.464 6      3205.29746 -10091752.930 6  -7685652.00046
  22925667.43046        44.000          26.100  
 08  1 16 17 22 14.9990000  0  9G01G02G04G05G09G12G17G20G30    0.000391905
  25414560.859 3        96.407 3        75.12045    840906.602 3    674274.82845
  25414555.88745        36.200          16.900  
  20856533.414 7      2652.950 7      2067.23448  -8268998.027 7  -6414955.87148
  20856526.64848        48.900          34.400  
  20822459.539 7      -301.825 7      -235.18847   1095802.770 7    867413.74247
  20822454.44947        49.000          32.000  
  21404134.484 6      3180.999 6      2478.70147  -9264423.246 6  -7192879.43447
  21404129.55147        46.700          30.700  
  22951054.172 6     -2520.664 6     -1964.15247  10221815.809 6   7956862.32847
  22951050.88347        46.000          28.800  
  21081504.617 7      2301.048 7      1793.02548  -6599444.320 7  -5110008.93848
  21081498.81648        48.900          37.100  
  23835484.383 6     -2278.130 6     -1775.16546  11475526.113 6   8916378.04346
  23835479.32046        43.400          24.500  
  24834198.828 4     -1264.582 4      -985.39445   5074229.637 4   3956503.26645
  24834194.83245        38.700          16.300  
  22913937.359 6      4111.004 6      3203.37847 -10153417.992 6  -7733702.66847
  22913933.52747        44.300          27.100  
 08  1 16 17 22 29.9990000  0  9G01G02G04G05G09G12G17G20G30    0.000383770
  25414303.773 4        89.422 4        69.68045    839565.270 4    673229.62945
  25414300.69945        37.700          16.300  
  20848979.836 7      2646.313 7      2062.06148  -8308692.723 7  -6445886.78548
  20848972.91448        49.200          34.900  
  20823342.766 7      -309.476 7      -241.15047   1100444.914 7    871030.99647
  20823337.76647        49.300          32.900  
  21395069.742 6      3175.721 6      2474.58747  -9312059.063 6  -7229998.24247
  21395064.38747        46.400          31.700  
  22958260.773 6     -2524.261 6     -1966.95547  10259679.727 6   7986366.65247
  22958256.43447        46.000          27.900  
  21074952.797 7      2295.317 7      1788.55948  -6633874.070 7  -5136837.31648
  21074947.03148        49.800          37.400  
  23841987.047 5     -2278.205 5     -1775.22546  11509699.191 5   8943006.41446
  23841982.59046        42.100          25.800  
  24837825.836 4     -1270.746 4      -990.19045   5093290.824 4   3971356.11345
  24837821.92645        38.000          17.400  
  22902210.539 6      4108.407 6      3201.35747 -10215044.090 6  -7781723.02347
  22902206.30947        44.000          27.100  
 08  1 16 17 22 44.9990000  0  9G01G02G04G05G09G12G17G20G30    0.000375620
  25414069.391 4        82.376 4        64.19145    838329.633 4    672266.75845
  25414065.72345        37.600          17.400  
  20841445.719 7      2639.604 7      2056.83448  -8348286.777 7  -6476739.29348
  20841438.53948        48.900          34.900  
  20824248.219 7      -317.168 7      -247.14447   1105202.438 7    874738.15647
  20824243.20347        50.000          32.600  
  21386020.391 6      3170.366 6      2470.41547  -9359614.559 6  -7267054.46947
  21386015.43047        46.700          31.500  
  22965475.570 6     -2527.888 6     -1969.78247  10297598.047 6   8015913.38347
  22965472.19147        46.200          27.900  
  21068417.602 7      2289.505 7      1784.03148  -6668216.652 7  -5163597.77348
  21068411.90648        49.800          36.500  
  23848490.867 6     -2278.340 6     -1775.33046  11543874.297 6   8969636.36746
  23848485.83646        42.600          25.800  
  24841471.367 4     -1276.960 4      -995.03045   5112445.223 4   3986281.56345
  24841467.38345        37.500          17.400  
  22890491.328 6      4105.723 6      3199.26446 -10276629.938 6  -7829711.98846
  22890486.56646        43.300          26.200  
 08  1 16 17 22 59.9990000  0  9G01G02G04G05G09G12G17G20G30    0.000367456
  25413855.531 4        75.171 4        58.57445    837202.074 4    671388.14145
  25413851.60945        37.600          17.400  
  20833930.313 7      2632.714 7      2051.46548  -8387777.484 7  -6507511.26648
  20833923.69148        48.800          34.800  
  20825176.063 7      -325.038 7      -253.27647   1110078.008 7    878537.29347
  20825171.02347        49.100          33.000  
  21376987.008 6      3164.811 6      2466.08747  -9407086.723 6  -7304045.77047
  21376981.46947        47.200          30.300  
  22972702.078 6     -2531.670 6     -1972.72947  10335573.098 6   8045504.32447
  22972698.35247        46.100          27.200  
  21061899.461 7      2283.499 7      1779.34948  -6702469.129 7  -5190288.01648
  21061893.72348        49.800          36.500  
  23854994.414 5     -2278.650 5     -1775.56946  11578054.043 5   8996269.90646
  23854989.77046        42.000          25.700  
  24845134.547 3     -1283.338 3     -1000.00545   5131695.293 3   4001281.64545
  24845130.59445        36.900          18.300  
  22878779.773 6      4102.831 6      3197.01147 -10338172.402 6  -7877667.15247
  22878775.41047        45.200          26.300  
 08  1 16 17 23 14.9990000  0  9G01G02G04G05G09G12G17G20G30    0.000359276
  25413660.961 3        68.265 3        53.19045    836178.098 3    670590.28945
  25413657.38745        36.300          18.300  
  20826434.664 7      2626.108 7      2046.31848  -8427169.109 7  -6538206.03948
  20826427.71948        49.100          34.900  
  20826125.242 7      -332.592 7      -259.16347   1115066.891 7    882424.73447
  20826120.18047        49.000          32.200  
  21367968.063 6      3159.528 6      2461.97047  -9454479.645 6  -7340975.31647
  21367962.94147        46.800          31.100  
  22979937.820 6     -2535.126 6     -1975.42247  10373599.992 6   8075135.66047
  22979934.34047        45.900          27.500  
  21055397.594 7      2277.770 7      1774.88548  -6736635.672 7  -5216911.29348
  21055392.06348        49.300          37.100  
  23861499.688 5     -2278.665 5     -1775.58347  11612234.023 5   9022903.65247
  23861494.34847        41.800          26.600  
  24848815.281 4     -1289.394 4     -1004.72346   5151036.207 4   4016352.49246
  24848810.69146        38.800          19.600  
  22867076.461 6      4100.224 6      3194.97947 -10399675.758 6  -7925591.83647
  22867072.22347        45.900          27.200  
 08  1 16 17 23 29.9990000  0  9G01G02G04G05G09G12G17G20G30    0.000351082
  25413485.695 3        61.080 3        47.59345    835261.891 3    669876.39145
  25413482.93845        36.000          16.300  
  20818958.336 7      2619.204 7      2040.93848  -8466457.168 7  -6568820.10248
  20818951.46948        49.800          35.100  
  20827096.828 7      -340.430 7      -265.27047   1120173.340 7    886403.77747
  20827091.91847        49.500          32.800  
  21358965.781 6      3153.941 6      2457.61747  -9501788.758 6  -7377839.56647
  21358960.09847        46.400          31.300  
  22987185.000 6     -2538.839 6     -1978.31347  10411682.570 6   8104810.35947
  22987181.66447        45.500          27.100  
  21048913.328 7      2271.748 7      1770.19348  -6770711.891 7  -5243464.19148
  21048907.72348        50.000          36.900  
  23868004.398 5     -2278.953 5     -1775.80646  11646418.324 5   9049540.73846
  23867999.43046        42.200          25.900  
  24852513.875 5     -1295.733 5     -1009.66046   5170472.199 5   4031497.39846
  24852509.46946        39.900          20.400  
  22855381.023 6      4097.310 6      3192.70946 -10461135.410 6  -7973482.47746
  22855376.92246        44.600          26.100  
 08  1 16 17 23 44.9990000  0  9G01G02G04G05G09G12G17G20G30    0.000342876
  25413333.055 4        53.885 4        41.99045    834453.613 4    669246.53545
  25413328.64545        38.800          17.400  
  20811501.914 7      2612.276 7      2035.54048  -8505641.305 7  -6599353.19548
  20811495.37148        49.200          34.700  
  20828091.477 7      -348.255 7      -271.36847   1125397.172 7    890474.29347
  20828086.25847        49.000          32.600  
  21349979.000 6      3148.325 6      2453.24047  -9549013.629 6  -7414638.16047
  21349973.77347        46.800          30.900  
  22994442.828 6     -2542.538 6     -1981.19846  10449820.641 6   8134528.32846
  22994439.16846        46.200          25.600  
  21042446.352 7      2265.697 7      1765.47848  -6804697.344 7  -5269946.36348
  21042440.45348        50.300          37.000  
  23874509.891 5     -2279.248 5     -1776.03746  11680607.043 5   9076181.29346
  23874505.45346        41.200          25.300  
  24856230.352 5     -1302.052 5     -1014.58746   5190002.984 5   4046716.20346
  24856226.08646        39.800          19.300  
  22843694.047 6      4094.352 6      3190.40347 -10522550.688 6  -8021338.52047
  22843689.44547        45.700          27.400  
 08  1 16 17 23 59.9990000  0  9G01G02G04G05G09G12G17G20G30    0.000334656
  25413199.078 4        46.789 4        36.46045    833751.774 4    668699.63545
  25413195.05145        39.000          17.800  
  20804064.938 7      2605.418 7      2030.19648  -8544722.582 7  -6629806.13348
  20804058.38748        49.300          35.500  
  20829107.328 7      -355.997 7      -277.40047   1130737.129 7    894635.29747
  20829102.38347        49.400          32.900  
  21341007.773 6      3142.762 6      2448.90547  -9596155.055 6  -7451371.73847
  21341002.91847        46.600          31.200  
  23001710.766 6     -2546.131 6     -1983.99747  10488012.605 6   8164288.28147
  23001706.41447        45.800          27.300  
  21035995.602 7      2259.698 7      1760.80348  -6838592.813 7  -5296358.41448
  21035990.00848        50.200          37.100  
  23881016.461 6     -2279.463 6     -1776.20447  11714798.988 6   9102824.34847
  23881012.13347        42.800          27.200  
  24859964.211 4     -1308.282 4     -1019.44046   5209627.211 4   4062007.79746
  24859960.30546        38.500          20.100  
  22832015.422 6      4091.456 6      3188.14847 -10583922.523 6  -8069160.73847
  22832010.96547        45.700          28.500  
 08  1 16 17 24 14.9990000  0 10G01G02G04G05G09G12G17G20G29G30    0.000326424
  25413085.375 4                                    833158.719 4    668237.52045
  25413081.50445        38.900          17.800  
  20796648.102 7      2598.382 7      2024.71448  -8583698.316 7  -6660176.83648
  20796641.16048        49.400          35.500  
  20830146.211 7                                   1136195.270 7    898888.38347
  20830141.21947        49.100          32.900  
  21332053.828 6                                  -9643210.438 6  -7488038.27047
  21332049.21947        46.500          31.000  
  23008988.875 6     -2549.852 6     -1986.89747  10526260.379 6   8194091.73847
  23008984.26647        45.400          26.900  
  21029563.359 7                                  -6872395.906 7  -5322698.48048
  21029557.87148        48.800          37.700  
  23887523.938 5                                  11748996.441 5   9129471.70346
  23887519.87146        42.100          25.300  
  24863717.039 4                                   5229347.051 4   4077373.88746
  24863712.78546        38.000          19.300  
  25428850.023 5                                   -147994.88715    -28955.88356
  25428845.26646        39.900          20.400  
  22820346.141 6                                 -10645248.164 6  -8116946.95747
  22820340.87147        46.300          27.100  
 08  1 16 17 24 29.9990000  0 10G01G02G04G05G09G12G17G20G29G30    0.000318178
  25412994.609 4        32.409 4        25.25345    832672.586 4    667858.71945
  25412988.99245        37.600          18.300  
  20789250.820 7      2591.449 7      2019.31048  -8622570.059 7  -6690466.49248
  20789244.34048        49.700          35.300  
  20831207.063 7      -371.634 7      -289.58547   1141769.785 7    903232.15247
  20831201.84047        49.300          33.200  
  21323115.703 7      3131.380 7      2440.03647  -9690181.133 7  -7524638.80947
  21323110.37147        47.600          30.600  
  23016277.664 6     -2553.437 6     -1989.69146  10564561.934 6   8223937.09846
  23016273.20346        44.900          26.000  
  21023147.648 7      2247.474 7      1751.27948  -6906108.016 7  -5348967.66048
  21023142.78548        49.600          37.100  
  23894032.617 5     -2280.071 5     -1776.67846  11783197.500 5   9156121.86746
  23894027.71946        42.100          24.800  
  24867488.117 4     -1320.901 4     -1029.27446   5249160.559 4   4092812.99646
  24867482.98046        38.800          20.900  
  25417128.344 2      4106.69712      3200.02156   -209595.348 2    -76956.19146
  25417123.88346        35.400          19.900  
  22808684.227 6      4085.398 6      3183.42647 -10706529.133 6  -8164698.35247
  22808679.68047        45.000          29.600  
 08  1 16 17 24 44.9990000  0 10G01G02G04G05G09G12G17G20G29G30    0.000309919
  25412921.156 4        25.218 4        19.64845    832294.313 4    667563.99245
  25412917.43045        37.900          18.300  
  20781874.141 7      2584.431 7      2013.84248  -8661336.520 7  -6720674.12148
  20781867.30148        50.000          35.600  
  20832289.938 7      -379.460 7      -295.68347   1147461.691 7    907667.39847
  20832284.98847        50.000          33.400  
  21314193.609 6      3125.633 6      2435.55847  -9737065.629 6  -7561172.17247
  21314188.73047        46.400          30.400  
  23023576.359 6     -2557.078 6     -1992.52746  10602918.102 6   8253824.99646
  23023571.69146        45.200          25.300  
  21016750.563 7      2241.306 7      1746.47248  -6939727.602 7  -5375164.74248
  21016744.91448        49.800          37.300  
  23900541.570 5     -2280.384 5     -1776.92246  11817403.254 5   9182775.69146
  23900536.53146        42.000          25.300  
  24871276.328 5     -1327.211 5     -1034.19046   5269068.723 5   4108325.84846
  24871271.70746        40.400          21.100  
  25405404.008 3      4107.420 3      3200.58645   -271206.656 3   -124964.98445
  25405399.48445        36.300          17.400  
  22797031.883 6      4082.321 6      3181.02947 -10767763.949 6  -8212413.78547
  22797027.14847        45.400          28.700  
 08  1 16 17 24 59.9990000  0 10G01G02G04G05G09G12G17G20G29G30    0.000301651
  25412872.547 4        17.678 4        13.77945    832029.148 4    667357.31345
  25412867.62545        37.900          17.400  
  20774517.836 7      2577.056 7      2008.09648  -8699992.359 7  -6750795.56348
  20774511.27348        50.300          35.900  
  20833396.508 7      -387.606 7      -302.03047   1153275.781 7    912197.84847
  20833391.43047        49.100          33.300  
  21305289.648 6      3119.524 6      2430.79947  -9783858.496 6  -7597634.15647
  21305284.56347        47.300          30.400  
  23030886.477 6     -2561.038 6     -1995.61346  10641333.672 6   8283759.19546
  23030882.32046        44.800          24.600  
  21010371.383 7      2234.781 7      1741.38848  -6973249.316 7  -5401285.55948
  21010366.03548        50.300          37.000  
  23907053.063 6     -2281.039 6     -1777.43246  11851618.836 6   9209437.16446
  23907047.57446        43.200          25.100  
  24875082.102 4     -1333.843 4     -1039.35646   5289076.363 4   4123916.19146
  24875079.28546        38.500          21.300  
  25393677.852 4      4107.808 4      3200.89346   -332823.777 4   -172978.37946
  25393674.79746        38.300          19.300  
  22785388.883 6      4078.878 6      3178.34647 -10828947.113 6  -8260088.97347
  22785384.11747        45.900          27.900  
 08  1 16 17 25 14.9990000  0 10G01G02G04G05G09G12G17G20G29G30    0.000293367
  25412841.484 5        10.519 5         8.19445    831871.359 5    667234.39845
  25412837.89145        39.300          16.900  
  20767182.305 7      2570.038 7      2002.62648  -8738542.922 7  -6780834.95748
  20767175.34048        50.000          35.600  
  20834524.938 7      -395.387 7      -308.09447   1159206.590 7    916819.25447
  20834520.02747        49.600          33.300  
  21296401.391 6      3113.761 6      2426.30847  -9830564.918 6  -7634028.77047
  21296396.64547        46.700          30.200  
  23038206.688 6     -2564.599 6     -1998.38846  10679802.660 6   8313735.02046
  23038202.51646        44.600          25.300  
  21004010.531 7      2228.608 7      1736.57748  -7006678.438 7  -5427334.21948
  21004004.60248        49.300          37.700  
  23913564.633 6     -2281.315 6     -1777.64646  11885838.555 6   9236101.85946
  23913559.57046        43.700          25.500  
  24878907.227 3     -1340.085 3     -1044.21946   5309177.633 3   4139579.47346
  24878904.23846        36.700          19.600  
  25381950.766 4      4108.542 4      3201.46145   -394451.918 4   -221000.29345
  25381947.49645        37.500          17.400  
  22773755.594 6      4075.769 6      3175.92547 -10890083.648 6  -8307727.84447
  22773750.28147        45.100          27.700  
 08  1 16 17 25 29.9990000  0 10G01G02G04G05G09G12G17G20G29G30    0.000285074
  25412831.523 4         3.208 4         2.50445    831823.234 4    667196.84445
  25412828.27745        37.800          16.900  
  20759866.781 7      2562.846 7      1997.02348  -8776985.613 7  -6810790.30148
  20759859.81348        50.200          35.700  
  20835676.227 7      -403.301 7      -314.26047   1165256.105 7    921533.14847
  20835671.12547        50.300          33.000  
  21287530.398 6      3107.826 6      2421.68247  -9877182.305 6  -7670354.00447
  21287525.99247        47.000          30.900  
  23045538.195 6     -2568.288 6     -2001.26246  10718326.977 6   8343753.94946
  23045533.43846        45.000          25.800  
  20997667.031 7      2222.268 7      1731.63848  -7040012.457 7  -5453308.78948
  20997661.75448        50.100          37.300  
  23920078.070 6     -2281.737 6     -1777.97746  11920064.609 6   9262771.51246
  23920072.46146        43.200          26.200  
  24882751.195 3     -1346.473 3     -1049.19245   5329374.730 3   4155317.35245
  24882747.54345        37.300          18.600  
  25370222.188 5      4109.112 5      3201.90246   -456088.594 5   -269028.82846
  25370219.05546        39.300          20.100  
  22762130.625 6      4072.488 6      3173.36747 -10951170.973 6  -8355328.34847
  22762125.33247        44.700          26.500  
 08  1 16 17 25 44.9990000  0 10G01G02G04G05G09G12G17G20G29G30    0.000276772
  25412844.188 4        -4.226 4        -3.29645    831886.625 4    667246.28545
  25412840.48045        37.500          17.400  
  20752572.695 7      2555.512 7      1991.30848  -8815318.297 7  -6840659.92648
  20752565.44948        50.700          36.100  
  20836850.375 7      -411.349 7      -320.53148   1171426.348 7    926341.11748
  20836845.27048        50.000          34.000  
  21278677.234 6      3101.728 6      2416.93147  -9923708.230 6  -7706607.96947
  21278672.30147        47.100          31.600  
  23052879.555 6     -2572.087 6     -2004.22346  10756908.289 6   8373817.29346
  23052875.45746        44.400          25.500  
  20991342.305 7      2215.784 7      1726.58448  -7073249.211 7  -5479207.55548
  20991336.86748        49.600          37.100  
  23926592.313 6     -2282.296 6     -1778.41146  11954299.047 6   9289447.67246
  23926587.61746        43.100          24.700  
  24886613.555 2     -1352.995 2     -1054.28145   5349669.648 2   4171131.56345
  24886609.93845        34.100          17.800  
  25358491.320 3      4109.535 3      3202.23945   -517731.617 3   -317062.40645
  25358488.68445        36.700          18.300  
  22750516.078 6      4069.030 6      3170.67347 -11012206.422 6  -8402888.43847
  22750510.98047        44.600          28.500  
 08  1 16 17 25 59.9990000  0 10G01G02G04G05G09G12G17G20G29G30    0.000268457
  25412877.281 4       -11.566 4        -9.01245    832060.117 4    667381.47345
  25412873.27745        38.400          16.300  
  20745298.313 7      2548.236 7      1985.63848  -8853541.832 7  -6870444.49248
  20745291.89148        50.300          35.900  
  20838047.273 7      -419.301 7      -326.72847   1177715.855 7    931242.03147
  20838041.82847        50.400          33.400  
  21269840.602 6      3095.685 6      2412.22247  -9970143.512 6  -7742791.30547
  21269835.83647        47.000          30.400  
  23060232.063 6     -2575.793 6     -2007.11046  10795545.180 6   8403923.93846
  23060227.85946        44.300          26.200  
  20985035.813 7      2209.350 7      1721.57248  -7106389.465 7  -5505031.12948
  20985030.60548        49.400          37.400  
  23933108.445 6     -2282.781 6     -1778.78946  11988540.762 6   9316129.50446
  23933102.89546        43.400          25.400  
  24890493.438 2     -1359.420 2     -1059.28645   5370060.953 2   4187020.84845
  24890490.46545        34.000          17.800  
  25346760.305 3      4110.035 3      3202.62346   -579382.141 3   -365101.75046
  25346756.73046        35.800          19.000  
  22738911.227 6      4065.633 6      3168.02747 -11073190.922 6  -8450408.84447
  22738906.16447        43.900          27.300  
 08  1 16 17 26 14.9990000  0 10G01G02G04G05G09G12G17G20G29G30    0.000260134
  25412931.211 5       -19.065 5       -14.86145    832346.098 5    667604.39145
  25412927.57045        39.500          16.300  
  20738046.234 7      2540.798 7      1979.84448  -8891653.805 7  -6900142.14548
  20738039.43048        50.600          35.600  
  20839267.078 7      -427.399 7      -333.03947   1184126.848 7    936237.61347
  20839261.91847        50.200          33.000  
  21261022.578 6      3089.473 6      2407.38147 -10016485.605 6  -7778902.02347
  21261017.16847        47.400          30.700  
  23067595.852 6     -2579.617 6     -2010.09146  10834239.430 6   8434075.29746
  23067590.97746        43.500          26.000  
  20978748.242 7      2202.750 7      1716.42948  -7139430.719 7  -5530777.56348
  20978743.08248        49.800          37.700  
  23939626.031 6     -2283.407 6     -1779.27746  12022791.863 6   9342818.66446
  23939620.65646        43.400          25.600  
  24894392.445 3     -1365.964 3     -1064.38745   5390550.414 3   4202986.66045
  24894389.53145        36.500          15.600  
  25335027.953 4      4110.365 4      3202.88046   -641037.617 4   -413144.94546
  25335024.97346        38.500          21.800  
  22727316.688 6      4062.072 6      3165.25047 -11134122.004 6  -8497887.59447
  22727311.07047        45.100          26.800  
 08  1 16 17 26 29.9990000  0 10G01G02G04G05G09G12G17G20G29G30    0.000251799
  25413007.008 5       -26.288 5       -20.48045    832740.414 5    667911.59045
  25413002.62545        40.200          17.400  
  20730813.969 7      2533.617 7      1974.24648  -8929658.055 7  -6929755.83248
  20730807.48848        49.800          36.200  
  20840509.461 7      -435.221 7      -339.13347   1190655.168 7    941324.60547
  20840504.23447        50.600          33.100  
  21252220.250 6      3083.501 6      2402.72847 -10062738.117 6  -7814942.94147
  21252215.80947        46.100          31.100  
  23074969.000 6     -2583.156 6     -2012.84846  10872986.773 6   8464268.01646
  23074964.15246        43.900          25.900  
  20972479.188 7      2196.395 7      1711.47648  -7172376.641 7  -5556449.70348
  20972473.98048        48.000          37.800  
  23946144.453 6     -2283.767 6     -1779.55746  12057048.367 6   9369512.02046
  23946139.65646        43.400          25.400  
  24898310.414 3     -1372.246 3     -1069.27745   5411134.109 3   4219025.81345
  24898306.16845        36.000          15.600  
  25323292.336 4      4110.963 4      3203.35145   -702702.059 4   -461195.21545
  25323289.61745        37.700          18.600  
  22715730.859 6      4058.746 6      3162.66047 -11195003.199 6  -8545327.50047
  22715725.52347        45.400          27.100  
 08  1 16 17 26 44.9990000  0 10G01G02G04G05G09G12G17G20G29G30    0.000243452
  25413101.547 4       -33.532 4       -26.12645    833243.391 4    668303.47345
  25413098.32845        38.700          16.900  
  20723603.148 7      2526.393 7      1968.61848  -8967553.945 7  -6959285.10248
  20723595.94148        50.500          35.800  
  20841773.758 7      -443.049 7      -345.23347   1197300.910 7    946503.10547
  20841768.71947        50.700          32.800  
  21243436.063 7      3077.477 7      2398.03447 -10108900.277 7  -7850913.44547
  21243431.36747        48.100          31.000  
  23082352.172 6     -2586.692 6     -2015.60346  10911787.148 6   8494502.05946
  23082348.07446        43.200          25.700  
  20966227.305 7      2189.985 7      1706.48348  -7205226.422 7  -5582046.94548
  20966222.53148        48.800          37.800  
  23952664.492 6     -2284.142 6     -1779.85146  12091310.504 6   9396209.78146
  23952659.66446        43.600          24.000  
  24902245.367 3     -1378.532 3     -1074.18445   5431812.086 3   4235138.57445
  24902240.87545        37.300          16.300  
  25311556.891 4      4111.509 4      3203.76745   -764374.695 4   -509251.71945
  25311554.06645        37.700          18.600  
  22704155.055 6      4055.373 6      3160.03147 -11255833.789 6  -8592727.95747
  22704150.42247        44.200          28.100  
 08  1 16 17 26 59.9990000  0 10G01G02G04G05G09G12G17G20G29G30    0.000235092
  25413217.773 4       -40.686 4       -31.70445    833853.688 4    668779.03145
  25413214.21145        37.700          16.300  
  20716411.992 7      2519.241 7      1963.04548  -9005342.559 7  -6988730.77048
  20716405.10548        50.000          36.300  
  20843061.406 7      -450.797 7      -351.27047   1204062.863 7    951772.14847
  20843055.92647        50.200          33.600  
  21234668.695 6      3071.513 6      2393.38747 -10154972.977 6  -7886814.25447
  21234663.75847        46.600          31.800  
  23089745.313 6     -2590.125 6     -2018.27946  10950639.031 6   8524776.24246
  23089741.14146        43.300          25.800  
  20959994.977 7      2183.652 7      1701.54748  -7237981.199 7  -5607570.14548
  20959989.73848        47.900          37.600  
  23959184.969 6     -2284.429 6     -1780.07346  12125576.941 6   9422910.88346
  23959180.34846        42.800          24.900  
  24906197.414 4     -1384.714 4     -1078.99745   5452582.789 4   4251323.53145
  24906193.30545        38.300          16.900  
  25299818.953 3      4112.129 3      3204.25546   -826056.629 3   -557315.54346
  25299816.83246        36.400          21.500  
  22692589.453 6      4052.057 6      3157.44747 -11316614.648 6  -8640089.66047
  22692584.37547        45.100          27.800  
 08  1 16 17 27 14.9990000  0 10G01G02G04G05G09G12G17G20G29G30    0.000226723
  25413355.859 3       -48.070 3       -37.46045    834574.742 3    669340.93045
  25413351.13745        37.300          16.900  
  20709242.117 7      2511.827 7      1957.26848  -9043019.957 7  -7018089.78548
  20709235.52048        51.100          35.900  
  20844370.211 7      -458.777 7      -357.48947   1210944.523 7    957134.48447
  20844365.48847        50.400          33.000  
  21225918.992 7      3065.285 7      2388.53447 -10200952.254 7  -7922642.26647
  21225913.92247        47.800          30.500  
  23097149.492 6     -2593.781 6     -2021.12847  10989545.746 6   8555093.15647
  23097144.80947        43.200          27.400  
  20953780.953 7      2177.055 7      1696.40648  -7270637.027 7  -5633016.24248
  20953775.78548        49.100          38.000  
  23965707.398 6     -2284.968 6     -1780.49446  12159851.465 6   9449618.29346
  23965702.84446        43.000          24.400  
  24910169.320 4     -1391.135 4     -1083.99645   5473449.813 4   4267583.47345
  24910164.00845        37.400          17.800  
  25288079.125 2      4112.501 2      3204.54446   -887744.145 2   -605383.70746
  25288077.78146        34.500          19.000  
  22681033.047 6      4048.468 6      3154.65047 -11377341.672 6  -8687409.41047
  22681028.44547        45.000          27.100  
 08  1 16 17 27 29.9990000  0 10G01G02G04G05G09G12G17G20G29G30    0.000218346
  25413513.617 4       -55.631 4       -43.35045    835409.211 4    669991.17645
  25413510.30545        37.400          16.900  
  20702094.242 7      2504.231 7      1951.34948  -9080583.430 7  -7047360.02348
  20702087.12148        50.300          35.800  
  20845703.414 7      -466.913 7      -363.82747   1217948.219 7    962591.89547
  20845698.53947        51.100          33.100  
  21217187.734 7      3058.868 7      2383.53347 -10246835.270 7  -7958395.26247
  21217183.02747        48.000          31.000  
  23104564.180 6     -2597.588 6     -2024.09347  11028509.563 6   8585454.54747
  23104559.69947        43.300          26.700  
  20947585.977 7      2170.272 7      1691.12148  -7303191.105 7  -5658383.06348
  20947580.42248        50.700          37.500  
  23972231.945 6     -2285.675 6     -1781.04346  12194136.582 6   9476333.93846
  23972226.62546        42.800          22.900  
  24914158.602 5     -1397.710 5     -1089.12045   5494415.465 5   4283920.26645
  24914153.24645        40.200          18.300  
  25276340.758 4      4112.687 4      3204.69845   -949434.453 4   -653454.18445
  25276338.01245        37.500          18.300  
  22669487.555 6      4044.689 6      3151.70747 -11438012.012 6  -8734685.00847
  22669483.33247        45.100          27.800  
 08  1 16 17 27 44.9990000  0 10G01G02G04G05G09G12G17G20G29G30    0.000209959
  25413693.836 4       -63.018 4       -49.10445    836354.477 4    670727.73445
  25413689.85545        38.800          16.300  
  20694967.195 7      2496.779 7      1945.54248  -9118035.117 7  -7076543.15248
  20694960.75848        50.000          35.700  
  20847058.648 7      -474.871 7      -370.02848   1225071.277 7    968142.32048
  20847053.65648        50.500          34.300  
  21208474.250 7      3052.575 7      2378.63047 -10292623.902 7  -7994074.71547
  21208469.28947        48.300          31.500  
  23111988.125 6     -2601.203 6     -2026.91047  11067527.602 6   8615858.19947
  23111984.75447        43.800          26.300  
  20941410.234 7      2163.621 7      1685.93848  -7335645.422 7  -5683672.13348
  20941404.93448        50.000          38.400  
  23978757.586 6     -2286.236 6     -1781.48146  12228430.125 6   9503056.14846
  23978753.02346        43.000          23.500  
  24918166.508 5     -1404.116 5     -1094.11946   5515477.207 5   4300332.04346
  24918161.28946        40.800          19.000  
  25264599.664 2      4113.027 2      3204.94846  -1011129.855 2   -701528.40646
  25264598.07446        34.600          19.600  
  22657952.914 6      4041.038 6      3148.86047 -11498627.578 6  -8781917.91447
  22657948.77347        44.900          27.200  
 08  1 16 17 27 59.9990000  0 10G01G02G04G05G09G12G17G20G29G30    0.000201563
  25413896.008 5       -70.464 5       -54.90645    837411.434 5    671551.32045
  25413891.24645        39.900          17.400  
  20687861.828 7      2489.253 7      1939.67848  -9155373.906 7  -7105638.31648
  20687855.37148        49.800          36.200  
  20848436.938 7      -482.899 7      -376.28448   1232314.762 7    973786.58648
  20848432.22348        50.100          33.800  
  21199779.219 7      3046.208 7      2373.66947 -10338317.031 7  -8029679.75447
  21199774.44547        48.000          31.000  
  23119424.086 6     -2604.860 6     -2029.76046  11106600.500 6   8646304.59446
  23119419.90646        44.000          25.000  
  20935253.398 7      2156.893 7      1680.69648  -7367998.816 7  -5708882.57848
  20935248.44948        49.900          38.600  
  23985285.477 6     -2286.808 6     -1781.92846  12262732.250 6   9529785.07446
  23985280.01646        43.800          24.500  
  24922193.070 5     -1410.584 5     -1099.16646   5536635.961 5   4316819.53546
  24922187.80946        40.100          20.100  
  25252860.547 4      4113.292 4      3205.16545  -1072829.238 4   -749605.87545
  25252856.58245        38.400          17.800  
  22646428.359 6      4037.296 6      3145.94647 -11559187.023 6  -8829107.10247
  22646424.20747        44.500          26.900  
 08  1 16 17 28 14.9990000  0  9G02G04G05G09G12G17G20G29G30    0.000193157
  20680778.313 7      2481.674 7      1933.77248  -9192599.016 7  -7134644.89548
  20680771.83648        50.100          36.100  
  20849838.273 7                                   1239678.793 7    979524.78947
  20849833.69147        50.300          33.700  
  21191102.984 7                                 -10383913.727 7  -8065209.64547
  21191097.85547        48.000          31.800  
  23126870.125 6     -2608.520 6     -2032.61147  11145728.293 6   8676793.76647
  23126865.84847        43.200          26.800  
  20929116.438 7                                  -7400250.672 7  -5734013.88348
  20929110.95348        50.000          38.300  
  23991814.109 6                                  12297043.891 6   9556521.39146
  23991809.55946        44.100          25.400  
  24926236.688 5                                   5557891.582 5   4333382.37946
  24926232.95346        39.200          20.900  
  25241116.484 4      4113.522 4      3205.34145  -1134532.074 4   -797685.98845
  25241114.59845        37.400          17.800  
  22634915.430 6      4033.502 6      3142.98947 -11619689.555 6  -8876251.94147
  22634911.08647        45.100          27.400  
 08  1 16 17 28 29.9990000  0  9G02G04G05G09G12G17G20G29G30    0.000184744
  20673716.156 7      2474.081 7      1927.85648  -9229710.234 7  -7163562.73048
  20673709.69948        50.400          36.000  
  20851262.695 7      -498.979 7      -388.81447   1247163.473 7    985357.00447
  20851258.19547        50.300          33.600  
  21182444.211 7      3033.318 7      2363.62447 -10429413.492 7  -8100664.00847
  21182439.45747        47.800          31.500  
  23134326.055 6     -2612.160 6     -2035.44747  11184910.688 6   8707325.47747
  23134321.91047        42.600          26.400  
  20922998.484 7      2143.340 7      1670.13548  -7432400.770 7  -5759065.91048
  20922992.89148        48.800          37.800  
  23998345.586 6     -2288.078 6     -1782.91846  12331365.063 6   9583265.16046
  23998340.46946        43.600          25.300  
  24930300.563 5     -1423.514 5     -1109.23646   5579244.293 5   4350020.91846
  24930296.29746        40.300          21.700  
  25229375.523 5      4113.726 5      3205.49646  -1196237.969 5   -845768.43446
  25229372.91846        39.800          20.100  
  22623413.109 6      4029.673 6      3140.00447 -11680134.656 6  -8923351.99647
  22623409.11347        45.000          27.200  
 08  1 16 17 28 44.9990000  0  9G02G04G05G09G12G17G20G29G30    0.000176321
  20666675.758 7      2466.542 7      1921.98048  -9266708.355 7  -7192392.43848
  20666669.29748        49.900          36.300  
  20852709.594 7      -506.930 7      -395.01047   1254767.422 7    991282.15647
  20852704.97747        49.900          33.600  
  21173803.961 6      3026.907 6      2358.62947 -10474817.102 6  -8136043.44147
  21173799.42247        46.400          30.800  
  23141792.516 6     -2615.719 6     -2038.22147  11224146.477 6   8737898.79747
  23141788.60947        43.200          26.500  
  20916899.461 7      2136.578 7      1664.86648  -7464449.438 7  -5784038.89848
  20916894.25848        48.200          38.300  
  24004878.602 6     -2288.639 6     -1783.35346  12365694.645 6   9610015.45346
  24004873.05946        43.900          23.000  
  24934382.656 4     -1429.899 4     -1114.21146   5600692.777 4   4366734.08246
  24934377.51646        37.800          21.100  
  25217632.320 5      4113.978 5      3205.69646  -1257947.629 5   -893853.87546
  25217629.69946        39.200          20.400  
  22611922.305 6      4025.885 6      3137.05347 -11740522.930 6  -8970407.79347
  22611917.37947        43.900          26.800  
 08  1 16 17 28 59.9990000  0  9G02G04G05G09G12G17G20G29G30    0.000167889
  20659656.797 7      2459.078 7      1916.16448  -9303594.523 7  -7221134.89848
  20659650.07448        50.200          36.300  
  20854179.422 7      -514.797 7      -401.14047   1262489.375 7    997299.25047
  20854174.52347        50.200          33.600  
  21165182.008 7      3020.556 7      2353.68047 -10520125.441 7  -8171348.64847
  21165177.34447        47.600          30.900  
  23149268.531 6     -2619.170 6     -2040.91047  11263434.027 6   8768512.44547
  23149264.64847        42.800          26.800  
  20910819.969 7      2129.888 7      1659.65348  -7496397.762 7  -5808933.69148
  20910814.49648        48.900          38.200  
  24011412.484 6     -2289.119 6     -1783.72846  12400031.426 6   9636771.37146
  24011407.47346        43.700          22.900  
  24938481.555 4     -1436.178 4     -1119.10446   5622235.449 4   4383520.64846
  24938476.84446        38.400          20.100  
  25205888.211 4      4114.323 4      3205.96646  -1319662.480 4   -941943.36746
  25205885.96946        37.600          19.000  
  22600440.945 6      4022.156 6      3134.14847 -11800855.270 6  -9017420.01647
  22600436.45347        43.200          27.200  
 08  1 16 17 29 14.9990000  0  9G02G04G05G09G12G17G20G29G30    0.000159443
  20652657.945 7      2451.798 7      1910.49348  -9340371.500 7  -7249792.28948
  20652651.69148        50.700          36.500  
  20855670.406 7      -522.449 7      -407.10347   1270326.117 7   1003405.79747
  20855665.44547        50.500          33.500  
  21156578.055 7      3014.384 7      2348.87047 -10565341.199 7  -8206581.69947
  21156573.17247        48.200          30.900  
  23156754.391 6     -2622.395 6     -2043.42447  11302769.957 6   8799163.80947
  23156749.95747        43.000          26.500  
  20904759.023 7      2123.384 7      1654.58548  -7528248.516 7  -5833752.46548
  20904753.55548        49.300          37.500  
  24017947.164 6     -2289.389 6     -1783.93946  12434372.258 6   9663530.46146
  24017941.70746        43.900          24.000  
  24942597.953 2     -1442.241 2     -1123.82446   5643869.066 2   4400378.00846
  24942593.71146        35.200          20.400  
  25194142.430 4      4114.858 4      3206.38345  -1381385.350 4   -990039.11545
  25194140.21945        38.800          18.300  
  22588970.750 6      4018.603 6      3131.37947 -11861134.316 6  -9064390.69547
  22588966.27347        44.000          28.400  
 08  1 16 17 29 29.9990000  0  9G02G04G05G09G12G17G20G29G30    0.000150990
  20645681.203 7      2444.164 7      1904.54348  -9377033.957 7  -7278360.43848
  20645674.86748        50.300          36.100  
  20857184.492 7      -530.432 7      -413.32347   1278282.598 7   1009605.64847
  20857179.63747        50.200          33.600  
  21147992.641 6      3007.843 6      2343.77447 -10610458.844 6  -8241738.30947
  21147987.75447        47.500          31.100  
  23164249.672 6     -2625.936 6     -2046.18247  11342158.992 6   8829856.54347
  23164245.34047        42.800          27.100  
  20898717.875 7      2116.520 7      1649.23648  -7559996.309 7  -5858491.00448
  20898712.59048        49.600          39.100  
  24024484.203 6     -2290.003 6     -1784.41746  12468722.297 6   9690296.71546
  24024478.76246        44.600          23.800  
  24946732.352 2     -1448.636 2     -1128.80245   5665598.605 2   4417310.03945
  24946728.88345        34.600          18.600  
  25182397.336 4      4115.018 4      3206.50946  -1443110.617 4  -1038136.74646
  25182394.33246        38.800          20.600  
  22577511.320 6      4014.680 6      3128.32047 -11921354.512 6  -9111315.50047
  22577506.53547        43.200          27.100  
 08  1 16 17 29 44.9990000  0  9G02G04G05G09G12G17G20G29G30    0.000142525
  20638725.320 7      2436.851 7      1898.84548  -9413586.719 7  -7306843.11348
  20638718.85248        51.000          36.000  
  20858720.313 7      -538.071 7      -419.27547   1286353.656 7   1015894.77347
  20858715.38347        50.000          33.400  
  21139424.672 7      3001.625 7      2338.92947 -10655483.223 7  -8276822.24247
  21139419.87947        47.900          31.500  
  23171754.203 6     -2629.107 6     -2048.65446  11381595.602 6   8860586.34846
  23171750.10246        43.400          26.100  
  20892694.391 7      2109.987 7      1644.14648  -7591646.113 7  -5883153.19148
  20892689.21148        49.100          38.300  
  24031021.531 6     -2290.266 6     -1784.62246  12503076.289 6   9717066.03946
  24031015.92246        44.100          22.800  
  24950884.664 2     -1454.665 2     -1133.49445   5687418.574 2   4434312.44945
  24950881.64545        34.400          17.800  
  25170649.469 5      4115.533 5      3206.90745  -1504843.613 5  -1086240.35245
  25170646.58245        39.900          17.800  
  22566061.266 6      4011.075 6      3125.51447 -11981520.645 6  -9158198.21147
  22566057.20747        43.600          26.300  
 08  1 16 17 29 59.9990000  0  9G02G04G05G09G12G17G20G29G30    0.000134048
  20631790.531 7      2429.565 7      1893.16848  -9450030.199 7  -7335240.62948
  20631784.07048        50.500          36.500  
  20860277.922 7      -545.646 7      -425.17848   1294538.348 7   1022272.44948
  20860273.23848        50.200          33.800  
  21130874.250 7      2995.419 7      2334.09347 -10700414.508 7  -8311833.64147
  21130869.31647        49.000          30.900  
  23179267.555 6     -2632.234 6     -2051.09046  11421079.113 6   8891352.69546
  23179263.73846        43.200          26.200  
  20886690.094 7      2103.470 7      1639.06848  -7623198.168 7  -5907739.20748
  20886685.25448        49.100          37.300  
  24037559.500 6     -2290.496 6     -1784.80246  12537433.723 6   9743838.07046
  24037554.10946        44.300          22.900  
  24955053.891 1     -1460.660 1     -1138.16845   5709328.477 1   4451384.97745
  24955050.52345        32.600          16.900  
  25158901.734 5      4116.061 5      3207.32346  -1566584.531 5  -1134350.19946
  25158897.23846        39.900          19.000  
  22554622.867 6      4007.491 6      3122.72047 -12041633.012 6  -9205039.00847
  22554618.62547        42.900          28.000  
 08  1 16 17 30 14.9990000  0  9G02G04G05G09G12G17G20G29G30    0.000125563
  20624877.609 7      2421.847 7      1887.15448  -9486357.906 7  -7363547.93848
  20624871.20748        49.900          36.100  
  20861858.070 7      -553.647 7      -431.41248   1302843.051 7   1028743.63348
  20861853.54748        50.500          34.500  
  21122343.352 6      2988.764 6      2328.90747 -10745245.969 6  -8346767.25047
  21122338.50047        47.400          31.700  
  23186790.797 5     -2635.756 5     -2053.83647  11460615.457 5   8922160.23047
  23186787.03947        42.400          26.800  
  20880706.648 7      2096.505 7      1633.64148  -7654645.746 7  -5932243.82048
  20880701.28948        49.000          38.200  
  24044099.469 6     -2291.144 6     -1785.30746  12571800.887 6   9770617.66846
  24044094.01246        43.800          22.500  
  24959242.086 2     -1467.057 2     -1143.15345   5731334.332 2   4468532.27045
  24959238.27745        34.900          16.300  
  25147150.414 5      4116.155 5      3207.38846  -1628326.852 5  -1182461.02046
  25147149.25046        39.500          20.600  
  22543194.586 6      4003.446 6      3119.56847 -12101684.699 6  -9251832.52347
  22543191.00447        43.900          26.800  
 08  1 16 17 30 29.9990000  0  9G02G04G05G09G12G17G20G29G30    0.000117069
  20617986.477 7      2414.242 7      1881.22748  -9522571.539 7  -7391766.34848
  20617979.67248        50.300          36.700  
  20863460.969 7      -561.500 7      -437.53248   1311265.547 7   1035306.60948
  20863456.04748        50.000          33.900  
  21113831.203 7      2982.227 7      2323.81247 -10789979.367 7  -8381624.43447
  21113826.25847        48.200          31.900  
  23194324.836 6     -2639.116 6     -2056.45047  11500202.199 6   8953006.98847
  23194320.28147        42.800          27.200  
  20874741.594 7      2089.665 7      1628.31048  -7685990.719 7  -5956668.47348
  20874736.28148        49.600          38.300  
  24050640.328 6     -2291.657 6     -1785.70746  12606175.746 6   9797403.27346
  24050635.11346        44.100          22.600  
  24963447.742 3     -1473.310 3     -1148.03445   5753433.988 3   4485752.78545
  24963443.94945        36.300          18.300  
  25135402.758 5      4116.376 5      3207.56346  -1690072.496 5  -1230574.47346
  25135399.05946        40.300          19.600  
  22531778.594 6      3999.519 6      3116.50846 -12161677.477 6  -9298580.14546
  22531774.55546        42.700          26.200  
 08  1 16 17 30 44.9990000  0  9G02G04G05G09G12G17G20G29G30    0.000108564
  20611116.508 7      2406.849 7      1875.46748  -9558674.277 7  -7419898.35948
  20611109.80948        50.200          35.700  
  20865085.422 7      -569.123 7      -443.47347   1319802.395 7   1041958.70747
  20865080.28947        49.700          33.700  
  21105336.539 7      2975.881 7      2318.86847 -10834617.582 7  -8416407.46147
  21105331.37547        47.600          31.900  
  23201866.695 6     -2642.234 6     -2058.88447  11539835.715 6   8983890.24247
  23201862.25047        43.100          27.300  
  20868795.844 7      2083.023 7      1623.13548  -7717236.066 7  -5981015.49248
  20868790.37548        48.100          38.200  
  24057182.992 6     -2291.939 6     -1785.92646  12640554.836 6   9824192.16046
  24057177.75446        43.900          24.300  
  24967670.398 4     -1479.324 4     -1152.71645   5775623.844 4   4503043.52045
  24967666.80945        38.500          17.800  
  25123650.555 5      4116.813 5      3207.91146  -1751824.695 5  -1278693.14146
  25123648.25046        40.100          20.400  
  22520373.344 6      3995.786 6      3113.59947 -12221614.262 6  -9345284.12947
  22520369.30547        43.200          27.100  
 08  1 16 17 30 59.9990000  0  9G02G04G05G09G12G17G20G29G30    0.000100050
  20604267.914 7      2399.254 7      1869.54948  -9594663.094 7  -7447941.59048
  20604261.09048        50.000          35.800  
  20866732.094 7      -576.915 7      -449.54447   1328456.125 7   1048701.86747
  20866727.06647        50.300          33.300  
  21096861.266 7      2969.321 7      2313.75747 -10879157.391 7  -8451113.80947
  21096855.90247        47.600          31.200  
  23209417.953 6     -2645.520 6     -2061.44347  11579518.520 6   9014811.88747
  23209413.77747        44.400          26.900  
  20862869.664 7      2076.167 7      1617.79248  -7748378.563 7  -6005282.37148
  20862864.53548        48.900          38.700  
  24063726.133 6     -2292.421 6     -1786.30146  12674941.145 6   9850986.66846
  24063720.52346        43.900          22.200  
  24971911.156 5     -1485.521 5     -1157.55146   5797906.660 5   4520406.78546
  24971906.32846        40.200          19.600  
  25111899.047 5      4117.042 5      3208.07946  -1813580.316 5  -1326814.33246
  25111896.85946        40.200          21.100  
  22508979.039 6      3991.823 6      3110.51247 -12281491.602 6  -9391941.80547
  22508974.85947        43.000          27.200  
 08  1 16 17 31 14.9990000  0  9G02G04G05G09G12G17G20G29G30    0.000091526
  20597441.180 7      2391.582 7      1863.57048  -9630536.824 7  -7475895.14148
  20597434.52348        50.100          35.600  
  20868401.266 7      -584.772 7      -455.66647   1337227.707 7   1055536.85947
  20868396.64547        49.700          32.900  
  21088404.477 6      2962.683 6      2308.58447 -10923597.637 6  -8485742.56647
  21088399.32447        47.000          30.600  
  23216978.047 6     -2648.836 6     -2064.02747  11619251.059 6   9045772.28947
  23216974.44547        44.500          27.500  
  20856963.211 7      2069.244 7      1612.39848  -7779417.227 7  -6029468.34448
  20856957.73848        48.800          38.300  
  24070271.266 6     -2292.956 6     -1786.71946  12709335.484 6   9877787.45346
  24070265.97746        43.900          22.600  
  24976169.594 5     -1491.758 5     -1162.40846   5820283.027 5   4537842.90646
  24976164.52746        41.900          19.000  
  25100146.945 5      4117.205 5      3208.21046  -1875338.391 5  -1374937.48446
  25100143.77046        41.100          19.900  
  22497596.109 6      3987.778 6      3107.35847 -12341308.266 6  -9438552.17647
  22497591.66447        42.700          26.500  
 08  1 16 17 31 29.9990000  0  9G02G04G05G09G12G17G20G29G30    0.000082993
  20590636.633 7      2383.957 7      1857.62948  -9666296.184 7  -7503759.57048
  20590629.94948        50.500          35.900  
  20870092.656 7      -592.551 7      -461.72847   1346115.965 7   1062462.77347
  20870088.28147        49.700          33.300  
  21079966.227 7      2956.078 7      2303.43747 -10967938.801 7  -8520294.12547
  21079961.49647        47.800          31.500  
  23224548.711 6     -2652.071 6     -2066.54747  11659032.121 6   9076770.50047
  23224544.52747        44.300          27.300  
  20851076.453 7      2062.360 7      1607.03348  -7810352.621 7  -6053573.84448
  20851071.21948        50.000          38.500  
  24076817.477 6     -2293.429 6     -1787.08746  12743736.914 6   9904593.75846
  24076812.25446        43.400          21.700  
  24980445.273 6     -1497.918 6     -1167.20946   5842751.801 6   4555351.03946
  24980440.12946        43.000          19.000  
  25088394.484 5      4117.401 5      3208.36846  -1937099.402 5  -1423063.01246
  25088391.21946        39.400          20.600  
  22486225.305 6      3983.767 6      3104.23346 -12401064.766 6  -9485115.66446
  22486220.81646        42.700          26.100  
 08  1 16 17 31 44.9990000  0  9G02G04G05G09G12G17G20G29G30    0.000074451
  20583853.734 7      2376.230 7      1851.60948  -9701939.637 7  -7531533.70348
  20583847.25848        50.100          35.500  
  20871806.375 7      -600.410 7      -467.85247   1355122.121 7   1069480.55547
  20871801.80947        50.300          33.600  
  21071548.000 6      2949.360 6      2298.20347 -11012179.199 6  -8554767.16447
  21071543.16447        47.000          31.100  
  23232128.055 6     -2655.368 6     -2069.11646  11698862.641 6   9107807.24246
  23232124.05946        43.800          26.200  
  20845209.586 7      2055.367 7      1601.58548  -7841183.129 7  -6077597.62548
  20845203.96148        48.600          38.100  
  24083364.680 6     -2293.985 6     -1787.52046  12778146.691 6   9931406.55946
  24083360.17246        43.100          22.600  
  24984739.305 5     -1504.155 5     -1172.06645   5865314.121 5   4572932.03545
  24984733.47745        42.200          16.900  
  25076640.656 5      4117.515 5      3208.44946  -1998862.125 5  -1471189.75046
  25076638.41446        40.800          20.900  
  22474864.930 6      3979.648 6      3101.02447 -12460759.480 6  -9531631.02347
  22474860.88347        43.000          26.700  
 08  1 16 17 31 59.9990000  0  9G02G04G05G09G12G17G20G29G30    0.000065901
  20577092.820 7      2368.560 7      1845.63048  -9737468.031 7  -7559218.15648
  20577086.37548        50.700          35.600  
  20873542.211 7      -608.194 7      -473.91747   1364245.035 7   1076589.31347
  20873537.73447        49.200          32.800  
  21063148.359 6      2942.688 6      2293.00447 -11056319.523 6  -8589162.22347
  21063143.35547        47.300          31.100  
  23239716.898 6     -2658.580 6     -2071.62047  11738741.344 6   9138881.54747
  23239712.69947        43.600          26.600  
  20839362.648 7      2048.419 7      1596.17148  -7871909.422 7  -6101540.18848
  20839357.07048        49.800          39.000  
  24089915.188 6     -2294.483 6     -1787.90646  12812563.934 6   9958225.15646
  24089909.85246        42.700          22.600  
  24989049.945 5     -1510.317 5     -1176.88045   5887968.879 5   4590585.23845
  24989044.28145        42.400          15.600  
  25064888.992 4      4117.675 4      3208.58046  -2060627.246 4  -1519318.44546
  25064884.46946        38.500          20.400  
  22463517.383 6      3975.571 6      3097.84846 -12520393.039 6  -9578098.73846
  22463513.00846        43.000          25.700  
 08  1 16 17 32 14.9990000  0  9G02G04G05G09G12G17G20G29G30    0.000057343
  20570353.828 7      2360.884 7      1839.65048  -9772881.297 7  -7586812.91048
  20570347.37548        50.500          35.700  
  20875300.500 7      -615.952 7      -479.96247   1373484.309 7   1083788.74647
  20875296.32047        50.000          33.700  
  21054767.336 7      2935.997 7      2287.79047 -11100359.473 7  -8623479.07047
  21054762.48447        48.100          31.500  
  23247314.602 6     -2661.762 6     -2074.09847  11778667.777 6   9169993.02047
  23247310.16447        43.800          27.100  
  20833535.234 7      2041.462 7      1590.75048  -7902531.348 7  -6125401.43048
  20833530.05948        49.500          38.000  
  24096465.398 6     -2294.961 6     -1788.27946  12846988.348 6   9985049.34846
  24096460.35946        42.500          22.300  
  24993377.898 5     -1516.439 5     -1181.64644   5910715.465 5   4608309.92644
  24993372.86344        42.300          12.600  
  25053133.492 5      4117.833 5      3208.70146  -2122394.734 5  -1567448.96546
  25053130.54746        39.200          19.300  
  22452181.250 6      3971.475 6      3094.65646 -12579965.168 6  -9624518.57046
  22452176.60546        42.800          25.800  
 08  1 16 17 32 29.9990000  0  9G02G04G05G09G12G17G20G29G30    0.000048775
  20563637.047 7      2353.104 7      1833.58748  -9808177.852 7  -7614316.71548
  20563630.71948        50.700          35.600  
  20877081.125 7      -623.792 7      -486.07247   1382841.195 7   1091079.82047
  20877076.41447        50.100          33.300  
  21046406.703 7      2929.202 7      2282.49547 -11144297.508 7  -8657716.48847
  21046401.52347        48.000          29.800  
  23254921.641 6     -2665.009 6     -2076.62946  11818642.906 6   9201142.44946
  23254917.12546        44.300          25.800  
  20827728.156 7      2034.402 7      1585.24848  -7933047.375 7  -6149180.15248
  20827722.90648        49.500          38.900  
  24103017.938 5     -2295.523 5     -1788.71746  12881421.188 5  10011880.10946
  24103012.70746        41.400          22.500  
  24997724.039 5     -1522.651 5     -1186.48645   5933555.227 5   4626107.21145
  24997718.75845        42.400          15.600  
  25041379.273 5      4117.902 5      3208.75446  -2184163.262 5  -1615580.28146
  25041376.29746        39.600          20.400  
  22440856.742 6      3967.263 6      3091.37446 -12639474.121 6  -9670889.18446
  22440852.33646        43.500          26.100  
 08  1 16 17 32 44.9990000  0  9G02G04G05G09G12G17G20G29G30    0.000040199
  20556942.742 7      2345.314 7      1827.51848  -9843357.563 7  -7641729.48848
  20556936.18448        50.600          35.700  
  20878883.859 7      -631.623 7      -492.17447   1392315.539 7   1098462.42647
  20878879.72347        49.600          33.300  
  21038065.008 6      2922.376 6      2277.17747 -11188133.148 6  -8691874.13747
  21038059.78547        46.700          30.200  
  23262537.313 6     -2668.233 6     -2079.14046  11858666.395 6   9232329.55146
  23262533.57046        43.800          25.600  
  20821941.383 7      2027.322 7      1579.73248  -7963457.211 7  -6172876.12548
  20821936.47348        49.800          39.000  
  24109571.930 5     -2296.086 5     -1789.15846  12915862.480 5  10038717.48446
  24109566.99646        41.100          22.300  
  25002087.719 5     -1528.849 5     -1191.31145   5956487.969 5   4643976.87545
  25002083.11345        41.600          17.400  
  25029625.430 5      4117.946 5      3208.78846  -2245932.445 5  -1663712.09446
  25029622.07446        39.900          20.600  
  22429545.039 6      3963.022 6      3088.06946 -12698919.457 6  -9717210.21546
  22429540.34046        43.400          26.000  
