     2.10           OBSERVATION DATA    G (GPS)             RINEX VERSION / TYPE
teqc  2002Mar14     GSI, Japan          20070102 01:05:00UTCPGM / RUN BY / DATE
Linux 2.0.36|Pentium II|gcc -static|Linux|486/DX+           COMMENT
BIT 2 OF LLI FLAGS DATA COLLECTED UNDER A/S CONDITION       COMMENT
AIRA                                                        MARKER NAME
21742S001                                                   MARKER NUMBER
GSI                 Geographical Survey Institute           OBSERVER / AGENCY
21290               TRIMBLE 5700        1.24                REC # / TYPE / VERS
00031               TRM29659.00     DOME                    ANT # / TYPE
 -3530185.4892  4118797.3370  3344036.9313                  APPROX POSITION XYZ
        0.0000        0.0000        0.0000                  ANTENNA: DELTA H/E/N
     1     1                                                WAVELENGTH FACT L1/2
     6    L1    L2    C1    P2    S1    S2                  # / TYPES OF OBSERV
    30.0000                                                 INTERVAL
 SNR is mapped to RINEX snr flag value [1-9]                COMMENT
  L1: 3 -> 1; 8 -> 5; 40 -> 9                               COMMENT
  L2: 1 -> 1; 5 -> 5; 60 -> 9                               COMMENT
  2007     1     1     0     0    0.0000000     GPS         TIME OF FIRST OBS
                                                            END OF HEADER
							4  1
        (AN EVENT FLAG WITH SIGNIFICANT EPOCH)              COMMENT
 07  1  1  0  0  0.0000000  0  7G13G31G25G23G27G19G16
  -7244061.92649  -5627744.06047  22845039.6564   22845035.4924         43.7504
        30.7504
  -2365861.25049  -2855938.53847  23633146.7034   23633143.3834         39.7504
        28.5004
  -7887817.80149  -6613691.41747  22637559.4534   22637555.5314         47.0004
        35.0004
 -10666567.86749  -9429599.90647  22399110.7504   22399104.2464         47.0004
        37.2504
  -1712409.00049  -1190201.48546  24956414.7504   24956410.2894         36.7504
        19.5004
 -14268620.92649 -12449166.32048  20845187.5704   20845181.9384         51.0004
        46.7504
 -15023921.16449 -12087101.06548  21448404.5084   21448399.8094         51.5004
        43.2504
 07  1  1  0  0 30.0000000  0  7G13G31G25G23G27G19G16
  -7242522.05549  -5626544.16847  22845332.4844   22845328.4414         44.5004
        30.7504
  -2269312.59849  -2780705.91047  23651519.1484   23651515.5704         40.7504
        27.2504
  -7800217.55949  -6545431.52747  22654229.6484   22654224.9614         47.5004
        36.0004
 -10611771.95349  -9386901.80547  22409538.4454   22409531.8444         48.0004
        37.2504
  -1810672.61749  -1266770.54546  24937716.9694   24937711.8054         36.5004
        19.2504
 -14314071.35549 -12484582.24048  20836538.5864   20836532.5314         50.7504
        47.0004
 -14991914.10249 -12062160.50448  21454494.8054   21454490.2734         51.2504
        43.5004
 07  1  1  0  1  0.0000000  0  7G13G31G25G23G27G19G16
  -7240413.61349  -5624901.24247  22845733.9774   22845730.3674         45.0004
        31.5004
  -2172548.18449  -2705305.16146  23669932.2894   23669929.4804         38.2504
        25.5004
  -7712336.35949  -6476952.70347  22670952.6174   22670949.1294         47.0004
        36.0004
 -10556561.63749  -9343880.79247  22420043.5314   22420037.4024         47.2504
        36.7504
  -1908911.09449  -1343320.11746  24919022.1954   24919017.3634         37.5004
        19.5004
 -14359082.97349 -12519656.24048  20827973.4774   20827967.1454         51.2504
        47.0004
 -14959774.90649 -12037117.00348  21460611.1644   21460605.9774         51.0004
        43.0004
 07  1  1  0  1 30.0000000  0  7G13G31G25G23G27G19G16
  -7237738.16449  -5622816.49247  22846243.1954   22846238.5394         44.0004
        30.2504
  -2075570.78949  -2629738.39247  23688387.0864   23688383.6134         37.5004
        26.2504
  -7624176.67249  -6408256.87447  22687728.4694   22687725.2504         46.2504
        35.5004
 -10500940.64849  -9300539.80047  22430629.0554   22430622.3134         46.5004
        37.0004
  -2007123.07849  -1419848.89146  24900333.0784   24900328.5474         38.0004
        19.2504
 -14403656.30549 -12554388.70448  20819491.0394   20819485.4264         51.5004
        47.0004
 -14927504.41049 -12011971.16948  21466751.9614   21466747.3794         50.7504
        43.5004
 07  1  1  0  2  0.0000000  0  7G13G31G25G23G27G19G16
  -7234496.32449  -5620290.38847  22846860.3204   22846855.3054         44.5004
        30.5004
  -1978381.32049  -2554006.38747  23706882.6094   23706878.7814         39.7504
        26.0004
  -7535739.66849  -6339344.99747  22704557.7034   22704554.5354         46.5004
        35.7504
 -10444911.11349  -9256880.45647  22441290.5394   22441284.2624         46.2504
        36.7504
  -2105305.63749  -1496354.74646  24881648.5084   24881645.0784         36.7504
        19.5004
 -14447790.51249 -12588779.00148  20811092.7664   20811087.0474         50.7504
        47.2504
 -14895101.48049 -11986722.16748  21472917.9534   21472913.3404         50.7504
        43.0004
 07  1  1  0  2 30.0000000  0  7G13G31G25G23G27G19G16
  -7230688.50449  -5617323.26147  22847584.9614   22847579.8134         44.7504
        30.7504
  -1880981.70749  -2478110.64646  23725416.4534   23725411.7894         38.5004
        22.2504
  -7447027.26649  -6270218.49447  22721439.1254   22721435.5904         45.2504
        35.0004
 -10388476.15649  -9212905.19047  22452029.8674   22452023.3404         46.0004
        36.7504
  -2203457.16849  -1572836.46146  24862971.9614   24862967.6134         36.5004
        19.2504
 -14491485.64849 -12622827.16048  20802777.5554   20802771.5004         51.2504
        46.7504
 -14862566.09049 -11961369.92248  21479109.1414   21479104.1254         51.7504
        43.2504
 07  1  1  0  3  0.0000000  0  7G13G31G25G23G27G19G16
  -7226315.71949  -5613915.94047  22848416.6884   22848412.9534         45.2504
        31.2504
  -1783373.38348  -2402052.26246  23743988.8674   23743986.2114         32.5004
        19.0004
  -7358040.99649  -6200878.57847  22738372.8134   22738368.9774         46.5004
        33.7504
 -10331638.66449  -9168616.26747  22462845.7814   22462839.4224         46.2504
        35.5004
  -2301575.33249  -1649292.26446  24844300.5394   24844296.0204         37.0004
        19.2504
 -14534741.51249 -12656533.03048  20794546.5234   20794540.3484         51.7504
        46.7504
 -14829897.75049 -11935914.10548  21485326.2114   21485321.4144         51.2504
        43.0004
 07  1  1  0  3 30.0000000  0  7G13G31G25G23G27G19G16
  -7221379.01249  -5610069.16147  22849355.9384   22849352.1374         45.5004
        31.0004
  -1685558.34049  -2325832.93646  23762606.3054   23762600.6174         36.0004
        20.7504
  -7268782.66849  -6131326.68547  22755357.9924   22755355.2664         45.7504
        34.5004
 -10274401.40649  -9124015.82147  22473737.3674   22473730.6954         45.0004
        35.2504
  -2399658.46549  -1725720.62246  24825636.1254   24825631.9224         36.5004
        20.2504
 -14577557.89849 -12689896.46448  20786398.6884   20786392.9774         51.7504
        47.2504
 -14797096.12149 -11910354.41248  21491568.0084   21491563.3874         51.5004
        43.0004
 07  1  1  0  4  0.0000000  0  7G13G31G25G23G27G19G16
  -7215879.39549  -5605783.73547  22850402.9774   22850397.7154         46.7504
        31.0004
  -1587538.90649  -2249454.23846  23781258.1484   23781254.1094         39.5004
        22.2504
  -7179254.57849  -6061564.56247  22772395.0234   22772392.1374         46.0004
        34.7504
 -10216767.48449  -9079106.30747  22484704.2504   22484698.4734         43.5004
        34.0004
  -2497704.62949  -1802120.22946  24806978.3674   24806973.9924         37.5004
        19.2504
 -14619935.01249 -12722917.57848  20778334.5164   20778329.1994         51.5004
        47.5004
 -14764161.54349 -11884691.11248  21497835.3754   21497830.9964         51.7504
        43.5004
 07  1  1  0  4 30.0000000  0  7G13G31G25G23G27G19G16
  -7209817.75849  -5601060.40747  22851556.0944   22851551.9064         46.2504
        30.7504
  -1489316.48448  -2172917.28846  23799947.9774   23799943.8714         35.7504
        19.5004
  -7089457.91849  -5991593.20547  22789482.6094   22789480.0164         46.2504
        34.7504
 -10158739.44549  -9033889.70147  22495747.0784   22495740.9184         44.5004
        35.2504
  -2595711.62549  -1878489.32446  24788327.7734   24788323.8444         37.0004
        19.5004
 -14661872.42249 -12755596.08448  20770354.2034   20770348.5904         52.0004
        47.2504
 -14731093.08649 -11858923.49448  21504127.9534   21504123.2464         52.0004
        43.5004
 07  1  1  0  5  0.0000000  0  7G13G31G25G23G27G19G16
  -7203194.55949  -5595899.48547  22852816.5314   22852812.3284         46.2504
        31.0004
  -1390892.44148  -2096223.27346  23818676.4144   23818674.5744         34.5004
        20.0004
  -6999394.46949  -5921413.92647  22806620.7894   22806618.1454         45.2504
        33.7504
 -10100319.93049  -8988368.02747  22506863.8444   22506857.9414         46.5004
        36.2504
  -2693677.20349  -1954826.13246  24769685.3524   24769681.2584         36.0004
        19.5004
 -14703370.02049 -12787931.87248  20762457.3524   20762451.4344         51.0004
        47.0004
 -14697890.69149 -11833051.51548  21510446.1094   21510441.6334         51.0004
        43.5004
 07  1  1  0  5 30.0000000  0  7G13G31G25G23G27G19G16
  -7196011.68749  -5590302.47747  22854183.2734   22854180.0704         46.0004
        30.7504
  -1292268.96148  -2019373.95646  23837443.6724   23837442.4574         33.5004
        19.5004
  -6909066.52749  -5851028.55747  22823809.4454   22823806.6804         43.0004
        34.0004
 -10041512.57049  -8942544.12947  22518055.1414   22518048.3754         46.0004
        37.7504
  -2791599.83649  -2031129.45946  24751051.3754   24751047.0204         36.2504
        20.5004
 -14744428.23049 -12819925.29148  20754644.2114   20754638.0124         51.0004
        47.0004
 -14664554.43749 -11807075.24048  21516789.9384   21516785.0944         51.5004
        42.7504
 07  1  1  0  6  0.0000000  0  7G13G31G25G23G27G19G16
  -7188269.45749  -5584269.59747  22855656.8754   22855652.3834         46.2504
        31.5004
  -1193447.60548  -1942370.34846  23856249.2504   23856248.2274         32.0004
        16.7504
  -6818475.17649  -5780437.94147  22841048.7114   22841046.4024         44.5004
        34.0004
  -9982319.75049  -8896419.87747  22529319.2424   22529313.0274         47.0004
        38.5004
  -2889476.74649  -2107397.19546  24732426.1644   24732422.2584         36.7504
        21.5004
 -14785046.29749 -12851575.73248  20746914.9614   20746909.4694         50.7504
        47.2504
 -14631083.44949 -11780993.97048  21523158.9384   21523154.2934         51.2504
        42.7504
 07  1  1  0  6 30.0000000  0  7G13G31G25G23G27G19G16
  -7179968.96149  -5577801.67947  22857236.1334   22857232.1054         46.0004
        31.0004
  -1094430.25458  -1865214.09456  23875092.2034   23875090.7544         33.2504
        16.7504
  -6727622.81649  -5709643.95747  22858338.2974   22858334.8204         45.7504
        35.0004
  -9922744.57449  -8849997.69747  22540655.9614   22540648.9104         47.0004
        37.5004
  -2987306.32049  -2183628.02946  24713810.0164   24713805.7114         37.2504
        19.7504
 -14825224.71149 -12882883.57648  20739269.4454   20739263.4184         52.0004
        47.2504
 -14597477.44149 -11754807.49748  21529554.2894   21529549.6764         52.0004
        42.5004
 07  1  1  0  7  0.0000000  0  7G13G31G25G23G27G19G16
  -7171111.62149  -5570899.87447  22858921.1254   22858917.7624         45.7504
        28.7504
   -995218.80948  -1787906.50846  23893971.3284   23893970.5314         35.2504
        14.7504
  -6636510.99249  -5638647.76847  22875675.5004   22875672.8404         45.5004
        34.5004
  -9862789.86349  -8803279.73647  22552064.7034   22552058.3524         47.5004
        36.0004
  -3085086.54349  -2259820.45646  24695203.0314   24695198.5554         36.2504
        20.7504
 -14864963.09849 -12913848.54348  20731707.2664   20731701.6054         51.0004
        47.0004
 -14563736.35249 -11728515.75348  21535974.6094   21535970.3014         51.0004
        42.5004
 07  1  1  0  7 30.0000000  0  7G13G31G25G23G27G19G16
  -7161697.98049  -5563564.60947  22860713.0634   22860708.5824         45.0004
        27.7504
   -895814.86749  -1710448.96946  23912889.9774   23912888.1564         37.0004
        13.7504
  -6545141.50849  -5567450.81447  22893062.5314   22893060.2584         44.5004
        34.2504
  -9802458.64849  -8756268.44147  22563545.4384   22563539.0594         45.7504
        35.5004
  -3182815.01649  -2335972.46646  24676605.8674   24676601.9774         36.0004
        21.2504
 -14904261.41849 -12944470.61148  20724229.0234   20724223.1214         51.2504
        47.0004
 -14529859.88349 -11702118.51348  21542421.3134   21542417.0514         52.0004
        42.7504
 07  1  1  0  8  0.0000000  0  7G13G31G25G23G27G19G16
  -7151729.37949  -5555796.85247  22862610.3754   22862605.6994         47.0004
        28.7504
   -796220.855 8                  23931843.391                          30.500

  -6453516.20349  -5496054.54347  22910498.3204   22910496.0594         43.5004
        34.0004
  -9741753.91449  -8708966.05747  22575096.9384   22575090.5314         43.0004
        33.0004
  -3280489.55149  -2412082.48046  24658018.7034   24658015.2894         36.0004
        22.5004
 -14943119.87149 -12974749.91948  20716834.6644   20716828.5904         52.0004
        47.5004
 -14495847.68749 -11675615.52948  21548893.5084   21548889.1604         51.0004
        42.5004
 07  1  1  0  8 30.0000000  0  6G13G25G23G27G19G16
  -7141207.04749  -5547597.63847  22864612.4694   22864607.9064         47.0004
        30.5004
  -6361636.76249  -5424460.21747  22927982.5784   22927979.8244         45.0004
        34.2504
  -9680678.09849  -8661374.56447  22586719.3134   22586713.6054         43.7504
        33.7504
  -3378108.09449  -2488148.86046  24639444.1254   24639439.1564         37.7504
        23.2504
 -14981538.37549 -13004686.40748  20709523.6724   20709518.1214         51.2504
        47.5004
 -14461699.13749 -11649006.28948  21555391.8984   21555387.2504         51.5004
        42.5004
 07  1  1  0  9  0.0000000  0  6G13G25G23G27G19G16
  -7130133.07449  -5538968.58047  22866719.7974   22866715.3984         47.2504
        30.2504
  -6269506.29349  -5352670.28147  22945514.5554   22945511.9574         44.2504
        34.2504
  -9619235.49549  -8613497.19447  22598411.6334   22598405.8404         43.5004
        33.5004
  -3475669.73849  -2564170.93846  24620878.1804   24620873.6524         38.2504
        22.7504
 -15019517.88749 -13034280.83148  20702296.6094   20702290.7624         52.0004
        47.5004
 -14427415.10549 -11622291.48048  21561916.0004   21561911.1764         50.5004
        43.2504
 07  1  1  0  9 30.0000000  0  6G13G25G23G27G19G16
  -7118506.82849  -5529909.15147  22868931.8054   22868928.1254         47.0004
        31.0004
  -6177124.78149  -5280684.74247  22963093.8754   22963091.1024         43.5004
        33.5004
  -9557427.39849  -8565335.11447  22610173.5704   22610166.6804         45.0004
        33.0004
  -3573170.55949  -2640145.59046  24602323.6644   24602320.0394         37.2504
        25.0004
 -15057056.50449 -13063531.71248  20695153.0164   20695147.1914         51.7504
        47.5004
 -14392993.48849 -11595469.46248  21568466.3284   21568461.7424         51.0004
        43.0004
 07  1  1  0 10  0.0000000  0  7G13G31G25G23G27G19G16
  -7106330.06249  -5520420.79047  22871249.4224   22871244.8364         45.7504
        30.7504
                                  24008004.727                          32.500

  -6084494.79749  -5208505.56647  22980721.1024   22980718.1254         44.2504
        33.5004
  -9495257.69549  -8516891.21347  22622003.5634   22621997.1024         45.2504
        34.0004
  -3670609.20349  -2716071.80347  24583781.5394   24583778.6954         36.5004
        26.2504
 -15094155.50449 -13092440.02748  20688093.6564   20688087.7034         52.5004
        47.5004
 -14358434.48449 -11568540.38648  21575042.3444   21575037.8594         51.0004
        43.0004
 07  1  1  0 10 30.0000000  0  7G13G31G25G23G27G19G16
  -7093604.44149  -5510504.73947  22873670.9694   22873667.0554         46.0004
        31.5004
    110556.367 8                  24027133.008                          33.750

  -5991618.51249  -5136134.49247  22998395.2424   22998392.3204         44.2504
        33.5004
  -9432729.43049  -8468167.94347  22633902.7664   22633897.3754         44.7504
        34.0004
  -3767983.79349  -2791948.12546  24565252.5704   24565248.5044         38.2504
        25.5004
 -15130815.33649 -13121006.13948  20681117.4144   20681111.5554         51.5004
        47.5004
 -14323738.34049 -11541504.44848  21581645.2664   21581640.3874         50.0004
        42.5004
 07  1  1  0 11  0.0000000  0  7G13G31G25G23G27G19G16
  -7080331.05549  -5500161.86047  22876196.8594   22876192.3594         45.7504
        30.0004
    211255.36749  -1449666.41856  24046295.9224   24046291.6134         36.5004
        17.7504
  -5898497.68049  -5063572.83047  23016114.8054   23016112.4344         44.7504
        32.2504
  -9369845.44549  -8419167.46147  22645869.6954   22645863.8794         44.7504
        33.2504
  -3865291.93049  -2867772.62847  24546734.7504   24546731.8244         39.0004
        25.7504
 -15167035.46949 -13149229.61448  20674224.8134   20674219.0824         51.2504
        47.5004
 -14288904.60949 -11514361.28948  21588273.7194   21588269.1564         50.7504
        42.5004
 07  1  1  0 11 30.0000000  0  7G13G31G25G23G27G19G16
  -7066511.46549  -5489393.38747  22878826.7814   22878822.5944         46.2504
        30.2504
    312131.91449  -1371061.42046  24065491.4844   24065488.7934         38.0004
        19.2504
  -5805134.17649  -4990822.12447  23033881.4844   23033879.5594         43.7504
        33.0004
  -9306608.78149  -8369892.18247  22657902.7894   22657896.2074         44.0004
        33.2504
  -3962531.44949  -2943543.63547  24528231.3444   24528227.6134         40.0004
        26.2504
 -15202816.07049 -13177110.61848  20667416.2114   20667410.3364         52.0004
        47.5004
 -14253932.74649 -11487110.52048  21594928.7194   21594924.0474         50.5004
        42.5004
 07  1  1  0 12  0.0000000  0  7G13G31G25G23G27G19G16
  -7052146.52749  -5478199.95647  22881560.1024   22881556.3404         45.7504
        29.2504
    413184.41849  -1292319.31046  24084721.3984   24084718.8914         38.2504
        21.0004
  -5711529.64549  -4917883.61347  23051694.5004   23051691.6724         44.5004
        34.0004
  -9243022.18049  -8320344.18447  22670002.6254   22669996.9414         43.7504
        33.5004
  -4059700.11749  -3019259.49447  24509740.6884   24509737.1684         41.5004
        26.5004
 -15238157.16449 -13204649.14448  20660690.9454   20660684.7274         51.5004
        47.5004
 -14218822.10549 -11459751.59248  21601610.0314   21601605.3364         50.0004
        42.7504
 07  1  1  0 12 30.0000000  0  7G13G31G25G23G27G19G16
  -7037237.38749  -5466582.45547  22884396.6644   22884392.6844         45.5004
        29.7504
    514411.33649  -1213441.36746  24103984.5784   24103980.3834         36.2504
        17.7504
  -5617685.80149  -4844758.59947  23069552.1024   23069549.3834         44.2504
        33.5004
  -9179088.48849  -8270525.73847  22682168.8834   22682161.7464         43.2504
        32.0004
  -4156795.42649  -3094918.17547  24491264.2034   24491260.7074         42.5004
        26.7504
 -15273058.82049 -13231845.24848  20654049.4064   20654043.3834         52.5004
        47.5004
 -14183572.23049 -11432284.17648  21608317.9064   21608312.8594         50.5004
        41.7504
 07  1  1  0 13  0.0000000  0  7G13G31G25G23G27G19G16
  -7021786.52349  -5454542.83947  22887337.1414   22887332.9844         46.5004
        29.7504
    615809.32449  -1134430.05146  24123280.1334   24123276.1724         37.2504
        17.7504
  -5523605.60949  -4771449.40647  23087455.1254   23087451.1764         43.2504
        31.5004
  -9114812.09449  -8220440.24247  22694400.5394   22694394.3984         43.7504
        33.0004
  -4253816.32449  -3170518.87646  24472801.0944   24472797.6914         41.5004
        24.2504
 -15307522.28549 -13258699.90248  20647491.1174   20647485.2304         52.0004
        47.7504
 -14148183.91849 -11404708.89248  21615051.9534   21615047.1564         50.5004
        42.2504
 07  1  1  0 13 30.0000000  0  7G13G31G25G23G27G19G16
  -7005794.39849  -5442081.46847  22890380.5944   22890377.0084         46.5004
        29.0004
    717377.61348  -1055285.98046  24142607.4774   24142603.1174         32.5004
        16.2504
  -5429290.18749  -4697956.91647  23105402.1954   23105399.0474         42.2504
        30.2504
  -9050194.99249  -8170089.28247  22706696.3364   22706691.6024         42.5004
        31.2504
  -4350759.65649  -3246059.12746  24454353.8524   24454350.0864         42.2504
        23.5004
 -15341546.64849 -13285212.40148  20641016.6024   20641010.7034         52.2504
        47.7504
 -14112656.02749 -11377024.83848  21621812.7664   21621807.4924         50.7504
        42.0004
 07  1  1  0 14  0.0000000  0  7G13G31G25G23G27G19G16
  -6989262.98449  -5429199.85047  22893526.1484   22893522.7234         47.7504
        30.2504
    819113.69948   -976011.14846  24161967.1254   24161962.0554         32.0004
        14.7504
  -5334742.03549  -4624283.10147  23123394.6334   23123392.1294         44.7504
        33.5004
  -8985240.84049  -8119475.71247  22719056.7814   22719050.0824         44.7504
        29.7504
  -4447624.07849  -3321537.90147  24435920.7344   24435917.3554         42.5004
        26.0004
 -15375133.00849 -13311383.58448  20634625.3134   20634619.1214         52.0004
        47.5004
 -14076988.52049 -11349232.00748  21628600.3834   21628595.1294         51.0004
        42.0004
 07  1  1  0 14 30.0000000  0  6G13G25G23G27G19G16
  -6972192.84049  -5415898.48447  22896775.2814   22896770.6564         47.2504
        31.5004
  -5239962.12949  -4550428.68847  23141430.8594   23141428.0944         43.5004
        35.0004
  -8919951.68449  -8068601.05947  22731481.2664   22731473.8094         44.5004
        30.2504
  -4544406.15249  -3396952.52447  24417503.9304   24417500.3954         41.0004
        25.7504
 -15408280.18049 -13337212.55748  20628317.7424   20628312.0634         52.0004
        48.0004
 -14041180.12149 -11321329.37748  21635414.0784   21635409.5664         50.5004
        42.2504
 07  1  1  0 15  0.0000000  0  6G13G25G23G27G19G16
  -6954586.41449  -5402179.18847  22900125.2664   22900120.5514         48.0004
        31.7504
  -5144953.54749  -4476396.08947  23159509.7034   23159507.3984         43.5004
        33.7504
  -8854331.82849  -8017468.73347  22743968.1884   22743962.0394         43.7504
        30.2504
  -4641105.04749  -3472302.31646  24399103.6644   24399098.9344         41.5004
        25.0004
 -15440989.86349 -13362700.62048  20622093.0864   20622087.5634         52.5004
        48.0004
 -14005231.51649 -11293317.49948  21642255.0474   21642250.3404         50.0004
        42.0004
 07  1  1  0 15 30.0000000  0  6G13G25G23G27G19G16
  -6936444.18049  -5388042.39547  22903577.5394   22903573.3634         44.2504
        31.5004
  -5049717.16849  -4402186.04347  23177633.1254   23177629.9884         43.2504
        31.5004
  -8788383.35949  -7966080.33647  22756517.8444   22756512.4104         44.5004
        30.7504
  -4737717.46949  -3547584.72447  24380718.4844   24380714.7464         41.5004
        26.2504
 -15473261.27049 -13387847.16948  20615952.0474   20615946.2894         52.2504
        48.0004
 -13969141.66049 -11265195.56448  21649122.9454   21649118.1914         51.0004
        42.0004
 07  1  1  0 16  0.0000000  0  6G13G25G23G27G19G16
  -6917768.31649  -5373489.81347  22907131.6024   22907127.7154         46.7504
        32.0004
  -4954255.76649  -4327800.57747  23195799.4064   23195794.7544         44.5004
        30.0004
  -8722110.04749  -7914438.82847  22769128.5784   22769122.5124         41.0004
        26.2504
  -4834241.75049  -3622798.41246  24362350.6804   24362347.0944         41.5004
        25.0004
 -15505095.19149 -13412652.81848  20609894.4454   20609888.5124         50.7504
        48.2504
 -13932910.62149 -11236963.60148  21656017.1484   21656012.2814         51.2504
        42.0004
 07  1  1  0 16 30.0000000  0  7G13G31G25G23G27G19G16
  -6898560.24249  -5358522.49447  22910787.1414   22910783.3204         44.2504
        31.2504
     94356.14818                  24259234.930                          33.250

  -4858571.15649  -4253241.13847  23214007.8054   23214004.0944         44.2504
        31.5004
  -8655514.82849  -7862546.49247  22781801.9144   22781795.8204         41.5004
        27.7504
  -4930675.59049  -3697941.67746  24344000.1024   24343996.5084         38.0004
        25.2504
 -15536491.96549 -13437117.81948  20603919.5004   20603913.7424         50.0004
        47.7504
 -13896537.91049 -11208621.24748  21662938.8054   21662934.2074         50.7504
        41.7504
 07  1  1  0 17  0.0000000  0  7G13G31G25G23G27G19G16
  -6878821.28549  -5343141.49247  22914542.9844   22914538.8054         44.2504
        29.7504
    197062.33649   -787612.49656  24278780.2974   24278775.2734         38.7504
        17.2504
  -4762664.87549  -4178509.01847  23232257.4454   23232254.7774         43.0004
        31.7504
  -8588600.33649  -7810405.36947  22794535.5474   22794529.3954         42.5004
        27.2504
  -5027016.69549  -3773012.64946  24325666.4064   24325662.6414         37.0004
        22.7504
 -15567451.33249 -13461242.01048  20598028.6254   20598022.3164         52.5004
        48.2504
 -13860022.63349 -11180167.78948  21669887.3594   21669882.6094         50.5004
        42.0004
 07  1  1  0 17 30.0000000  0  7G13G31G25G23G27G19G16
  -6858553.55149  -5327348.52347  22918399.7974   22918395.4064         45.0004
        29.7504
    299922.85549   -707461.60546  24298353.0704   24298350.1094         40.0004
        20.5004
  -4666539.43749  -4103606.16347  23250549.7034   23250546.2974         44.0004
        31.0004
  -8521370.32449  -7758018.32447  22807329.1334   22807322.6054         40.5004
        27.5004
  -5123263.30549  -3848009.96346  24307350.9844   24307347.3054         38.2504
        22.7504
 -15597974.45749 -13485026.25148  20592219.7974   20592214.2894         51.5004
        48.0004
 -13823365.24649 -11151603.63148  21676863.3984   21676858.2624         51.5004
        42.0004
 07  1  1  0 18  0.0000000  0  7G13G31G25G23G27G19G16
  -6837758.39549  -5311144.54347  22922357.2974   22922353.2274         39.5004
        29.2504
    402936.09849   -627191.65046  24317956.5164   24317951.9574         41.2504
        22.0004
  -4570196.71149  -4028533.98447  23268883.0704   23268879.6334         43.2504
        30.0004
  -8453827.96149  -7705387.91647  22820181.7504   22820174.4614         41.2504
        26.0004
  -5219412.52748  -3922931.49446  24289054.4224   24289050.0824         35.7504
        24.5004
 -15628061.14549 -13508470.43148  20586494.7274   20586489.3204         51.0004
        48.2504
 -13786564.95349 -11122928.09048  21683866.0474   21683861.0274         50.7504
        41.7504
 07  1  1  0 18 30.0000000  0  7G13G31G25G23G27G19G16
  -6816437.08649  -5294530.57647  22926414.3444   22926410.5164         43.0004
        28.5004
    506100.38749   -546804.06146  24337586.9534   24337585.0044         40.7504
        22.0004
  -4473638.57049  -3953293.90847  23287257.5004   23287253.8634         43.7504
        28.5004
  -8385975.82049  -7652516.13946  22833092.8364   22833086.6054         39.2504
        24.5004
  -5315462.38348  -3997775.50446  24270776.6564   24270772.0394         35.2504
        23.7504
 -15657712.01649 -13531574.99148  20580852.1954   20580846.6994         51.5004
        48.2504
 -13749621.43449 -11094140.95648  21690895.9384   21690891.7234         51.0004
        41.7504
 07  1  1  0 19  0.0000000  0  7G13G31G25G23G27G19G16
  -6794591.29349  -5277507.92147  22930571.2424   22930567.5824         46.0004
        29.7504
    609414.06649   -466300.02046  24357246.9924   24357244.6214         41.7504
        21.2504
  -4376866.82849  -3877887.41147  23305672.1024   23305668.7854         41.5004
        27.7504
  -8317817.22749  -7599405.65647  22846064.3524   22846057.2704         40.0004
        26.2504
  -5411410.45349  -4072540.15246  24252518.8524   24252514.9024         38.2504
        24.7504
 -15686926.76649 -13554339.72648  20575292.7504   20575286.6684         52.0004
        48.0004
 -13712533.94949 -11065241.63948  21697953.4064   21697949.0824         50.0004
        41.7504
 07  1  1  0 19 30.0000000  0  7G13G31G25G23G27G19G16
  -6772222.63349  -5260077.83447  22934828.3594   22934823.3364         46.2504
        29.0004
    712875.43849   -385680.86446  24376936.0944   24376932.1954         42.5004
        22.7504
  -4279883.29749  -3802315.90647  23324127.8524   23324125.0744         41.7504
        29.0004
  -8249354.99649  -7546058.47947  22859091.8364   22859085.6724         41.0004
        26.7504
  -5507254.10249  -4147223.53446  24234279.9304   24234276.3094         38.5004
        22.7504
 -15715705.86749 -13576765.01548  20569816.4384   20569810.4964         50.7504
        48.0004
 -13675302.00849 -11036229.74948  21705038.4844   21705034.0514         49.5004
        41.7504
 07  1  1  0 20  0.0000000  0  7G13G31G25G23G27G19G16
  -6749333.30949  -5242241.99947  22939184.2974   22939179.5634         46.5004
        30.5004
    816481.40649   -304949.03346  24396651.3134   24396647.4224         42.5004
        25.2504
  -4182690.75049  -3726581.51547  23342623.6094   23342620.0354         43.5004
        30.2504
  -8180593.00449  -7492477.74946  22872176.1804   22872170.6214         39.5004
        24.5004
  -5602992.28649  -4221824.64947  24216061.9534   24216058.4224         38.2504
        26.0004
 -15744050.75449 -13598851.93548  20564422.6094   20564416.8404         51.0004
        48.0004
 -13637926.03949 -11007105.64848  21712151.0474   21712147.0354         51.5004
        41.7504
 07  1  1  0 20 30.0000000  0  7G13G31G25G23G27G19G16
  -6725924.85949  -5224001.65247  22943638.7504   22943634.5164         47.5004
        32.2504
    920230.11349   -224106.01847  24416393.9534   24416389.6334         43.2504
        28.0004
  -4085291.14849  -3650685.78647  23361158.0704   23361154.4924         43.0004
        28.0004
  -8111534.34049  -7438665.83947  22885318.6644   22885312.9574         38.2504
        25.7504
  -5698622.54349  -4296341.80647  24197863.5004   24197860.4734         38.2504
        27.0004
 -15771961.31649 -13620600.41248  20559111.4064   20559105.5274         52.0004
        48.2504
 -13600405.40249 -10977868.80948  21719291.0004   21719286.7194         50.2504
        41.5004
 07  1  1  0 21  0.0000000  0  7G13G31G25G23G27G19G16
  -6701998.21549  -5205357.54147  22948191.1804   22948188.2664         48.0004
        31.7504
   1024120.88349   -143152.27646  24436163.1334   24436159.5864         41.5004
        25.5004
  -3987685.42249  -3574629.42847  23379731.4304   23379728.2974         41.5004
        27.0004
  -8042181.01649  -7384624.35046  22898515.9304   22898509.8914         38.2504
        25.0004
  -5794141.37549  -4370772.03447  24179686.9224   24179683.7814         39.2504
        25.7504
 -15799436.96949 -13642010.01848  20553882.6724   20553876.7464         51.5004
        48.2504
 -13562738.57049 -10948518.05148  21726458.8204   21726454.2934         50.5004
        41.7504
 07  1  1  0 21 30.0000000  0  7G13G31G25G23G27G19G16
  -6677556.56249  -5186312.10247  22952842.7584   22952838.0984         48.2504
        31.0004
   1128150.52049    -62090.37247  24455959.8594   24455955.9224         39.7504
        26.0004
  -3889876.85549  -3498414.99547  23398343.6094   23398341.8204         42.0004
        29.7504
  -7972537.65249  -7330356.84146  22911768.6254   22911761.2704         41.2504
        23.0004
  -5889547.80549  -4445114.65446  24161531.4144   24161527.7974         37.5004
        24.5004
 -15826479.33649 -13663081.99648  20548736.6954   20548730.5664         51.7504
        48.0004
 -13524926.78149 -10919054.34748  21733654.1024   21733649.7504         50.2504
        41.5004
 07  1  1  0 22  0.0000000  0  7G13G31G25G23G27G19G16
  -6652600.59449  -5166865.89647  22957591.5314   22957587.3754         47.0004
        31.7504
   1232317.76249     19078.80847  24475782.5394   24475779.5824         42.5004
        27.2504
  -3791866.75049  -3422043.60047  23416995.2344   23416992.8404         44.2504
        32.2504
  -7902606.74249  -7275865.29246  22925075.3524   22925069.0124         41.2504
        22.7504
  -5984838.58649  -4519367.26046  24143398.2274   24143395.0944         37.7504
        24.0004
 -15853087.97749 -13683815.99248  20543673.2194   20543667.6374         51.7504
        48.2504
 -13486968.53549 -10889476.51148  21740877.2974   21740872.7894         50.5004
        41.7504
 07  1  1  0 22 30.0000000  0  7G13G31G25G23G27G19G16
  -6627132.61749  -5147020.73347  22962437.7504   22962434.6294         46.0004
        32.0004
   1336620.03949    100353.20847  24495630.5784   24495628.8284         44.5004
        29.0004
  -3693657.75449  -3345517.18047  23435683.3284   23435680.7734         44.2504
        31.2504
  -7832391.79749  -7221152.35647  22938437.6334   22938431.6414         40.5004
        26.2504
  -6080012.03949  -4593528.37646  24125287.0314   24125283.6914         36.7504
        22.7504
 -15879264.20749 -13704213.06548  20538692.2814   20538686.6254         52.2504
        48.5004
 -13448863.69149 -10859784.46048  21748128.5474   21748123.9494         50.7504
        41.5004
 07  1  1  0 23  0.0000000  0  7G13G31G25G23G27G19G16
  -6601154.25449  -5126777.87047  22967380.9614   22967377.2704         45.7504
        30.0004
   1441055.68849    181731.46947  24515503.7424   24515502.2894         45.0004
        29.7504
  -3595251.34049  -3268836.95147  23454408.5634   23454406.4804         41.2504
        29.5004
  -7761895.65249  -7166220.33147  22951852.8834   22951846.5824         41.0004
        26.7504
  -6175065.73849  -4667596.24447  24107200.1024   24107196.4614         38.7504
        26.7504
 -15905008.26249 -13724273.35848  20533793.1724   20533787.4144         51.5004
        48.2504
 -13410611.96149 -10829977.93548  21755407.6884   21755403.2504         50.0004
        41.7504
 07  1  1  0 23 30.0000000  0  7G13G31G25G23G27G19G16
  -6574667.07849  -5106138.56347  22972421.9064   22972417.1174         44.7504
        30.5004
   1545623.13749    263212.48047  24535402.7734   24535400.8284         44.0004
        30.5004
  -3496649.56649  -3192004.47247  23473172.6564   23473169.7114         42.7504
        28.7504
  -7691121.40249  -7111071.60246  22965320.7974   22965314.2584         40.5004
        23.7504
  -6269997.11349  -4741568.70447  24089134.7974   24089131.4184         39.2504
        26.0004
 -15930319.99249 -13743996.79148  20528976.4694   20528970.5704         51.2504
        48.0004
 -13372212.65649 -10800056.41548  21762714.6334   21762710.3834         50.5004
        42.2504
 07  1  1  0 24  0.0000000  0  7G13G31G25G23G27G19G16
  -6547673.41049  -5085104.58747  22977559.3364   22977555.1644         46.2504
        32.0004
   1650319.64849    344794.04547  24555325.5234   24555323.4964         43.0004
        28.5004
  -3397855.13349  -3115021.83347  23491973.2734   23491969.7664         43.5004
        30.5004
  -7620072.71149  -7055709.00246  22978840.0394   22978835.0314         38.2504
        25.5004
  -6364804.41849  -4815444.54446  24071093.5394   24071089.7734         40.0004
        25.5004
 -15955200.82849 -13763384.45548  20524242.1644   20524236.2034         52.2504
        48.5004
 -13333665.82449 -10770019.94948  21770050.3364   21770045.3054         50.7504
        41.5004
 07  1  1  0 24 30.0000000  0  7G13G31G25G23G27G19G16
  -6520175.02349  -5063677.25247  22982790.8984   22982787.5744         45.2504
        31.0004
   1755143.57449    426474.88447  24575272.6414   24575270.9494         41.7504
        27.2504
  -3298869.69949  -3037890.39147  23510809.3204   23510807.3054         41.5004
        30.0004
  -7548752.58649  -7000134.97246  22992411.7114   22992406.5234         38.5004
        25.0004
  -6459484.98049  -4889221.60247  24053076.3204   24053072.5274         40.7504
        27.5004
 -15979651.07049 -13782436.58448  20519589.3754   20519583.3554         52.5004
        48.5004
 -13294970.73849 -10739867.94848  21777413.6484   21777408.4844         50.0004
        41.7504
 07  1  1  0 25  0.0000000  0  7G13G31G25G23G27G19G16
  -6492173.76649  -5041858.14447  22988120.1884   22988115.2154         45.0004
        31.7504
   1860092.89149    508253.36647  24595244.6804   24595242.1414         41.5004
        25.7504
  -3199695.37549  -2960611.79847  23529680.8204   23529679.0084         41.2504
        29.0004
  -7477163.97749  -6944351.71346  23006035.3444   23006029.0984         41.5004
        25.2504
  -6554036.48449  -4962898.05647  24035083.5944   24035080.3914         41.0004
        25.7504
 -16003670.94549 -13801153.37148  20515018.5084   20515012.5234         51.7504
        48.7504
 -13256127.10549 -10709600.21048  21784805.1724   21784800.7704         49.5004
        41.5004
 07  1  1  0 25 30.0000000  0  7G13G31G25G23G27G19G16
  -6463671.22349  -5019648.38247  22993543.5474   22993539.9264         44.2504
        28.7504
   1965165.84849    590128.25347  24615239.3914   24615236.9304         43.7504
        27.7504
  -3100333.92649  -2883187.41947  23548589.4454   23548587.3404         43.0004
        31.5004
  -7405310.05149  -6888361.69947  23019708.5234   23019701.8874         43.2504
        29.2504
  -6648456.21949  -5036471.85847  24017115.5394   24017112.6484         41.2504
        26.5004
 -16027261.08649 -13819535.30148  20510529.5164   20510523.5124         52.5004
        48.7504
 -13217133.94549 -10679215.96048  21792225.3524   21792220.7734         50.2504
        41.5004
 07  1  1  0 26  0.0000000  0  7G13G31G25G23G27G19G16
  -6434669.60549  -4997049.76147  22999062.4064   22999059.0704         44.0004
        30.0004
   2070360.50849    672097.95047  24635257.7274   24635255.1024         43.5004
        30.0004
  -3000787.56649  -2805618.88547  23567532.9144   23567529.2734         42.5004
        29.2504
  -7333194.02049  -6832167.43347  23033431.7344   23033425.8834         45.7504
        31.0004
  -6742742.24649  -5109941.52947  23999173.9694   23999170.2304         41.2504
        27.0004
 -16050421.60549 -13837582.45948  20506122.0084   20506116.3134         51.0004
        48.5004
 -13177991.44549 -10648715.33348  21799673.8674   21799669.3444         49.5004
        40.7504
 07  1  1  0 26 30.0000000  0  7G13G31G25G23G27G19G16
  -6405171.00449  -4974063.88247  23004676.1564   23004672.3324         44.5004
        29.7504
   2175674.54349    754160.68847  24655298.2664   24655296.5354         44.0004
        30.0004
  -2901058.68749  -2727908.09747  23586510.1644   23586506.3244         43.0004
        27.7504
  -7260819.53149  -6775771.77447  23047204.7664   23047198.1844         45.2504
        31.2504
  -6836892.51249  -5183305.32247  23981257.5554   23981254.2234         41.7504
        27.0004
 -16073153.87149 -13855295.91548  20501796.5634   20501790.2034         51.0004
        48.5004
 -13138699.13749 -10618097.97048  21807150.9384   21807146.5124         49.2504
        41.2504
 07  1  1  0 27  0.0000000  0  7G13G31G25G23G27G19G16
  -6375177.25049  -4950692.17947  23010383.8444   23010378.9574         45.2504
        30.2504
   2281105.81649    836314.73347  24675360.8754   24675358.6334         43.0004
        29.5004
  -2801149.00049  -2650056.50047  23605522.8054   23605520.5204         41.7504
        29.0004
  -7188189.27049  -6719176.80647  23061025.3594   23061019.8484         43.7504
        31.2504
  -6930904.25049  -5256561.23947  23963368.5394   23963364.9574         42.5004
        27.5004
 -16095457.93749 -13872675.72548  20497551.9844   20497545.8444         51.5004
        48.2504
 -13099256.02349 -10587363.09848  21814656.9454   21814652.1134         49.2504
        41.0004
 07  1  1  0 27 30.0000000  0  7G13G31G25G23G27G19G16
  -6344690.67649  -4926936.42647  23016184.4144   23016181.2154         46.0004
        31.2504
   2386652.21549    918558.47747  24695446.2664   24695443.9454         42.2504
        28.2504
  -2701061.27349  -2572066.18147  23624568.9224   23624566.9024         42.0004
        30.7504
  -7115307.19149  -6662385.61547  23074894.8524   23074888.7384         44.5004
        32.0004
  -7024775.59449  -5329707.72847  23945504.9844   23945501.9964         42.5004
        28.0004
 -16117335.54749 -13889723.21148  20493388.9144   20493383.1804         50.7504
        48.7504
 -13059662.50049 -10556511.02348  21822191.2814   21822186.4614         49.0004
        41.5004
 07  1  1  0 28  0.0000000  0  7G13G31G25G23G27G19G16
  -6313712.39849  -4902797.56647  23022080.5004   23022076.5314         46.2504
        31.7504
   2492312.72749   1000891.14447  24715552.9064   24715550.2734         41.0004
        26.7504
  -2600796.90249  -2493938.17847  23643649.2894   23643645.9924         41.5004
        31.0004
  -7042175.36349  -6605399.81547  23088811.3284   23088805.1844         43.7504
        31.5004
  -7118503.59049  -5402742.52347  23927669.4774   23927666.1954         43.0004
        28.2504
 -16138785.78149 -13906437.68248  20489307.0164   20489301.1524         50.0004
        48.5004
 -13019917.12549 -10525540.63748  21829754.8204   21829750.1764         48.2504
        41.0004
 07  1  1  0 28 30.0000000  0  7G13G31G25G23G27G19G16
  -6282244.96149  -4878277.49347  23028068.1174   23028064.0084         46.2504
        33.5004
   2598084.74649   1083310.66646  24735680.3754   24735678.1954         39.5004
        24.2504
  -2500357.74249  -2415673.96647  23662761.1564   23662759.6024         41.0004
        27.0004
  -6968797.62149  -6548222.39647  23102775.0084   23102768.3284         43.0004
        32.2504
  -7212086.00049  -5475663.85447  23909860.7194   23909857.4264         43.0004
        27.2504
 -16159809.57049 -13922819.85448  20485306.1954   20485300.3484         50.7504
        48.5004
 -12980019.98049 -10494451.97348  21837346.7194   21837341.8164         48.5004
        40.5004
 07  1  1  0 29  0.0000000  0  7G13G31G25G23G27G19G16
  -6250291.72749  -4853378.87247  23034148.4924   23034144.7704         41.5004
        32.0004
   2703965.55549   1165814.98446  24755828.9534   24755826.8984         39.5004
        24.2504
  -2399747.07449  -2337276.10547  23681907.4064   23681905.3244         40.5004
        29.0004
  -6895177.89149  -6490856.43747  23116784.1174   23116778.2734         43.7504
        33.0004
  -7305521.06649  -5548470.39147  23892081.1644   23892076.6454         43.2504
        28.7504
 -16180408.41449 -13938870.90948  20481386.5084   20481380.5634         50.7504
        49.0004
 -12939971.14149 -10463245.11048  21844968.0394   21844963.3954         49.5004
        41.0004
 07  1  1  0 29 30.0000000  0  7G13G31G25G23G27G19G16
  -6217853.16049  -4828102.09947  23040321.4924   23040317.7814         45.0004
        32.2504
   2809954.03949   1248403.22846  24775998.7194   24775996.3054         40.0004
        21.5004
  -2298966.20349  -2258745.67447  23701085.0784   23701083.5434         39.0004
        29.7504
  -6821318.44949  -6433303.71347  23130839.3054   23130832.7194         44.0004
        30.7504
  -7398805.54749  -5621159.58747  23874329.3834   23874325.6214         42.2504
        28.0004
 -16200582.23849 -13954590.77648  20477547.8594   20477542.0554         51.5004
        49.0004
 -12899769.45349 -10431919.16448  21852618.1254   21852613.7774         49.7504
        41.5004
 07  1  1  0 30  0.0000000  0  7G13G31G25G23G27G19G16
  -6184931.33649  -4802448.75247  23046585.8914   23046581.8874         46.0004
        29.7504
   2916048.46549   1331073.94846  24796187.6564   24796185.4614         41.0004
        22.7504
  -2198016.91849  -2180083.98347  23720295.8444   23720293.3554         38.5004
        29.5004
  -6747222.35249  -6375566.50847  23144938.9224   23144932.8364         42.0004
        29.0004
  -7491937.14849  -5693729.67047  23856606.9844   23856603.9804         43.5004
        28.2504
 -16220331.54349 -13969979.84148  20473789.4064   20473783.7424         51.0004
        48.7504
 -12859414.45749 -10400473.72348  21860297.6334   21860292.8754         49.7504
        40.7504
 07  1  1  0 30 30.0000000  0  7G13G31G25G23G27G19G16
  -6151529.17249  -4776421.14247  23052942.8834   23052938.7624         42.5004
        29.0004
   3022245.68449   1413824.79647  24816397.0164   24816394.2194         43.2504
        26.2504
  -2096902.03949  -2101293.29847  23739536.6884   23739534.6024         40.0004
        28.2504
  -6672893.57049  -6317648.01647  23159082.5944   23159077.2894         43.0004
        28.0004
  -7584914.29349  -5766179.40747  23838914.0944   23838910.9264         43.2504
        28.0004
 -16239657.88749 -13985039.33648  20470111.8594   20470105.6564         51.2504
        49.0004
 -12818906.28149 -10368908.93248  21868005.4924   21868001.2854         49.0004
        40.5004
 07  1  1  0 31  0.0000000  0  8G13G31G25G23G27G19G11G16
  -6117648.59049  -4750020.69347  23059390.1414   23059385.8164         45.2504
        29.2504
   3128544.16049   1496654.47646  24836624.3284   24836622.5984         39.2504
        22.7504
  -1995623.66449  -2022375.13947  23758809.5004   23758806.7814         41.0004
        28.5004
  -6598335.41049  -6259550.79747  23173271.2194   23173265.1884         44.5004
        27.0004
  -7677734.30949  -5838506.70847  23821250.9774   23821247.9264         42.2504
        29.7504
 -16258561.48049 -13999769.41648  20466514.5164   20466507.9304         51.0004
        48.7504
   -437042.73418                  24452751.031                          30.250

 -12778244.15649 -10337224.19748  21875743.5704   21875738.8524         49.0004
        40.5004
 07  1  1  0 31 30.0000000  0  8G13G31G25G23G27G19G11G16
  -6083291.63749  -4723249.06047  23065927.9694   23065924.6564         44.5004
        27.2504
   3234942.04349   1579561.62746  24856872.0864   24856869.3014         38.5004
        22.5004
  -1894183.55149  -1943330.97347  23778113.0704   23778110.1054         40.7504
        28.0004
  -6523550.44149  -6201276.81346  23187502.5314   23187496.4844         44.0004
        25.2504
  -7770394.52749  -5910709.44947  23803619.0864   23803615.0514         43.7504
        29.7504
 -16277042.75049 -14014170.40248  20462997.6804   20462991.2894         50.7504
        49.0004
   -548729.58618                  24431498.805                          28.250

 -12737427.58649 -10305419.10048  21883510.8754   21883506.2814         48.5004
        40.5004
 07  1  1  0 32  0.0000000  0  7G13G31G25G23G27G19G16
  -6048460.31249  -4696107.80947  23072556.0784   23072552.2304         44.7504
        27.0004
   3341437.57449   1662544.81046  24877137.8054   24877135.0664         38.7504
        24.2504
  -1792583.85249  -1864162.48947  23797447.1334   23797443.9804         39.5004
        29.0004
  -6448542.05949  -6142828.76247  23201776.1724   23201769.5904         44.5004
        27.7504
  -7862892.54349  -5982785.79547  23786016.9534   23786012.9734         44.0004
        29.7504
 -16295102.66449 -14028243.06648  20459560.7894   20459554.9574         49.7504
        48.7504
 -12696455.95749 -10273493.19348  21891307.1484   21891302.5634         48.0004
        41.0004
 07  1  1  0 32 30.0000000  0  7G13G31G25G23G27G19G16
  -6013157.41049  -4668599.09746  23079274.1724   23079270.8874         45.5004
        25.5004
   3448027.90649   1745601.86546  24897420.9144   24897418.6884         39.5004
        22.5004
  -1690827.25449  -1784871.73447  23816810.5704   23816808.1024         40.0004
        27.7504
  -6373313.91849  -6084209.50246  23216092.0084   23216085.0204         43.7504
        25.5004
  -7955226.44949  -6054734.29547  23768446.2424   23768442.5744         43.0004
        29.2504
 -16312742.40649 -14041988.31348  20456204.3524   20456198.5164         50.2504
        49.0004
 -12655329.37149 -10241446.52648  21899133.8134   21899128.8834         47.7504
        40.2504
 07  1  1  0 33  0.0000000  0  7G13G31G25G23G27G19G16
  -5977384.89849  -4640724.44146  23086080.3524   23086076.9414         41.7504
        22.0004
   3554711.45749   1828731.57746  24917723.0314   24917719.8754         41.0004
        24.7504
  -1588915.50049  -1705460.07347  23836204.0944   23836201.0164         42.2504
        28.2504
  -6297869.18749  -6025421.46046  23230447.9534   23230441.9694         42.7504
        22.7504
  -8047393.61349  -6126552.87547  23750907.2504   23750903.9924         44.5004
        30.0004
 -16329962.54349 -14055406.60548  20452927.1804   20452921.6334         50.5004
        49.0004
 -12614046.88349 -10209278.38848  21906989.4614   21906984.6054         48.0004
        40.7504
 07  1  1  0 33 30.0000000  0  7G13G31G25G23G27G19G16
  -5941144.71549  -4612485.36546  23092977.8754   23092974.0474         43.7504
        22.0004
   3661486.56349   1911932.64146  24938041.5944   24938039.4264         38.7504
        22.5004
  -1486850.85549  -1625929.24346  23855626.2034   23855623.1724         38.2504
        25.2504
  -6222210.67649  -5966466.81646  23244846.1094   23244839.0594         43.0004
        23.2504
  -8139391.32049  -6198239.38847  23733401.1254   23733396.9414         43.0004
        29.7504
 -16346763.50449 -14068498.26848  20449730.2034   20449724.0664         51.0004
        49.0004
 -12572608.01249 -10176988.39348  21914875.0864   21914870.2424         48.5004
        40.2504
 07  1  1  0 34  0.0000000  0  7G13G31G25G23G27G19G16
  -5904439.22749  -4583883.64646  23099962.6334   23099958.3914         41.2504
        20.0004
   3768350.41449   1995202.82846  24958376.5084   24958375.1054         37.7504
        21.7504
  -1384635.47349  -1546280.99547  23875076.1804   23875075.2424         39.0004
        26.0004
  -6146342.10549  -5907348.53346  23259283.0634   23259277.7344         41.5004
        25.5004
  -8231217.63749  -6269792.39547  23715926.5164   23715923.0944         44.5004
        29.0004
 -16363146.15649 -14081263.98248  20446612.7114   20446606.6684         51.7504
        49.2504
 -12531012.80149 -10144576.55748  21922790.2584   21922785.5784         49.2504
        40.5004
 07  1  1  0 34 30.0000000  0  7G13G31G25G23G27G19G16
  -5867270.46949  -4554921.00646  23107035.7344   23107032.0434         41.0004
        20.5004
   3875301.75849   2078541.12246  24978729.1564   24978727.8404         39.0004
        22.5004
  -1282270.86749  -1466516.47147  23894555.3674   23894554.5594         39.0004
        26.0004
  -6070265.94949  -5848068.44846  23273759.4144   23273753.8834         40.0004
        21.5004
  -8322869.59049  -6341209.47347  23698485.5784   23698482.3714         43.7504
        29.2504
 -16379110.90249 -14093704.03848  20443574.7664   20443568.8444         52.0004
        49.5004
 -12489260.15649 -10112042.06448  21930735.9144   21930730.7194         49.5004
        39.7504
 07  1  1  0 35  0.0000000  0  7G13G31G25G23G27G19G16
  -5829641.72749  -4525599.94346  23114195.6724   23114190.7344         39.2504
        19.7504
   3982337.45749   2161945.21946  24999098.4144   24999096.7424         40.0004
        24.5004
  -1179760.42249  -1386638.31847  23914063.3364   23914062.0274         40.5004
        27.5004
  -5993986.71149  -5788630.18346  23288275.6564   23288269.3484         37.5004
        21.2504
  -8414345.40249  -6412489.30847  23681078.2344   23681075.0474         43.2504
        31.0004
 -16394659.83649 -14105820.09248  20440615.8594   20440609.6844         52.0004
        49.0004
 -12447350.31649 -10079385.07248  21938710.6954   21938706.0274         50.5004
        40.0004
 07  1  1  0 35 30.0000000  0  7G13G31G25G23G27G19G16
  -5791554.44149  -4495921.60846  23121443.4384   23121439.3134         38.5004
        20.2504
   4089456.18849   2245413.92246  25019482.1644   25019482.1094         37.5004
        24.5004
  -1077105.56249  -1306647.64547  23933597.6954   23933597.3674         38.5004
        27.0004
  -5917506.91849  -5729035.58546  23302828.7504   23302822.2624         38.0004
        20.0004
  -8505642.53549  -6483629.93247  23663705.6804   23663702.0474         45.0004
        31.5004
 -16409792.82049 -14117612.03648  20437735.9144   20437730.2734         52.0004
        49.0004
 -12405282.31249 -10046604.84748  21946716.1724   21946711.5634         50.0004
        39.7504
 07  1  1  0 36  0.0000000  0  7G13G31G25G23G27G19G16
  -5753010.85249  -4465887.70646  23128779.0554   23128775.5514         39.7504
        22.0004
   4196656.04348   2328945.89846  25039882.0554   25039881.4734         35.5004
        22.7504
   -974308.53149  -1226546.19347  23953160.8134   23953158.4574         42.0004
        28.7504
  -5840829.66848  -5669287.20346  23317420.6334   23317413.1844         35.2504
        19.0004
  -8596758.21149  -6554629.14747  23646366.9614   23646362.9734         44.0004
        31.7504
 -16424510.76249 -14129080.56848  20434935.4384   20434929.6094         51.7504
        49.5004
 -12363055.77349 -10013701.07648  21954751.4064   21954746.7074         50.5004
        40.0004
 07  1  1  0 36 30.0000000  0  7G13G31G25G23G27G19G16
  -5714013.93049  -4435500.50046  23136199.3284   23136195.1914         41.7504
        22.7504
   4303934.55548   2412539.05746  25060296.8594   25060296.0044         35.5004
        21.5004
   -871371.60549  -1146335.70647  23972748.9454   23972746.6374         42.5004
        27.2504
  -5763958.51248  -5609387.69446  23332048.4384   23332041.2934         34.2504
        19.0004
  -8687690.48849  -6625485.44547  23629063.1094   23629059.4454         44.5004
        31.7504
 -16438814.80949 -14140226.59448  20432213.4924   20432207.8134         52.2504
        49.5004
 -12320670.35949  -9980673.51048  21962817.0474   21962812.8554         50.5004
        39.7504
 07  1  1  0 37  0.0000000  0  7G13G31G25G23G27G19G16
  -5674565.25449  -4404761.32346  23143705.8054   23143701.7034         40.5004
        22.5004
   4411290.33648   2496192.38946  25080727.2114   25080726.0474         34.2504
        19.5004
   -768296.73849  -1066017.68247  23992363.4924   23992361.2504         41.5004
        26.2504
  -5686896.05948  -5549339.14146  23346711.6954   23346707.7304         31.5004
        20.5004
  -8778436.31649  -6696196.47347  23611794.5394   23611790.8554         44.5004
        31.5004
 -16452705.15249 -14151050.23948  20429570.2344   20429564.2234         53.0004
        49.5004
 -12278125.39549  -9947521.61148  21970913.3054   21970908.4884         51.2504
        39.7504
 07  1  1  0 37 30.0000000  0  7G13G31G25G23G27G19G16
  -5634668.00049  -4373672.54646  23151298.0554   23151295.1684         41.5004
        23.7504
   4518720.69149   2579903.82746  25101169.7734   25101170.1214         36.5004
        21.2504
   -665086.32449   -985594.12446  24012003.0234   24012001.1294         38.7504
        23.7504
  -5609646.38348  -5489144.58646  23361412.8674   23361407.1484         35.2504
        22.0004
  -8868993.85549  -6766760.79847  23594561.8834   23594558.4734         45.7504
        32.0004
 -16466183.31249 -14161552.69348  20427005.2424   20426999.5004         52.2504
        49.2504
 -12235420.62949  -9914245.20548  21979039.5164   21979035.4964         50.7504
        39.7504
 07  1  1  0 38  0.0000000  0  7G13G31G25G23G27G19G16
  -5594324.06249  -4342235.74546  23158975.8134   23158970.5984         40.7504
        22.0004
   4626223.84849   2663671.99946  25121628.0084   25121627.1054         36.2504
        21.7504
   -561742.32849   -905066.45346  24031669.1724   24031667.0354         38.7504
        24.5004
  -5532212.39548  -5428806.48146  23376149.3134   23376142.1994         33.2504
        20.5004
  -8959360.03949  -6837175.98647  23577365.2424   23577362.6684         44.7504
        31.2504
 -16479249.98049 -14171734.52348  20424518.8204   20424512.7384         51.5004
        49.2504
 -12192555.24249  -9880843.64348  21987196.6414   21987192.1484         50.2504
        40.0004
 07  1  1  0 38 30.0000000  0  6G13G25G23G27G19G16
  -5553535.87549  -4310452.77146  23166736.6254   23166733.4184         36.0004
        21.7504
   -458267.02049   -824436.48246  24051359.8754   24051357.8164         39.5004
        24.2504
                                  23390918.4454   23390911.5864         33.0004
        19.5004
  -9049532.57449  -6907440.31647  23560206.0084   23560203.0474         44.5004
        32.0004
 -16491905.80949 -14181596.20848  20422110.3364   20422104.5394         53.0004
        49.2504
 -12149528.95749  -9847316.70848  21995384.4924   21995380.1564         50.0004
        39.7504
 07  1  1  0 39  0.0000000  0  6G13G25G23G27G19G16
  -5512306.24249  -4278325.83546  23174582.7504   23174579.7304         42.0004
        22.5004
   -354662.89149   -743706.13546  24071075.1884   24071073.5394         38.7504
        22.5004
                                  23405723.2034   23405715.6764         30.5004
        19.5004
  -9139509.54749  -6977552.25347  23543084.3444   23543081.3524         45.2504
        32.5004
 -16504152.21949 -14191138.88048  20419780.4224   20419774.2074         52.7504
        49.5004
 -12106341.57049  -9813664.23448  22003602.5944   22003598.2814         50.2504
        40.0004
 07  1  1  0 39 30.0000000  0  5G13G25G27G19G16
  -5470637.04749  -4245856.35146  23182512.7114   23182508.0984         44.0004
        23.2504
   -250931.68749   -662876.64846  24090814.8364   24090812.1054         39.7504
        22.7504
  -9229288.12549  -7047509.58147  23526000.2584   23525996.5164         45.0004
        31.7504
 -16515989.60949 -14200362.82648  20417527.5944   20417521.7774         53.0004
        49.5004
 -12062992.30149  -9779885.60948  22011851.8834   22011847.4064         49.7504
        39.5004
 07  1  1  0 40  0.0000000  0  5G13G25G27G19G16
  -5428531.19549  -4213046.67246  23190524.8134   23190520.5314         42.7504
        24.5004
   -147075.95749   -581950.24746  24110577.5474   24110575.4414         39.2504
        22.7504
  -9318866.21149  -7117310.68347  23508954.6644   23508950.7274         43.7504
        32.5004
 -16527419.23049 -14209269.05048  20415352.6724   20415346.5704         52.7504
        49.2504
 -12019480.79349  -9745980.58147  22020131.7194   22020127.7194         50.5004
        39.2504
 07  1  1  0 40 30.0000000  0  5G13G25G27G19G16
  -5385991.20749  -4179898.63047  23198619.6484   23198615.7154         44.2504
        25.7504
    -43098.02749   -500928.52746  24130363.3674   24130362.2114         38.5004
        22.0004
  -9408241.43049  -7186953.67747  23491946.2584   23491942.5474         43.5004
        31.7504
 -16538442.34849 -14217858.48748  20413254.7814   20413249.2734         53.0004
        49.5004
 -11975806.86349  -9711948.97348  22028442.7664   22028437.8404         51.0004
        39.5004
 07  1  1  0 41  0.0000000  0  6G13G25G23G27G19G16
  -5343019.35249  -4146414.09746  23206797.7504   23206793.7544         42.5004
        25.5004
     61000.26249   -419813.14946  24150173.1644   24150171.0354         39.0004
        23.5004
                                  23465261.891                          33.000

  -9497410.90649  -7256436.36247  23474977.9694   23474974.4734         43.0004
        30.5004
 -16549059.19549 -14226131.36248  20411234.5864   20411228.7304         53.0004
        49.2504
 -11931969.56649  -9677790.08048  22036784.7034   22036780.1524         50.5004
        39.5004
 07  1  1  0 41 30.0000000  0  6G13G25G23G27G19G16
  -5299618.12149  -4112594.96847  23215057.0164   23215052.0084         42.2504
        27.5004
    165216.67249   -338605.71146  24170005.2034   24170003.1954         40.0004
        22.0004
    199927.03148  -5186512.34856  23480225.2664   23480220.2704         34.5004
        20.0004
  -9586372.28149  -7325756.91347  23458049.5314   23458045.6724         44.0004
        31.5004
 -16559271.02349 -14234088.64048  20409291.5554   20409285.2734         53.0004
        49.5004
 -11887968.83249  -9643503.83248  22045158.0784   22045153.3714         49.2504
        39.5004
 07  1  1  0 42  0.0000000  0  6G13G25G23G27G19G16
  -5255790.02349  -4078443.27847  23223396.5474   23223392.9414         41.0004
        27.7504
    269548.98449   -257307.89846  24189859.1334   24189857.0634         41.2504
        25.5004
    278718.84449  -5125116.20746  23495218.5554   23495212.7974         37.0004
        20.0004
  -9675123.12949  -7394913.40947  23441159.8594   23441156.2894         43.2504
        30.7504
 -16569079.00449 -14241731.22048  20407425.0474   20407419.1884         53.0004
        49.5004
 -11843804.27049  -9609089.92048  22053562.2424   22053557.7584         48.7504
        39.5004
 07  1  1  0 42 30.0000000  0  7G13G25G23G27G19G11G16
  -5211537.84849  -4043961.06747  23231817.5864   23231814.2384         42.0004
        28.7504
    373995.02349   -175921.50447  24209734.5234   24209732.4804         41.2504
        27.2504
    357665.75849  -5063599.22646  23510242.8444   23510236.6454         40.0004
        19.2504
  -9763660.84449  -7463903.83547  23424312.3914   23424308.9694         44.2504
        31.2504
 -16578483.99649 -14249059.78448  20405635.2034   20405629.3244         52.5004
        49.5004
    -99240.96518                  23964840.055                          31.000

 -11799475.01649  -9574547.67748  22061997.8134   22061993.5704         50.0004
        39.5004
 07  1  1  0 43  0.0000000  0  7G13G25G23G27G19G11G16
  -5166863.64849  -4009150.02647  23240318.3204   23240313.9884         41.2504
        27.7504
    478552.58649    -94448.26146  24229631.1564   24229629.6884         40.0004
        22.5004
    436764.75049  -5001963.65246  23525294.5084   23525286.7274         39.2504
        17.7504
  -9851983.07849  -7532726.35647  23407505.2504   23407501.5164         45.2504
        33.0004
 -16587486.52049 -14256074.75748  20403922.2344   20403916.3834         53.0004
        49.5004
   -210266.57418                  23943712.570                          30.500

 -11754980.37149  -9539876.55647  22070464.5394   22070459.9654         47.7504
        39.0004
 07  1  1  0 43 30.0000000  0  7G13G25G23G27G19G11G16
  -5121770.80549  -3974012.82047  23248900.1174   23248896.1174         42.0004
        28.0004
    583218.90649    -12890.23646  24249548.6804   24249546.5944         39.0004
        22.5004
    516011.70349  -4940212.95146  23540374.2034   23540367.0824         40.5004
        18.5004
  -9940087.73449  -7601379.32947  23390739.6414   23390735.9184         46.0004
        32.5004
 -16596088.68049 -14262777.73148  20402285.3204   20402279.3674         53.0004
        49.7504
                                  23922595.563                          28.500

 -11710320.89549  -9505077.00448  22078963.1024   22078958.7424         48.0004
        39.5004
 07  1  1  0 44  0.0000000  0  6G13G25G23G27G19G16
  -5076261.00049  -3938550.66647  23257560.4844   23257556.5234         43.5004
        26.7504
    687992.58649     68751.47746  24269486.6884   24269484.7034         36.7504
        22.2504
    595404.62949  -4878348.44846  23555481.9844   23555477.0204         39.0004
        19.7504
 -10027971.59849  -7669860.26747  23374015.5944   23374012.3914         45.5004
        33.2504
 -16604290.40249 -14269168.68548  20400724.2894   20400718.6764         53.0004
        49.5004
 -11665495.00449  -9470147.77047  22087493.5474   22087489.1884         48.7504
        39.0004
 07  1  1  0 44 30.0000000  0  6G13G25G23G27G19G16
  -5030337.59049  -3902766.19247  23266299.3524   23266294.3554         44.5004
        26.7504
    792870.94949    150474.73246  24289444.0314   24289442.3674         36.5004
        20.5004
    674939.55549  -4816373.18346  23570618.1334   23570611.1844         39.5004
        21.5004
 -10115632.88349  -7738167.77447  23357333.9064   23357331.2664         44.2504
        33.5004
 -16612093.36349 -14275248.90848  20399239.7274   20399233.9304         54.0004
        49.7504
 -11620502.71149  -9435088.88947  22096054.9924   22096050.8364         48.5004
        38.7504
 07  1  1  0 45  0.0000000  0  6G13G25G23G27G19G16
  -4984002.78949  -3866661.21247  23275116.2194   23275113.3754         43.5004
        27.2504
    897852.00449    232277.97346  24309421.9614   24309419.7664         37.7504
        21.0004
    754613.39849  -4754289.84246  23585779.2504   23585773.1764         40.7504
        22.7504
 -10203068.75449  -7806299.60547  23340696.0554   23340692.7734         45.0004
        33.0004
 -16619498.52749 -14281019.18048  20397830.5394   20397824.4144         53.0004
        49.5004
 -11575343.58249  -9399899.98847  22104648.5164   22104644.1454         50.7504
        38.7504
 07  1  1  0 45 30.0000000  0  6G13G25G23G27G19G16
  -4937259.02049  -3830237.52246  23284011.1564   23284007.0314         43.0004
        22.7504
   1002933.49649    314159.50546  24329418.8984   24329416.0434         38.5004
        21.5004
    834423.32449  -4692100.38846  23600966.1564   23600961.4144         40.5004
        24.0004
 -10290276.58249  -7874253.74347  23324100.2344   23324097.1884         44.5004
        33.0004
 -16626506.58649 -14286480.00748  20396496.9614   20396490.8954         53.0004
        49.5004
 -11530016.95349  -9364580.58847  22113273.9454   22113269.8284         50.5004
        39.0004
 07  1  1  0 46  0.0000000  0  6G13G25G23G27G19G16
  -4890109.10249  -3793497.41446  23292983.1884   23292979.3054         42.5004
        22.0004
   1108112.83649    396117.29146  24349433.2664   24349431.6644         38.5004
        22.5004
    914365.50849  -4629807.83946  23616178.5944   23616173.3484         40.5004
        25.0004
 -10377254.53549  -7942028.77947  23307548.6564   23307545.1374         44.5004
        31.7504
 -16633118.91849 -14291632.47848  20395238.7194   20395232.8794         53.0004
        49.5004
 -11484522.59849  -9329130.48547  22121931.5164   22121927.0164         49.5004
        38.5004
 07  1  1  0 46 30.0000000  0  7G13G25G23G27G19G11G16
  -4842555.98849  -3756443.03046  23302032.5474   23302029.4384         38.5004
        22.5004
   1213387.92249    478149.65646  24369466.9924   24369465.1374         39.7504
        22.7504
    994436.78549  -4567414.73747  23631416.0784   23631410.7854         42.2504
        27.5004
 -10464000.06249  -8009622.70147  23291042.3284   23291038.7274         44.5004
        32.5004
 -16639336.72349 -14296477.52348  20394055.4924   20394049.8914         52.7504
        50.0004
    -95081.48859   -591781.13356  23796153.4774   23796147.4774         36.0004
        17.7504
 -11438860.01649  -9293549.29647  22130620.5474   22130616.8284         48.2504
        38.7504
 07  1  1  0 47  0.0000000  0  7G13G25G23G27G19G11G16
  -4794601.97349  -3719076.31246  23311158.4694   23311154.7774         41.5004
        22.5004
   1318756.89849    560255.22046  24389518.4064   24389515.4304         40.5004
        22.2504
   1074634.32849  -4504923.17347  23646677.3134   23646671.6724         42.5004
        28.0004
 -10550510.07049  -8077033.09947  23274579.9064   23274576.0984         44.7504
        32.2504
 -16645160.80949 -14301015.77648  20392947.3674   20392941.5864         52.5004
        50.0004
   -205572.84849   -677878.18446  23775127.0394   23775123.6334         37.2504
        17.7504
 -11393028.39849  -9257836.38347  22139342.2424   22139338.2074         50.5004
        38.5004
 07  1  1  0 47 30.0000000  0  7G13G25G23G27G19G11G16
  -4746250.43449  -3681399.81346  23320358.4924   23320355.1644         39.0004
        20.5004
   1424216.80149    642431.57846  24409587.0474   24409583.7074         39.0004
        21.5004
   1154954.30549  -4442336.24047  23661961.6094   23661955.9614         44.0004
        29.5004
 -10636782.85549  -8144258.65047  23258163.3284   23258158.8524         45.5004
        33.0004
 -16650592.97749 -14305248.63748  20391913.2274   20391907.3244         53.2504
        49.7504
   -315986.87549   -763915.03146  23754116.1954   23754112.5164         37.7504
        18.2504
 -11347027.85249  -9221991.84247  22148095.5234   22148091.6134         50.5004
        39.0004
 07  1  1  0 48  0.0000000  0  7G13G25G23G27G19G11G16
  -4697503.52749  -3643415.18646  23329633.7894   23329631.3324         37.0004
        18.5004
   1529765.95349    724677.50046  24429671.4534   24429669.4924         40.2504
        22.2504
   1235393.86349  -4379656.14147  23677268.7584   23677264.0594         43.2504
        30.2504
 -10722815.67249  -8211297.20047  23241791.1884   23241787.3244         45.5004
        34.0004
 -16655633.60549 -14309176.41048  20390954.2974   20390948.2974         52.5004
        49.5004
   -426320.29749   -849889.12446  23733120.0784   23733116.3674         38.5004
        18.2504
 -11300858.12949  -9186015.47447  22156881.7664   22156877.5594         48.0004
        38.7504
 07  1  1  0 48 30.0000000  0  7G13G25G23G27G19G11G16
  -4648363.68749  -3605124.45746  23338986.1174   23338981.5784         37.5004
        16.7504
   1635402.16449    806991.28146  24449774.0704   24449771.4774         39.5004
        22.0004
   1315949.93049  -4316885.25147  23692598.2424   23692592.6054         43.0004
        30.7504
 -10808605.71149  -8278146.59647  23225466.3204   23225462.5394         45.2504
        33.7504
 -16660283.65649 -14312799.83048  20390069.2814   20390063.8364         52.5004
        50.0004
   -536570.35449   -935798.09246  23712140.5084   23712136.5434         39.5004
        18.5004
 -11254518.03149  -9149906.33547  22165700.0164   22165695.0704         47.7504
        38.5004
 07  1  1  0 49  0.0000000  0  7G13G25G23G27G19G11G16
  -4598834.27749  -3566530.18446  23348411.7664   23348406.6454         39.0004
        17.2504
   1741123.09449    889371.04546  24469892.7034   24469890.3594         39.0004
        22.5004
   1396618.98449  -4254026.31547  23707949.1644   23707942.7624         44.5004
        30.0004
 -10894151.03149  -8344805.27547  23209187.0314   23209183.6254         45.2504
        33.5004
 -16664544.73049 -14316120.14748  20389258.5554   20389252.8134         53.0004
        50.2504
   -646735.24649  -1021640.83746  23691176.7664   23691172.4494         41.0004
        19.2504
 -11208007.67649  -9113664.54247  22174550.8204   22174545.6334         48.5004
        38.5004
 07  1  1  0 49 30.0000000  0  7G13G25G23G27G19G11G16
  -4548917.65249  -3527634.11046  23357911.7274   23357906.1764         39.5004
        18.2504
   1846926.53149    971815.09346  24490026.2814   24490024.8134         39.0004
        21.7504
   1477398.07449  -4191081.64347  23723321.1094   23723314.4804         43.7504
        28.5004
 -10979448.71949  -8411270.99747  23192955.6884   23192952.3164         45.7504
        33.7504
 -16668417.53149 -14319137.92248  20388521.7274   20388515.7304         53.0004
        50.0004
   -756812.25449  -1107415.07046  23670230.1254   23670225.4384         40.5004
        19.0004
 -11161325.92249  -9077289.19447  22183434.0634   22183429.2854         50.2504
        38.5004
 07  1  1  0 50  0.0000000  0  7G13G25G23G27G19G11G16
  -4498616.37148  -3488438.33246  23367481.8054   23367478.8014         35.7504
        17.7504
   1952810.30548   1054321.74946  24510175.5084   24510173.9414         35.5004
        20.7504
   1558283.89549  -4128053.79047  23738713.3204   23738706.8284         44.0004
        29.2504
 -11064496.39549  -8477541.92647  23176771.4384   23176768.3444         46.0004
        34.5004
 -16671903.67649 -14321854.41048  20387858.0084   20387852.1914         52.7504
        49.5004
   -866798.93049  -1193118.97446  23649300.2584   23649295.4024         40.5004
        19.2504
 -11114472.75449  -9040780.26847  22192349.7584   22192345.4964         50.0004
        38.5004
 07  1  1  0 50 30.0000000  0  7G13G25G23G27G19G11G16
  -4447933.43749  -3448945.25846  23377126.3204   23377124.0354         36.5004
        13.7504
   2058771.97348   1136889.06346  24530339.4384   24530336.9104         34.0004
        17.7504
   1639273.52349  -4064945.08347  23754124.8364   23754119.8204         44.0004
        28.5004
 -11149291.37549  -8543615.94347  23160635.6174   23160632.4534         46.2504
        33.5004
 -16675004.18049 -14324270.39248  20387268.0314   20387262.2194         52.7504
        50.0004
   -976692.48449  -1278750.39046  23628388.1644   23628382.9104         41.5004
        19.0004
 -11067447.97349  -9004137.62547  22201298.7274   22201293.8674         50.7504
        38.2504
 07  1  1  0 51  0.0000000  0  7G13G25G23G27G19G11G16
  -4396871.91449  -3409157.08646  23386844.1174   23386839.0594         38.5004
        15.5004
   2164809.22748   1219515.27546  24550516.6174   24550514.7034         31.2504
        18.5004
   1720363.04349  -4001758.52547  23769555.7424   23769550.6994         43.5004
        29.2504
 -11233831.73449  -8609491.55747  23144547.6804   23144544.7504         44.5004
        33.5004
 -16677720.27749 -14326386.84348  20386751.3204   20386745.3484         53.0004
        50.0004
  -1086490.92249  -1364307.52146  23607494.0704   23607488.5314         42.5004
        19.0004
 -11020250.91049  -8967360.73447  22210279.6724   22210275.2704         50.5004
        38.2504
 07  1  1  0 51 30.0000000  0  7G13G25G23G27G19G11G16
  -4345434.40249  -3369075.94146  23396631.8134   23396629.3364         39.2504
        18.2504
   2270919.93048   1302198.69946  24570708.3594   24570707.1684         30.5004
        16.2504
   1801549.68449  -3938496.29947  23785004.5784   23784999.9384         42.7504
        27.5004
 -11318114.80549  -8675166.66947  23128509.8134   23128506.2894         45.5004
        33.2504
 -16680053.22349 -14328204.73448  20386307.4384   20386301.2384         52.7504
        50.0004
  -1196191.51249  -1449788.46946  23586619.1644   23586613.4534         42.5004
        20.2504
 -10972881.02749  -8930449.16847  22219293.8204   22219289.5474         50.5004
        38.0004
 07  1  1  0 52  0.0000000  0  7G13G25G23G27G19G11G16
  -4293622.89549  -3328703.39546  23406491.6484   23406487.9384         39.5004
        17.2504
                                  24590915.7814   24590913.1454         31.0004
        16.2504
   1882830.64149  -3875160.58647  23800472.6414   23800467.3204         43.0004
        27.7504
 -11402137.78949  -8740639.13647  23112520.1254   23112517.1604         45.5004
        34.0004
 -16682003.70749 -14329724.59848  20385936.1024   20385930.2544         53.0004
        50.0004
  -1305791.41049  -1535190.95846  23565762.6884   23565757.4344         42.5004
        22.5004
 -10925337.63749  -8893402.40847  22228340.9694   22228336.5314         49.7504
        38.5004
 07  1  1  0 52 30.0000000  0  7G13G25G23G27G19G11G16
  -4241441.44149  -3288042.54246  23416421.2424   23416417.3364         40.5004
        19.7504
   2483353.18058   1467730.62956  24611134.9454   24611133.6254         33.2504
        17.7504
   1964202.34049  -3811754.18547  23815957.2664   23815951.4774         42.0004
        27.7504
 -11485898.80549  -8805907.46147  23096580.9774   23096577.8984         45.5004
        33.5004
 -16683573.44949 -14330947.77748  20385637.1414   20385631.6484         50.5004
        50.2504
  -1415288.60249  -1620513.39946  23544926.1254   23544921.3404         42.2504
        21.2504
 -10877620.26249  -8856220.07747  22237421.2974   22237417.2274         50.2504
        38.0004
 07  1  1  0 53  0.0000000  0  7G13G25G23G27G19G11G16
  -4188891.95749  -3247094.97746  23426421.5944   23426416.3244         41.5004
        19.7504
                                  24631367.2034   24631365.3984         31.0004
        16.7504
   2045661.96949  -3748279.25847  23831458.0474   23831453.0594         42.0004
        25.7504
 -11569394.39549  -8870968.98047  23080692.5704   23080689.1914         46.0004
        34.7504
 -16684762.98449 -14331874.69848  20385411.0004   20385405.2074         51.5004
        50.0004
  -1524679.92649  -1705753.34646  23524109.5554   23524105.1914         42.7504
        22.0004
 -10829728.37149  -8818901.75647  22246534.8594   22246530.6844         47.5004
        38.7504
 07  1  1  0 53 30.0000000  0  7G13G25G23G27G19G11G16
  -4135977.87949  -3205863.27146  23436490.4774   23436486.2384         41.5004
        21.5004
   2696054.00458   1633470.98456  24651610.4534   24651610.1914         32.0004
        16.7504
   2127205.72749  -3684738.77546  23846976.8524   23846970.6804         41.5004
        25.2504
 -11652622.93749  -8935822.37847  23064854.7504   23064851.9304         46.7504
        35.0004
 -16685574.30549 -14332506.88948  20385256.7194   20385250.6414         52.2504
        49.7504
  -1633963.61349  -1790909.43146  23503313.5944   23503309.0274         42.5004
        22.0004
 -10781662.31649  -8781447.72947  22255681.5704   22255677.6684         44.7504
        39.0004
 07  1  1  0 54  0.0000000  0  7G13G25G23G27G19G11G16
  -4082701.77349  -3164349.50246  23446628.3054   23446625.1214         42.2504
        23.0004
   2802498.87558   1716414.76256  24671867.4694   24671866.8634         33.5004
        16.2504
   2208830.42249  -3621135.12546  23862508.3134   23862503.1644         38.2504
        22.2504
 -11735581.77749  -9000465.62447  23049068.2664   23049065.2704         45.5004
        34.7504
 -16686008.21549 -14332845.00148  20385174.2194   20385168.0824         52.5004
        50.0004
  -1743136.90649  -1875979.49846  23482538.4844   23482534.0394         42.5004
        22.7504
 -10733421.18749  -8743857.28247  22264861.7734   22264857.2194         50.2504
        38.0004
 07  1  1  0 54 30.0000000  0  7G13G25G23G27G19G11G16
  -4029066.22749  -3122555.61346  23456835.2814   23456832.2624         43.5004
        23.5004
                                  24692134.3754   24692133.2074         32.5004
        16.2504
   2290533.71149  -3557470.31046  23878056.4454   23878050.2504         37.2504
        22.5004
 -11818268.22349  -9064896.62647  23033333.6484   23033329.8324         45.2504
        34.7504
 -16686065.66849 -14332889.78148  20385163.5474   20385157.6604         53.0004
        50.2504
  -1852196.91449  -1960961.27146  23461784.7974   23461779.7934         42.2504
        23.7504
 -10685004.45749  -8706129.97447  22274075.0234   22274070.4694         50.0004
        38.0004
 07  1  1  0 55  0.0000000  0  7G13G25G23G27G19G11G16
  -3975074.58249  -3080484.28946  23467109.6724   23467106.0784         43.0004
        22.7504
   3015566.64158   1882440.92656  24712412.9844   24712412.3244         31.0004
        15.5004
   2372311.44548  -3493747.51046  23893618.6954   23893612.1024         35.0004
        19.0004
 -11900680.47749  -9129113.97347  23017651.1804   23017646.8874         46.2504
        34.7504
 -16685748.68749 -14332642.78448  20385223.5004   20385218.0554         52.0004
        50.0004
  -1961142.18049  -2045853.67046  23441052.9454   23441048.1214         42.5004
        24.5004
 -10636412.16849  -8668265.89147  22283322.1804   22283318.0554         49.7504
        38.2504
 07  1  1  0 55 30.0000000  0  7G13G25G23G27G19G11G16
  -3920729.34049  -3038137.42946  23477450.4064   23477446.9454         42.0004
        22.7504
                                  24732703.547                          31.750

   2454160.94948  -3429968.72346  23909191.8134   23909187.2584         35.2504
        18.5004
 -11982815.17249  -9193115.02247  23002021.3914   23002017.3794         46.5004
        34.5004
 -16685057.82849 -14332104.44248  20385354.8914   20385349.3054         51.2504
        50.0004
  -2069968.93449  -2130653.71146  23420343.4534   23420340.2894         41.2504
        23.7504
 -10587643.14549  -8630264.10147  22292602.2034   22292597.9184         45.5004
        38.2504
 07  1  1  0 56  0.0000000  0  8G13G 8G25G23G27G19G11G16
  -3866033.60549  -2995517.39346  23487860.1024   23487855.5744         43.2504
        23.7504
   -456761.49618                  24857149.906                          32.000

                                  24753001.180                          32.750

   2536079.24249  -3366136.39146  23924781.9844   23924776.3014         37.7504
        17.7504
 -12064670.32449  -9256898.25647  22986444.7194   22986441.0394         46.5004
        35.2504
 -16683994.81649 -14331276.13348  20385557.2894   20385551.3914         50.7504
        50.0004
  -2178675.39149  -2215360.00346  23399657.2894   23399653.9184         41.7504
        23.7504
 -10538697.48849  -8592124.65847  22301916.4614   22301911.8754         50.0004
        37.7504
 07  1  1  0 56 30.0000000  0  8G13G 8G25G23G27G19G11G16
  -3810990.19949  -2952626.41046  23498333.5704   23498329.5394         42.2504
        22.5004
   -567935.836 8                  24835995.891                          32.750

   3335580.180 8                  24773310.789                          32.000

   2618063.09849  -3302252.95346  23940383.3284   23940377.4104         37.2504
        17.7504
 -12146243.39549  -9320461.69447  22970921.7584   22970919.0514         46.5004
        35.5004
 -16682560.81249 -14330158.73748  20385830.4304   20385824.5634         53.2504
        50.0004
  -2287258.84449  -2299970.48246  23378995.1254   23378991.7504         42.0004
        23.0004
 -10489574.52049  -8553847.04747  22311264.3594   22311260.1024         49.7504
        38.2504
 07  1  1  0 57  0.0000000  0  8G13G 8G25G23G27G19G11G16
  -3755601.98449  -2909466.85846  23508873.9224   23508869.6724         42.0004
        22.5004
                                  24814857.602                          32.500

   3442351.71518                  24793630.078                          31.000

   2700109.07449  -3238321.00146  23955996.7424   23955991.3164         37.0004
        18.2504
 -12227531.74649  -9383803.29247  22955453.3134   22955449.9804         47.5004
        35.5004
 -16680756.99249 -14328753.17048  20386173.4694   20386167.7074         53.0004
        50.0004
  -2395717.08249  -2384483.39846  23358356.2114   23358352.5634         42.5004
        25.5004
 -10440273.74649  -8515430.90847  22320646.0944   22320642.5004         49.0004
        37.7504
 07  1  1  0 57 30.0000000  0  8G13G 8G25G23G27G19G11G16
  -3699872.30549  -2866041.16446  23519478.8134   23519475.7274         40.7504
        22.7504
   -789990.55918                  24793737.156                          30.500

                                  24813956.492                          29.750

   2782214.08648  -3174343.19946  23971619.4924   23971612.6254         33.2504
        15.5004
 -12308533.30149  -9446921.37447  22940039.0234   22940035.5124         46.7504
        35.0004
 -16678584.69149 -14327060.46948  20386587.0554   20386581.2894         52.5004
        50.0004
  -2504047.29349  -2468896.49646  23337741.4064   23337738.0164         44.2504
        25.0004
 -10390794.86349  -8476875.96447  22330061.6254   22330057.6954         44.7504
        38.5004
 07  1  1  0 58  0.0000000  0  8G13G 8G25G23G27G19G11G16
  -3643803.09449  -2822350.86946  23530149.1334   23530144.6884         41.0004
        22.5004
                                  24772640.063                          29.750

   3656032.54318                  24834292.516                          29.250

   2864375.62548  -3110321.34046  23987256.3524   23987249.2854         34.5004
        15.5004
 -12389244.63349  -9509813.34347  22924680.0944   22924676.9384         46.2504
        35.0004
 -16676044.67249 -14325081.23448  20387070.3054   20387064.5944         52.5004
        50.0004
  -2612246.48849  -2553207.56947  23317151.8284   23317147.7464         44.2504
        26.2504
 -10341136.96949  -8438181.53147  22339511.0234   22339506.0004         44.5004
        38.0004
 07  1  1  0 58 30.0000000  0  8G13G 8G25G23G27G19G11G16
  -3587398.68049  -2778399.43746  23540880.7344   23540877.6054         38.7504
        20.5004
  -1011634.46518                  24751562.242                          28.000

   3762936.73818                  24854636.234                          30.250

                                  24002897.219                          27.250

 -12469664.46949  -9572478.16247  22909377.2974   22909373.9384         46.5004
        35.7504
 -16673139.23449 -14322817.25148  20387623.2274   20387617.5864         53.5004
        50.2504
  -2720313.18749  -2637415.40247  23296587.7734   23296583.5314         43.7504
        26.5004
 -10291300.61749  -8399348.03347  22348994.5864   22348990.4344         44.5004
        38.2504
 07  1  1  0 59  0.0000000  0  8G13G 8G25G23G27G19G11G16
  -3530660.81249  -2734188.17846  23551678.4614   23551675.6564         38.7504
        20.5004
                                  24730505.867                          29.750

   3869881.141 8                  24874986.023                          30.500

   3028852.69118                  24018555.258                          34.500

 -12549789.70749  -9634913.40547  22894130.2194   22894127.0594         47.0004
        36.5004
 -16669869.01649 -14320269.02548  20388245.4304   20388239.6134         52.7504
        50.0004
  -2828244.18049  -2721517.45547  23276049.4454   23276044.7074         43.5004
        26.5004
 -10241284.61749  -8360374.56747  22358512.5314   22358507.9534         49.2504
        38.5004
 07  1  1  0 59 30.0000000  0  8G13G 8G25G23G27G19G11G16
  -3473592.95349  -2689719.77146  23562539.4384   23562534.5004         41.2504
        19.7504
                                  24709467.641                          26.250

   3976863.137 8                  24895343.875                          31.000

   3111162.83249  -2918019.67656  24034218.0634   24034210.7814         37.2504
        17.7504
 -12629618.45749  -9697117.60747  22878938.5864   22878935.1804         46.7504
        35.5004
 -16666235.46949 -14317437.68148  20388936.9384   20388930.8954         52.7504
        50.0004
  -2936037.23049  -2805512.02747  23255536.5234   23255532.7544         42.0004
        26.7504
 -10191088.92249  -8321261.07747  22368064.4224   22368060.0634         50.0004
        38.2504
 07  1  1  1  0  0.0000000  0  7G13G25G23G27G19G11G16
  -3416198.01249  -2644996.35646  23573460.3524   23573455.9964         38.2504
        19.7504
   4083880.520 8                  24915709.445                          33.250

   3193516.57048  -2853848.02746  24049889.7734   24049882.2384         35.5004
        13.7504
 -12709147.93449  -9759088.64447  22863804.9924   22863800.8404         46.2504
        35.0004
 -16662239.93449 -14314324.29248  20389697.2584   20389691.5314         54.0004
        50.0004
  -3043689.75849  -2889397.07947  23235050.2424   23235047.2034         40.2504
        26.0004
 -10140712.99649  -8282007.17347  22377651.0164   22377646.3984         50.0004
        38.0004
 07  1  1  1  0 30.0000000  0  6G13G23G27G19G11G16
  -3358478.80949  -2600020.50346  23584445.7034   23584441.4654         41.7504
        21.2504
   3275911.00448  -2789644.73046  24065565.7114   24065561.7734         28.0004
        12.5004
 -12788375.51249  -9820824.40847  22848728.3674   22848724.3164         47.0004
        35.0004
 -16657883.52049 -14310929.68948  20390526.2974   20390520.5124         53.0004
        50.2504
  -3151199.06649  -2973170.53547  23214592.2734   23214588.8284         41.2504
        26.7504
 -10090156.15249  -8242612.24747  22387271.1884   22387267.9694         49.2504
        38.5004
 07  1  1  1  1  0.0000000  0  6G13G23G27G19G11G16
  -3300438.35949  -2554794.27046  23595488.5084   23595486.0124         39.5004
        21.0004
   3358342.73818                  24081254.688                          30.500

 -12867298.72749  -9882323.04547  22833709.4454   22833706.0984         46.7504
        35.2504
 -16653167.52749 -14307254.88448  20391423.5634   20391417.8244         53.5004
        50.2504
  -3258562.82849  -3056830.61547  23194161.9694   23194158.5944         42.0004
        28.7504
 -10039417.98449  -8203076.05747  22396926.3444   22396923.3914         50.2504
        38.0004
 07  1  1  1  1 30.0000000  0  6G13G23G27G19G11G16
  -3242079.88749  -2509320.14946  23606594.9454   23606590.0084         41.7504
        19.2504
   3440808.563 8                  24096948.242                          32.500

 -12945915.39849  -9943582.80147  22818749.0784   22818745.9304         47.7504
        35.7504
 -16648093.77749 -14303301.31648  20392389.1954   20392383.2194         53.2504
        50.0004
  -3365778.55149  -3140375.31947  23173759.6724   23173756.1174         42.7504
        28.5004
  -9988498.55549  -8163398.61747  22406616.1724   22406612.5084         49.7504
        37.5004
 07  1  1  1  2  0.0000000  0  6G13G23G27G19G11G16
  -3183406.14549  -2463600.44146  23617760.0084   23617755.7774         41.0004
        20.5004
   3523305.60218                  24112646.523                          30.000

 -13024222.85249 -10004601.60347  22803848.2664   22803844.9964         47.0004
        36.5004
 -16642663.32849 -14299069.79848  20393422.6254   20393416.4104         52.7504
        50.0004
  -3472843.48049  -3223802.50147  23153386.0704   23153382.1054         43.5004
        29.5004
  -9937397.08649  -8123579.35247  22416340.6954   22416337.0864         45.0004
        36.7504
 07  1  1  1  2 30.0000000  0  6G13G23G27G19G11G16
  -3124419.83649  -2417637.11446  23628984.4924   23628982.0394         42.2504
        22.0004
   3605830.57018                  24128351.742                          31.500

 -13102218.64549 -10065377.55447  22789005.8204   22789002.5824         47.2504
        36.5004
 -16636877.39849 -14294561.28948  20394523.6174   20394517.4494         52.5004
        50.0004
  -3579755.32449  -3307110.43847  23133040.9224   23133037.8244         43.7504
        29.7504
  -9886113.19949  -8083617.89347  22426099.4384   22426096.1684         43.7504
        37.5004
 07  1  1  1  3  0.0000000  0  6G13G23G27G19G11G16
  -3065124.21949  -2371432.82446  23640267.7894   23640264.2344         40.5004
        18.2504
   3688380.60918                  24144058.766                          30.500

 -13179900.41049 -10125908.78447  22774224.1484   22774220.2544         47.5004
        37.0004
 -16630737.53949 -14289776.98348  20395691.9144   20395686.1484         52.7504
        50.0004
  -3686511.53949  -3390297.07747  23112725.5394   23112723.2114         43.0004
        30.2504
  -9834646.53149  -8043514.04447  22435893.7584   22435889.0664         50.0004
        37.2504
 07  1  1  1  3 30.0000000  0  6G13G23G27G19G11G16
  -3005522.91849  -2324990.22746  23651610.0784   23651603.9654         39.5004
        16.2504
                                  24159770.500                          28.750

 -13257265.78949 -10186193.52147  22759501.7974   22759497.5274         47.5004
        36.5004
 -16624245.27049 -14284718.06748  20396927.3444   20396921.4964         53.7504
        50.2504
  -3793109.72349  -3473360.60447  23092441.0314   23092438.5904         43.0004
        29.2504
  -9782996.82049  -8003267.55047  22445721.7894   22445717.3324         49.5004
        36.0004
 07  1  1  1  4  0.0000000  0  6G13G23G27G19G11G16
  -2945618.19948  -2278311.34856  23663009.2504   23663004.6294         35.5004
        13.7504
                                  24175487.984                          30.500

 -13334312.07449 -10246229.60247  22744840.5704   22744836.4414         46.5004
        37.2504
 -16617401.59849 -14279385.33448  20398229.7194   20398223.9064         53.0004
        50.0004
  -3899546.93749  -3556298.66847  23072187.1024   23072184.0704         44.5004
        30.7504
  -9731163.37549  -7962877.88947  22455585.6644   22455580.7504         49.5004
        36.5004
 07  1  1  1  4 30.0000000  0  5G23G27G19G11G16
                                  24191207.500                          31.500

 -13411037.12549 -10306015.35847  22730239.5084   22730236.2384         47.0004
        36.5004
 -16610208.14849 -14273780.04548  20399598.5864   20399592.7384         52.5004
        50.0004
  -4005821.27049  -3639109.81047  23051963.5084   23051960.1764         45.2504
        30.7504
  -9679145.98449  -7922344.90147  22465484.2584   22465479.9654         49.5004
        36.5004
 07  1  1  1  5  0.0000000  0  6G13G23G27G19G11G16
     45588.52319                  23685979.313                          36.250

   4018768.13758  -2210796.16856  24206930.2194   24206927.3754         33.0004
        16.2504
 -13487438.58249 -10365548.97747  22715701.1254   22715697.2304         47.0004
        36.5004
 -16602666.49249 -14267903.44548  20401033.7274   20401027.8954         53.5004
        49.7504
  -4111930.19949  -3721792.08847  23031771.3754   23031767.8404         45.0004
        31.2504
  -9626944.53549  -7881668.46547  22475417.7344   22475413.5554         49.2504
        36.5004
 07  1  1  1  5 30.0000000  0  6G13G23G27G19G11G16
    106384.15649  -2176389.97756  23697548.5784   23697543.6724         38.0004
        14.7504
   4101396.36748  -2146410.57846  24222653.9774   24222648.3444         35.0004
        13.7504
 -13563514.11349 -10424828.59247  22701224.2424   22701220.6994         47.2504
        36.0004
 -16594777.81249 -14261756.42348  20402534.9384   20402529.0204         52.7504
        49.7504
  -4217870.96949  -3804343.34047  23011611.8444   23011608.1954         46.5004
        31.0004
  -9574558.36349  -7840848.13147  22485386.7504   22485382.7894         49.5004
        37.0004
 07  1  1  1  6  0.0000000  0  6G13G23G27G19G11G16
    167471.10549  -2128789.71246  23709173.4534   23709169.4534         40.0004
        19.0004
   4184032.09449  -2082019.21946  24238379.1254   24238373.1484         36.2504
        16.2504
 -13639260.45749 -10483851.74247  22686810.3834   22686806.5394         47.5004
        37.5004
 -16586542.87949 -14255339.57948  20404101.8204   20404096.0124         52.5004
        49.7504
  -4323640.57849  -3886761.18147  22991484.1884   22991480.6684         47.0004
        32.7504
  -9521986.38749  -7799882.98647  22495390.8364   22495387.4454         48.7504
        36.0004
 07  1  1  1  6 30.0000000  0  6G13G23G27G19G11G16
    228846.14549  -2080965.02446  23720852.3284   23720849.5394         39.2504
        19.2504
   4266671.21948  -2017625.23046  24254104.6644   24254099.1804         34.5004
        17.2504
 -13714675.82449 -10542616.97747  22672459.7974   22672456.3164         47.5004
        38.0004
 -16577963.77349 -14248654.56648  20405734.2274   20405728.5944         53.0004
        50.0004
  -4429237.07049  -3969044.13847  22971390.2274   22971386.0744         46.7504
        32.7504
  -9469229.11749  -7758773.44747  22505429.9924   22505426.2734         48.0004
        36.5004
 07  1  1  1  7  0.0000000  0  6G13G23G27G19G11G16
    290505.62549  -2032918.71946  23732585.7424   23732582.6024         37.0004
        17.2504
   4349310.62149  -1953230.95846  24269830.9774   24269825.8554         36.5004
        18.5004
 -13789758.15249 -10601122.68747  22658171.8054   22658168.7154         47.0004
        37.0004
 -16569042.05949 -14241702.58548  20407432.1254   20407426.5314         52.7504
        49.7504
  -4534658.11349  -4051190.38447  22951328.7114   22951324.4304         47.0004
        32.5004
  -9416286.23849  -7717519.30847  22515504.9454   22515500.7424         44.0004
        35.5004
 07  1  1  1  7 30.0000000  0  6G13G23G27G19G11G16
    352447.27348  -1984652.58646  23744372.6414   23744369.0824         34.7504
        15.5004
   4431947.50058  -1888838.79756  24285555.6484   24285551.4884         32.0004
        16.7504
 -13864504.18049 -10659366.35447  22643947.7894   22643944.5554         46.0004
        36.2504
 -16559778.48049 -14234484.22448  20409194.9304   20409189.0554         52.0004
        49.5004
  -4639900.75449  -4133197.59547  22931301.8834   22931297.9924         47.2504
        32.5004
  -9363156.99249  -7676119.94247  22525615.2734   22525610.9494         44.0004
        35.5004
 07  1  1  1  8  0.0000000  0  6G13G23G27G19G11G16
    414667.609 8                  23756212.719                          30.750

                                  24301279.6884   24301274.1804         30.5004
        15.5004
 -13938912.23049 -10717346.67747  22629788.3134   22629785.5234         47.0004
        36.7504
 -16550175.15249 -14227001.11448  20411022.4924   20411016.6054         52.5004
        49.7504
  -4744963.04749  -4215064.30547  22911309.4924   22911305.0704         48.0004
        33.2504
  -9309841.27349  -7634575.25947  22535760.9924   22535757.0664         47.0004
        36.2504
 07  1  1  1  8 30.0000000  0  6G13G23G27G19G11G16
    477163.81618                  23768105.359                          30.000

                                  24317005.2424   24316997.9734         27.5004
        14.7504
 -14012979.71549 -10775061.59947  22615693.9384   22615690.9924         44.5004
        36.7504
 -16540232.96949 -14219253.95848  20412914.2194   20412908.4924         52.7504
        49.7504
  -4849842.02349  -4296788.13947  22891351.6094   22891347.4804         46.0004
        33.5004
  -9256337.81649  -7592884.26147  22545942.1564   22545937.7464         49.2504
        35.5004
 07  1  1  1  9  0.0000000  0  6G13G23G27G19G11G16
                                  23780050.961                          29.750

   4679812.25058  -1695697.56656  24332722.8364   24332717.6214         28.0004
        16.2504
 -14086704.38749 -10832509.40847  22601664.7814   22601661.5474         46.5004
        37.7504
 -16529953.87949 -14211244.28248  20414870.3754   20414864.6994         53.0004
        50.0004
  -4954535.60249  -4378367.53747  22871429.0474   22871424.9454         46.7504
        34.5004
  -9202647.32049  -7551047.53447  22556159.5164   22556155.2234         50.0004
        36.5004
 07  1  1  1  9 30.0000000  0  5G13G27G19G11G16
    602970.211 8                  23792045.547                          30.500

 -14160083.53949 -10889687.98047  22587701.0314   22587697.3674         47.0004
        37.5004
 -16519338.75849 -14202972.76848  20416890.4144   20416884.3834         52.5004
        49.7504
  -5059040.60949  -4459799.99247  22851542.2034   22851538.7114         47.5004
        35.0004
  -9148769.07049  -7509064.52847  22566411.5864   22566408.2154         49.2504
        36.2504
 07  1  1  1 10  0.0000000  0  6G13G23G27G19G11G16
    666274.90618                  23804095.344                          30.500

   4844974.76218                  24364158.641                          30.500

 -14233114.66449 -10946595.34247  22573803.6024   22573800.4104         46.5004
        37.2504
 -16508389.30949 -14194440.72648  20418974.0394   20418968.0514         51.7504
        49.5004
  -5163354.79349  -4541083.75747  22831692.2734   22831688.7424         47.0004
        35.2504
  -9094702.41049  -7466934.69047  22576700.4304   22576696.0984         49.5004
        35.5004
 07  1  1  1 10 30.0000000  0  6G13G23G27G19G11G16
    729842.48018                  23816191.719                          29.250

   4927533.75018                  24379865.742                          31.000

 -14305795.61349 -11003229.85747  22559972.7734   22559969.2154         46.2504
        37.2504
 -16497107.19949 -14185649.47348  20421120.5234   20421114.9694         51.7504
        49.2504
  -5267476.00049  -4622217.14647  22811878.6254   22811875.2384         46.2504
        34.7504
  -9040447.39849  -7424658.09747  22587024.7344   22587020.6174         48.5004
        36.0004
 07  1  1  1 11  0.0000000  0  5G23G27G19G11G16
   5010069.348 8                  24395571.820                          33.000

 -14378123.79349 -11059589.48647  22546209.2974   22546205.8914         46.5004
        37.5004
 -16485493.35949 -14176599.73048  20423330.9454   20423324.8284         52.5004
        49.5004
  -5371401.58649  -4703198.09447  22792101.9534   22792098.3634         47.0004
        35.7504
  -8986003.37549  -7382234.21947  22597385.4534   22597380.6454         49.5004
        36.2504
 07  1  1  1 11 30.0000000  0  5G23G27G19G11G16
   5092578.652 8                  24411271.461                          30.500

 -14450096.93049 -11115672.45647  22532512.9694   22532509.4304         47.5004
        37.5004
 -16473549.50049 -14167292.82748  20425603.8054   20425597.9964         53.0004
        49.7504
  -5475128.85549  -4784024.50347  22772362.9534   22772359.4024         45.2504
        35.0004
  -8931369.95749  -7339662.75747  22607781.4304   22607777.5314         48.2504
        35.5004
 07  1  1  1 12  0.0000000  0  5G23G27G19G11G16
   5175058.484 8                  24426968.117                          33.750

 -14521713.13349 -11171477.29947  22518885.0634   22518881.8164         47.0004
        37.0004
 -16461277.04349 -14157729.87348  20427939.0704   20427933.7304         52.5004
        49.5004
  -5578655.70749  -4864694.75547  22752662.9614   22752658.8594         46.5004
        35.5004
  -8876547.21149  -7296943.76747  22618214.2424   22618210.1844         48.5004
        36.2504
 07  1  1  1 12 30.0000000  0  5G23G27G19G11G16
   5257505.684 8                  24442657.695                          34.000

 -14592970.08649 -11227002.21447  22505324.8444   22505322.5354         47.7504
        38.5004
 -16448677.82049 -14147912.30348  20430336.4304   20430331.2344         53.0004
        49.5004
  -5681979.62149  -4945206.88347  22733001.0234   22732997.2114         46.5004
        35.0004
  -8821534.61749  -7254076.84747  22628682.9614   22628678.6414         49.0004
        36.0004
 07  1  1  1 13  0.0000000  0  6G13G23G27G19G11G16
    109200.73459  -1632635.02056  23877403.3284   23877396.6054         39.5004
        17.7504
   5339917.387 8                  24458339.977                          34.500

 -14663865.42649 -11282245.35447  22491834.6094   22491831.1604         48.0004
        37.7504
 -16435753.17249 -14137841.15848  20432796.4224   20432790.5124         52.7504
        49.5004
  -5785098.29349  -5025559.04747  22713378.0554   22713374.3634         46.7504
        35.0004
  -8766332.08249  -7211061.92247  22639187.2504   22639184.1054         48.5004
        36.0004
 07  1  1  1 13 30.0000000  0  6G13G23G27G19G11G16
    174283.01649  -1581921.57346  23889787.4614   23889783.1604         41.0004
        19.2504
   5422291.551 9                  24474015.227                          36.000

 -14734395.93049 -11337204.18847  22478412.9064   22478409.4144         47.5004
        37.7504
 -16422503.81249 -14127516.98448  20435317.4064   20435311.5554         53.0004
        49.5004
  -5888008.43749  -5105748.73047  22693794.4384   22693790.9924         47.5004
        35.2504
  -8710938.35549  -7167898.01447  22649728.5234   22649725.6954         48.5004
        36.0004
 07  1  1  1 14  0.0000000  0  6G13G23G27G19G11G16
    239606.39549  -1531020.35746  23902217.7194   23902214.7074         41.0004
        20.2504
   5504624.488 8                  24489683.352                          34.500

 -14804560.02349 -11391877.49847  22465060.8984   22465057.3984         48.7504
        38.0004
 -16408932.16849 -14116941.68248  20437899.9534   20437894.1764         52.5004
        49.5004
  -5990708.12949  -5185774.45547  22674251.6414   22674248.0354         47.2504
        35.0004
  -8655354.12149  -7124585.66547  22660305.9774   22660302.1604         49.0004
        35.7504
 07  1  1  1 14 30.0000000  0  6G13G23G27G19G11G16
    305168.31649  -1479933.18046  23914693.5084   23914689.7854         38.5004
        19.0004
   5586913.656 8                  24505343.055                          33.000

 -14874355.04749 -11446263.25847  22451779.6954   22451776.4774         47.5004
        38.0004
 -16395039.00449 -14106115.84048  20440543.6094   20440538.3244         52.7504
        49.5004
  -6093194.69949  -5265634.10847  22654749.0234   22654745.4454         47.0004
        34.7504
  -8599578.41049  -7081124.10447  22670919.5394   22670915.5164         48.0004
        35.7504
 07  1  1  1 15  0.0000000  0  6G13G23G27G19G11G16
    370965.38749  -1428662.96046  23927215.1484   23927211.3244         41.0004
        20.5004
   5669155.87118                  24520992.906                          30.250

 -14943778.77049 -11500359.66747  22438568.9144   22438566.0664         48.7504
        38.2504
 -16380826.18749 -14095040.92048  20443248.3444   20443242.7274         52.2504
        49.5004
  -6195465.71949  -5345325.79347  22635287.5554   22635283.7074         47.5004
        35.2504
  -8543611.10249  -7037513.23447  22681569.8754   22681566.0434         47.5004
        35.0004
 07  1  1  1 15 30.0000000  0  6G13G23G27G19G11G16
    436994.24249  -1377211.94446  23939780.7114   23939776.8444         39.0004
        20.0004
   5751347.609 8                  24536634.742                          32.000

 -15012828.89549 -11554164.96847  22425429.3284   22425426.0634         48.0004
        38.2504
 -16366295.28549 -14083718.14648  20446013.7034   20446008.0704         52.5004
        49.5004
  -6297519.22749  -5424848.00047  22615867.5084   22615864.0314         48.5004
        36.0004
  -8487452.09049  -6993753.00547  22692256.5784   22692252.5744         46.0004
        35.5004
 07  1  1  1 16  0.0000000  0  6G13G23G27G19G11G16
    503252.13349  -1325582.48146  23952388.3524   23952385.0634         38.7504
        19.2504
   5833487.020 8                  24552266.281                          28.500

 -15081502.92249 -11607677.20047  22412360.7274   22412357.5984         48.5004
        38.2504
 -16351447.35249 -14072148.32548  20448838.9144   20448833.3284         53.2504
        49.5004
  -6399352.12949  -5504198.29847  22596489.4924   22596485.8754         48.5004
        36.5004
  -8431100.48449  -6949842.69947  22702979.6724   22702975.6174         44.0004
        35.2504
 07  1  1  1 16 30.0000000  0  5G13G27G19G11G16
    569735.96949  -1273777.05546  23965039.1024   23965035.9844         37.2504
        19.5004
 -15149798.83249 -11660894.79447  22399364.5474   22399360.5664         47.7504
        38.2504
 -16336284.23449 -14060332.90748  20451724.3594   20451718.6644         52.5004
        49.5004
  -6500962.10249  -5583374.88747  22577153.4614   22577150.6764         47.5004
        35.7504
  -8374556.25049  -6905782.28647  22713739.6484   22713736.1454         42.7504
        35.7504
 07  1  1  1 17  0.0000000  0  5G13G27G19G11G16
    636442.17649  -1221798.19146  23977734.0234   23977730.2934         38.7504
        17.2504
 -15217714.35549 -11713815.99247  22386440.7894   22386437.2034         48.5004
        38.2504
 -16320807.35249 -14048273.01148  20454669.6804   20454663.9574         52.7504
        49.5004
  -6602346.86749  -5662375.99747  22557860.7424   22557857.1334         47.2504
        35.0004
  -8317819.52049  -6861571.88747  22724536.5084   22724532.5704         43.0004
        34.7504
 07  1  1  1 17 30.0000000  0  5G13G27G19G11G16
    703367.47749  -1169648.71546  23990468.6644   23990465.6884         36.5004
        16.7504
 -15285247.47349 -11766439.19847  22373589.5084   22373586.1804         48.5004
        38.7504
 -16305018.52349 -14035970.02548  20457674.1174   20457668.1914         53.0004
        49.5004
  -6703504.25849  -5741199.90847  22538610.9454   22538607.6524         47.5004
        34.7504
  -8260890.06249  -6817211.31447  22735369.5784   22735365.4844         42.5004
        34.5004
 07  1  1  1 18  0.0000000  0  5G13G27G19G11G16
    770509.23049  -1117330.50846  24003245.6884   24003243.1214         36.7504
        14.7504
 -15352395.18749 -11818762.11047  22360811.5864   22360808.0704         48.0004
        38.2504
 -16288918.80949 -14023424.77848  20460737.9694   20460732.1524         52.5004
        49.2504
  -6804431.12549  -5819844.22247  22519405.5004   22519401.9494         48.5004
        35.7504
  -8203766.69549  -6772699.65447  22746240.3134   22746236.1414         43.0004
        35.0004
 07  1  1  1 18 30.0000000  0  5G13G27G19G11G16
    837864.36349  -1064846.01246  24016063.8364   24016060.1094         37.7504
        14.7504
 -15419155.28549 -11870782.96947  22348107.5944   22348104.2074         47.2504
        38.5004
 -16272509.25049 -14010638.10648  20463860.4614   20463854.3364         52.0004
        49.2504
  -6905125.03949  -5898307.00747  22500244.3284   22500240.4104         49.0004
        36.7504
  -8146449.31249  -6728036.78447  22757147.3754   22757143.0904         43.0004
        35.0004
 07  1  1  1 19  0.0000000  0  6G13G23G27G19G11G16
    905429.31349  -1012198.05546  24028920.7664   24028916.7894         36.2504
        15.5004
                                  24645787.430                          33.750

 -15485526.09049 -11922500.48447  22335477.7274   22335473.9454         48.0004
        38.5004
 -16255792.19949 -13997611.83048  20467041.8204   20467035.7584         52.2504
        49.0004
  -7005583.90649  -5976586.63447  22481127.3134   22481123.8444         48.5004
        36.7504
  -8088938.00849  -6683222.82747  22768091.3984   22768087.6454         43.7504
        35.0004
 07  1  1  1 19 30.0000000  0  6G13G23G27G19G11G16
    973200.96548   -959388.99646  24041816.9384   24041813.2624         34.0004
        14.7504
    318966.840 8                  24661352.820                          31.750

 -15551505.12149 -11973912.71647  22322922.2734   22322919.0164         47.0004
        38.7504
 -16238768.84449 -13984346.87848  20470280.8754   20470275.0004         52.0004
        49.0004
  -7105805.38749  -6054681.28547  22462055.7894   22462051.5744         49.5004
        36.7504
  -8031232.34849  -6638257.41847  22779072.6954   22779068.2074         45.7504
        35.0004
 07  1  1  1 20  0.0000000  0  6G13G23G27G19G11G16
   1041175.969 8                  24054752.094                          35.250

                                  24676883.336                          27.500

 -15617090.39149 -12025018.14247  22310442.2504   22310438.5474         48.2504
        39.0004
 -16221440.82449 -13970844.51348  20473578.3204   20473572.5904         52.5004
        49.2504
  -7205787.20349  -6132589.19047  22443029.9384   22443025.7234         47.5004
        35.5004
  -7973332.36749  -6593140.56747  22790090.6884   22790087.2114         46.5004
        35.2504
 07  1  1  1 20 30.0000000  0  6G13G23G27G19G11G16
   1109351.922 8                  24067724.727                          33.500

    482117.78518                  24692400.242                          30.250

 -15682279.05149 -12075814.49347  22298036.7974   22298033.5474         47.7504
        39.0004
 -16203809.27349 -13957105.64648  20476933.6644   20476927.9494         52.0004
        49.2504
  -7305526.17249  -6210307.86047  22424050.0704   22424046.3674         48.0004
        36.7504
  -7915237.10949  -6547871.59347  22801145.6954   22801142.1644         46.5004
        35.5004
 07  1  1  1 21  0.0000000  0  6G13G23G27G19G11G16
   1177724.656 9                  24080736.945                          38.000

    563572.734 8                  24707899.922                          33.000

 -15747069.46149 -12126300.54947  22285707.6804   22285704.4414         48.5004
        39.0004
 -16185876.27749 -13943131.87348  20480346.1254   20480340.2934         51.7504
        49.0004
  -7405020.54349  -6287835.92147  22405117.1804   22405113.9964         48.5004
        36.7504
  -7856947.28149  -6502450.97847  22812237.6884   22812234.2894         46.2504
        34.0004
 07  1  1  1 21 30.0000000  0  6G13G23G27G19G11G16
   1246291.469 9                  24093784.445                          38.500

    644943.605 8                  24723385.063                          31.250

 -15811459.30549 -12176474.44548  22273455.0704   22273451.6414         48.0004
        40.2504
 -16167643.16849 -13928924.24848  20483815.8364   20483809.6954         52.5004
        49.0004
  -7504267.89149  -6365171.51347  22386230.6094   22386226.7074         47.0004
        36.5004
  -7798461.94549  -6456878.04047  22823367.8134   22823363.8134         47.0004
        34.7504
 07  1  1  1 22  0.0000000  0  6G13G23G27G19G11G16
   1315049.324 9                  24106868.758                          36.000

                                  24738852.797                          31.250

 -15875446.03949 -12226334.23648  22261278.3674   22261275.6134         47.2504
        40.0004
 -16149111.17649 -13914483.73848  20487342.6174   20487336.2974         52.5004
        49.5004
  -7603265.66849  -6442312.62647  22367392.1724   22367388.1414         47.5004
        35.7504
  -7739780.74649  -6411152.48747  22834534.5784   22834529.4534         47.0004
        33.5004
 07  1  1  1 22 30.0000000  0  6G13G22G27G19G11G16
   1383994.945 8                  24119988.711                          34.500

    -39702.85259    -26114.66956  25214137.3054   25214132.3634         40.0004
        21.5004
 -15939027.52049 -12275878.25547  22249179.0864   22249176.2464         47.0004
        39.2504
 -16130281.96949 -13899811.62748  20490925.5084   20490919.2424         52.5004
        49.0004
  -7702011.17249  -6519257.16947  22348601.3594   22348597.8324         48.5004
        37.5004
  -7680903.91849  -6365274.47847  22845738.0394   22845734.5944         47.2504
        34.7504
 07  1  1  1 23  0.0000000  0  6G13G22G27G19G11G16
   1453125.270 8                  24133143.563                          31.500

    -76601.96149    -54867.07046  25207114.5004   25207110.2934         38.5004
        21.2504
 -16002201.50449 -12325104.74247  22237157.8594   22237154.4344         46.5004
        39.0004
 -16111156.94149 -13884909.00648  20494564.6804   20494559.1054         52.0004
        49.0004
  -7800502.13749  -6596003.36147  22329858.9304   22329855.8834         48.0004
        37.5004
  -7621830.68049  -6319243.42247  22856980.0474   22856975.1054         47.5004
        34.7504
 07  1  1  1 23 30.0000000  0  6G13G22G27G19G11G16
   1522437.043 8                  24146334.234                          35.000

   -113219.34849    -83400.03546  25200147.5864   25200142.6994         39.0004
        22.5004
 -16064966.04749 -12374012.17948  22225213.9924   22225210.8674         45.5004
        39.5004
 -16091737.84049 -13869777.24748  20498260.2584   20498254.4454         52.0004
        49.2504
  -7898736.16449  -6672549.34247  22311165.7034   22311162.3714         47.7504
        36.7504
  -7562560.94549  -6273059.25547  22868257.9694   22868253.9964         48.0004
        34.7504
 07  1  1  1 24  0.0000000  0  6G13G22G27G19G11G16
   1591926.863 8                  24159558.055                          33.500

   -149552.47749   -111711.52346  25193232.4224   25193229.6374         39.7504
        22.0004
 -16127318.94949 -12422598.87548  22213348.6094   22213345.6054         45.2504
        40.2504
 -16072025.96149 -13854417.34548  20502011.2894   20502005.1294         52.2504
        49.0004
  -7996710.86349  -6748893.25747  22292521.5234   22292518.3244         47.0004
        37.0004
  -7503094.55549  -6226721.83147  22879573.9924   22879569.9184         45.7504
        34.5004
 07  1  1  1 24 30.0000000  0  6G13G22G27G19G11G16
                                  24172812.344                          26.250

   -185599.07849   -139799.68046  25186373.5394   25186369.3754         38.2504
        20.7504
 -16189258.11349 -12470863.16348  22201562.2424   22201558.9304         45.0004
        40.5004
 -16052023.06249 -13838830.67948  20505817.7814   20505812.0664         52.5004
        49.5004
  -8094424.21549  -6825033.51447  22273927.4614   22273924.0084         48.0004
        37.5004
  -7443431.46149  -6180231.15447  22890927.8834   22890924.1254         45.7504
        34.0004
 07  1  1  1 25  0.0000000  0  5G22G27G19G11G16
   -221357.04349   -167662.88546  25179569.2584   25179565.1054         39.2504
        21.7504
 -16250781.48049 -12518803.45148  22189854.5164   22189850.8364         46.0004
        40.0004
 -16031730.80549 -13823018.52048  20509678.8834   20509672.9414         52.5004
        49.0004
  -8191873.60949  -6900968.08847  22255383.2344   22255379.6844         47.7504
        37.5004
  -7383571.43049  -6133586.99747  22902318.6564   22902315.2504         45.0004
        34.2504
 07  1  1  1 25 30.0000000  0  5G22G27G19G11G16
   -256823.62149   -195299.10346  25172819.9774   25172814.2894         38.7504
        21.5004
 -16311886.50049 -12566417.74748  22178226.7814   22178223.2304         46.2504
        39.5004
 -16011150.29349 -13806981.76148  20513595.4224   20513589.7774         51.2504
        49.0004
  -8289056.59049  -6976695.09247  22236890.1954   22236886.7424         46.7504
        38.0004
  -7323514.06249  -6086789.10147  22913746.9144   22913744.4964         45.2504
        33.0004
 07  1  1  1 26  0.0000000  0  5G22G27G19G11G16
   -291996.96149   -222706.78846  25166126.5004   25166122.3054         38.7504
        23.7504
 -16372571.69549 -12613704.92448  22166678.8364   22166675.8204         47.5004
        39.7504
 -15990283.51649 -13790721.92948  20517566.2974   20517560.3874         51.5004
        49.0004
  -8385970.79349  -7052212.64747  22218448.4844   22218444.3754         46.5004
        38.0004
  -7263258.94549  -6039837.11747  22925213.3204   22925210.0434         44.2504
        33.0004
 07  1  1  1 26 30.0000000  0  5G22G27G19G11G16
   -326873.83249   -249883.47346  25159489.5084   25159484.3834         40.0004
        21.5004
 -16432834.14849 -12660662.67248  22155211.5004   22155207.2894         48.2504
        39.7504
 -15969131.19549 -13774239.60748  20521591.2034   20521585.9104         51.7504
        48.7504
  -8482613.34449  -7127518.52047  22200057.8444   22200054.0084         47.5004
        37.5004
  -7202805.66449  -5992730.71647  22936717.9844   22936713.1724         43.0004
        33.0004
 07  1  1  1 27  0.0000000  0  5G22G27G19G11G16
   -361452.81649   -276828.00046  25152909.0084   25152904.6414         39.2504
        22.7504
 -16492672.27349 -12707289.78648  22143824.4454   22143820.5314         47.0004
        40.0004
 -15947695.80949 -13757536.71048  20525670.4304   20525665.0354         52.0004
        49.0004
  -8578982.82049  -7202611.62147  22181719.1564   22181715.8204         47.2504
        37.5004
  -7142154.96549  -5945470.45947  22948259.2734   22948255.8754         43.5004
        34.5004
 07  1  1  1 27 30.0000000  0  5G22G27G19G11G16
   -395731.19549   -303538.39246  25146386.0314   25146382.4104         39.0004
        21.5004
 -16552083.64549 -12753584.36247  22132518.5394   22132515.5204         46.2504
        39.2504
 -15925978.27349 -13740613.96648  20529803.3364   20529797.3674         50.7504
        49.2504
  -8675076.27749  -7277489.60447  22163432.8984   22163430.3364         46.7504
        38.5004
  -7081305.64149  -5898055.44647  22959838.1564   22959834.7034         46.7504
        34.2504
 07  1  1  1 28  0.0000000  0  5G22G27G19G11G16
   -429707.34049   -330013.24146  25139921.0554   25139917.3204         39.7504
        22.7504
 -16611066.71149 -12799545.19948  22121294.4774   22121291.1374         47.0004
        39.7504
 -15903980.51249 -13723472.84848  20533989.2664   20533983.2464         52.5004
        48.7504
  -8770891.72349  -7352150.97147  22145200.0784   22145197.0354         47.5004
        38.2504
  -7020258.33649  -5850486.16347  22971455.1884   22971451.8054         46.5004
        34.5004
 07  1  1  1 28 30.0000000  0  6G13G22G27G19G11G16
    140798.51218                  24279996.758                          35.000

   -463378.20749   -356250.27446  25133512.8674   25133510.4184         38.7504
        22.0004
 -16669618.79749 -12845170.20348  22110152.5704   22110149.1454         45.2504
        40.0004
 -15881703.56249 -13706114.18348  20538228.3524   20538222.8444         51.5004
        49.0004
  -8866426.27349  -7426593.46347  22127020.3594   22127017.1914         48.2504
        38.2504
  -6959012.37949  -5802762.07347  22983110.0704   22983105.8914         47.5004
        34.5004
 07  1  1  1 29  0.0000000  0  6G13G22G27G19G11G16
    211895.281 8                  24293523.266                          31.250

   -496741.86749   -382247.92846  25127165.1174   25127160.2814         38.2504
        21.0004
 -16727738.29349 -12890458.14548  22099093.0164   22099089.4804         46.5004
        40.0004
 -15859149.22349 -13688539.38048  20542520.4144   20542514.5124         51.7504
        49.0004
  -8961678.18049  -7500815.73147  22108894.6094   22108890.2424         48.0004
        37.0004
  -6897567.63749  -5754883.08247  22994802.3204   22994798.1374         46.5004
        32.7504
 07  1  1  1 29 30.0000000  0  6G13G22G27G19G11G16
    283135.016 8                  24307081.305                          34.000

   -529796.42649   -408004.67546  25120874.8364   25120870.8984         39.5004
        22.2504
 -16785423.28949 -12935407.48448  22088115.4924   22088111.9804         47.5004
        40.0004
 -15836319.40649 -13670749.91248  20546864.7974   20546858.8874         51.5004
        49.0004
  -9056644.98449  -7574815.83347  22090822.8834   22090819.4024         48.0004
        38.2504
  -6835924.20349  -5706849.28347  23006532.5474   23006529.8754         42.0004
        33.2504
 07  1  1  1 30  0.0000000  0  6G13G22G27G19G11G16
    354515.234 8                  24320665.305                          35.750

   -562539.19149   -433518.50846  25114643.8754   25114639.0084         40.0004
        22.2504
 -16842671.11749 -12980016.18648  22077221.8984   22077218.2304         47.5004
        40.7504
 -15813214.76649 -13652746.29548  20551261.5234   20551255.4574         51.5004
        49.0004
  -9151323.55149  -7648591.31747  22072805.9224   22072802.1844         47.7504
        38.0004
  -6774080.98049  -5658659.78647  23018300.6094   23018297.3164         41.5004
        33.0004
 07  1  1  1 30 30.0000000  0  5G22G27G19G11G16
   -594967.96549   -458787.67046  25108472.4844   25108469.3834         39.7504
        22.5004
 -16899480.09849 -13024282.93548  22066411.3594   22066408.0664         47.2504
        40.0004
 -15789837.44949 -13634530.20648  20555710.0784   20555704.0984         52.0004
        48.7504
  -9245712.22749  -7722140.89047  22054844.4224   22054841.0314         48.2504
        38.0004
  -6712038.49249  -5610315.04047  23030107.3284   23030103.8754         45.2504
        32.7504
 07  1  1  1 31  0.0000000  0  5G22G27G19G11G16
   -627080.40249   -483810.34646  25102362.2344   25102358.0084         38.7504
        21.5004
 -16955847.99649 -13068205.97648  22055685.0004   22055681.7304         48.0004
        40.2504
 -15766188.79749 -13616102.68548  20560209.9384   20560204.4804         51.7504
        48.7504
  -9339808.64849  -7795462.76447  22036938.6954   22036935.3014         48.7504
        39.2504
  -6649796.50849  -5561814.82247  23041951.7424   23041948.8484         45.5004
        33.7504
 07  1  1  1 31 30.0000000  0  5G22G27G19G11G16
   -658874.74649   -508585.15846  25096311.7034   25096307.2734         38.0004
        22.5004
 -17011773.36749 -13111784.18448  22045042.4924   22045039.4654         48.2504
        40.5004
 -15742270.55949 -13597465.09848  20564761.6484   20564755.6914         51.2504
        48.7504
  -9433610.69949  -7868555.26147  22019088.9614   22019085.0124         48.7504
        39.0004
  -6587355.29349  -5513159.36647  23053834.1644   23053831.1804         46.2504
        34.2504
 07  1  1  1 32  0.0000000  0  5G22G27G19G11G16
   -690348.42249   -533110.08546  25090322.0554   25090319.8324         39.0004
        22.0004
 -17067253.59049 -13155015.54048  22034485.2894   22034481.5864         48.7504
        40.5004
 -15718083.86349 -13578618.31748  20569363.9224   20569358.1024         51.2504
        48.2504
  -9527115.76249  -7941416.32947  22001295.0704   22001291.5274         48.0004
        38.7504
  -6524713.80949  -5464347.88347  23065754.3054   23065750.5124         46.7504
        34.0004
 07  1  1  1 32 30.0000000  0  5G22G27G19G11G16
   -721499.63349   -557383.69346  25084394.8834   25084390.8834         38.2504
        23.0004
 -17122287.34849 -13197898.98248  22024012.4304   22024009.0084         49.0004
        40.2504
 -15693630.65649 -13559563.86548  20574017.0084   20574011.3874         51.2504
        48.5004
  -9620321.78149  -8014044.35847  21983558.5704   21983554.7664         48.7504
        38.5004
  -6461872.97749  -5415381.03647  23077712.5784   23077709.6024         45.7504
        33.2504
 07  1  1  1 33  0.0000000  0  5G22G27G19G11G16
   -752326.37149   -581404.46446  25078528.4144   25078523.8834         39.5004
        21.5004
 -17176872.27049 -13240432.69048  22013625.5474   22013621.6804         49.5004
        39.7504
 -15668912.80949 -13540303.20948  20578721.1174   20578715.1294         52.0004
        48.5004
  -9713226.48049  -8086437.63447  21965879.3054   21965875.6564         47.5004
        38.0004
  -6398832.04349  -5366258.27147  23089708.6564   23089705.4924         42.2504
        33.0004
 07  1  1  1 33 30.0000000  0  5G22G27G19G11G16
   -782825.45749   -605169.97246  25072724.1174   25072720.6884         38.7504
        22.2504
 -17231005.95349 -13282614.79748  22003324.3284   22003320.8754         50.2504
        40.5004
 -15643931.11349 -13520836.94948  20583474.8914   20583468.8324         51.7504
        48.5004
  -9805827.22349  -8158594.04347  21948257.9454   21948254.5394         48.2504
        38.5004
  -6335590.65649  -5316979.31547  23101743.1484   23101739.2974         45.5004
        32.5004
 07  1  1  1 34  0.0000000  0  5G22G27G19G11G16
   -812995.49649   -628679.01646  25066982.9224   25066978.8674         38.5004
        21.2504
 -17284686.86749 -13324444.07648  21993108.9144   21993105.2424         49.7504
        41.0004
 -15618686.87549 -13501166.10348  20588278.7034   20588273.0704         51.2504
        48.5004
  -9898122.05149  -8230512.05048  21930695.0084   21930691.4534         49.0004
        39.5004
  -6272148.92649  -5267544.24447  23113815.6564   23113812.0984         44.7504
        32.5004
 07  1  1  1 34 30.0000000  0  5G22G27G19G11G16
   -842835.02049   -651930.57146  25061304.9534   25061300.0704         39.5004
        22.0004
 -17337913.57049 -13365919.43948  21982980.2424   21982976.8094         49.2504
        41.0004
 -15593182.62949 -13481292.67248  20593132.2114   20593126.6024         52.0004
        48.7504
  -9990108.94549  -8302190.12348  21913190.5314   21913187.1414         49.2504
        39.5004
  -6208507.14549  -5217953.30147  23125926.5704   23125923.8554         43.5004
        33.7504
 07  1  1  1 35  0.0000000  0  5G22G27G19G11G16
   -872340.85249   -674922.15946  25055690.3754   25055685.2384         40.0004
        25.2504
 -17390683.56649 -13407038.92748  21972938.5944   21972935.4144         49.7504
        41.0004
 -15567418.98049 -13461217.10248  20598034.7584   20598028.8204         51.7504
        48.5004
 -10081785.15649  -8373626.11447  21895744.8914   21895741.0164         47.0004
        39.2504
  -6144664.36349  -5168205.74347  23138075.8134   23138071.7034         47.0004
        32.2504
 07  1  1  1 35 30.0000000  0  5G22G27G19G11G16
   -901511.33249   -697652.34646  25050139.0314   25050133.0434         37.0004
        21.7504
 -17442994.96949 -13447801.06148  21962983.4224   21962980.8874         49.7504
        40.7504
 -15541397.64849 -13440940.73448  20602986.3914   20602980.7074         51.7504
        48.5004
 -10173148.44949  -8444818.27348  21878359.2194   21878355.7034         48.5004
        39.5004
  -6080620.82049  -5118301.70647  23150262.8204   23150258.5984         47.0004
        32.0004
 07  1  1  1 36  0.0000000  0  5G22G27G19G11G16
   -930344.59449   -720119.83746  25044652.9614   25044648.0784         38.2504
        24.0004
 -17494846.42249 -13488204.80048  21953117.1024   21953113.7384         50.0004
        41.0004
 -15515120.61349 -13420465.12648  20607986.8914   20607980.6684         51.5004
        48.5004
 -10264196.87549  -8515765.08448  21861033.5004   21861030.1254         48.0004
        40.0004
  -6016376.89849  -5068241.55647  23162488.0944   23162484.1414         42.2504
        32.2504
 07  1  1  1 36 30.0000000  0  6G13G22G27G19G11G16
    133592.41018                  24499397.422                          31.500

   -958837.97749   -742322.52946  25039229.7504   25039224.9924         37.5004
        22.5004
 -17546235.66049 -13528248.37248  21943338.0864   21943334.5594         50.7504
        41.2504
 -15488589.09449 -13399791.21848  20613035.3984   20613029.7704         52.0004
        48.5004
 -10354927.98049  -8586464.60848  21843767.4614   21843764.4264         49.0004
        39.7504
  -5951932.03549  -5018024.82147  23174750.5944   23174747.8164         45.5004
        32.2504
 07  1  1  1 37  0.0000000  0  6G13G22G27G19G11G16
    206600.855 8                  24513290.828                          32.500

   -986989.39849   -764258.72946  25033874.2274   25033869.0984         42.0004
        22.5004
 -17597160.86749 -13567930.36248  21933647.1174   21933644.0044         50.2504
        41.0004
 -15461804.40649 -13378920.03448  20618132.5084   20618126.7274         51.0004
        48.2504
 -10445339.41049  -8656915.03248  21826562.9534   21826559.7814         49.0004
        40.5004
  -5887285.96949  -4967651.31347  23187052.9304   23187049.5944         46.0004
        32.7504
 07  1  1  1 37 30.0000000  0  5G22G27G19G11G16
  -1014797.33249   -785927.21246  25028581.2734   25028576.5824         39.0004
        22.5004
 -17647620.41849 -13607249.47848  21924044.9454   21924042.0664         49.7504
        40.5004
 -15434768.33649 -13357852.96248  20623277.6024   20623271.5824         52.0004
        48.5004
 -10535429.34849  -8727114.97148  21809419.8204   21809415.8204         50.0004
        40.7504
  -5822438.84449  -4917121.12047  23199393.4844   23199389.0904         45.5004
        31.7504
 07  1  1  1 38  0.0000000  0  5G22G27G19G11G16
  -1042259.77749   -807326.55946  25023356.2274   25023352.0594         39.5004
        24.5004
 -17697612.41849 -13646204.30948  21914532.3204   21914528.3674         50.2504
        40.7504
 -15407482.49249 -13336591.27048  20628469.5784   20628463.7544         51.5004
        48.2504
 -10625195.46149  -8797062.55348  21792337.3054   21792333.6024         49.5004
        40.0004
  -5757390.81649  -4866434.37347  23211771.5084   23211767.5744         43.2504
        32.5004
 07  1  1  1 38 30.0000000  0  5G22G27G19G11G16
  -1069374.40249   -828454.86546  25018196.3594   25018191.7274         38.7504
        21.7504
 -17747134.64549 -13684793.06848  21905108.1094   21905104.9224         50.0004
        41.2504
 -15379948.27349 -13315136.04448  20633709.1254   20633703.2384         51.5004
        48.0004
 -10714635.43749  -8866756.01548  21775317.5234   21775314.1524         49.2504
        40.0004
  -5692141.63349  -4815590.90447  23224188.3054   23224184.2974         43.0004
        32.2504
 07  1  1  1 39  0.0000000  0  5G22G27G19G11G16
  -1096139.44149   -849310.77246  25013102.8524   25013097.5044         37.7504
        22.5004
 -17796185.81649 -13723014.76048  21895773.4924   21895770.6524         49.7504
        40.5004
 -15352167.30149 -13293488.54648  20638995.7344   20638989.8634         51.5004
        48.2504
 -10803747.28549  -8936193.77948  21758360.1174   21758356.6684         48.2504
        40.0004
  -5626691.17249  -4764590.57447  23236642.8834   23236639.1374         46.2504
        33.0004
 07  1  1  1 39 30.0000000  0  5G22G27G19G11G16
  -1122552.64549   -869892.49946  25008076.3674   25008072.4844         38.0004
        22.5004
 -17844764.25849 -13760868.08348  21886529.8914   21886526.5394         50.5004
        41.5004
 -15324141.14549 -13271649.99548  20644329.1334   20644323.0634         51.2504
        48.2504
 -10892528.65649  -9005374.05447  21741465.7194   21741461.2504         48.2504
        39.0004
  -5561039.64149  -4713433.57647  23249136.0944   23249131.9264         44.5004
        32.5004
 07  1  1  1 40  0.0000000  0  5G22G27G19G11G16
  -1148611.69549   -890198.23246  25003117.1724   25003112.8554         37.5004
        22.5004
 -17892867.42249 -13798351.09748  21877376.4774   21877372.6024         50.5004
        41.2504
 -15295870.55949 -13249620.97348  20649708.7504   20649702.9184         51.0004
        48.0004
 -10980976.74649  -9074294.62148  21724634.5474   21724630.7194         48.2504
        40.0004
  -5495186.31249  -4662119.33947  23261667.4534   23261664.0864         46.2504
        31.2504
 07  1  1  1 40 30.0000000  0  5G22G27G19G11G16
  -1174315.38349   -910227.00646  24998226.3594   24998222.6804         39.0004
        24.7504
 -17940494.66849 -13835463.24948  21868312.8524   21868309.4804         50.5004
        41.5004
 -15267358.05949 -13227403.44448  20655134.4924   20655128.6724         50.5004
        48.2504
 -11069090.68449  -9142954.78748  21707866.7424   21707862.9104         48.2504
        39.7504
  -5429132.18749  -4610648.63547  23274236.7504   23274234.0904         46.0004
        32.0004
 07  1  1  1 41  0.0000000  0  5G22G27G19G11G16
  -1199661.30149   -929977.05546  24993403.2424   24993397.8324         38.0004
        22.0004
 -17987643.34849 -13872202.48348  21859340.3594   21859337.5314         50.7504
        41.2504
 -15238604.46949 -13204998.05448  20660606.2894   20660600.4924         51.5004
        48.2504
 -11156867.34049  -9211352.16448  21691163.5944   21691159.4184         48.5004
        40.7504
  -5362876.12149  -4559020.61647  23286845.0474   23286841.3834         45.5004
        31.0004
 07  1  1  1 41 30.0000000  0  5G22G27G19G11G16
  -1224647.71949   -949446.92746  24988648.4454   24988642.4694         39.0004
        22.7504
 -18034312.21149 -13908567.84948  21850460.6564   21850457.1564         50.7504
        41.7504
 -15209611.80149 -13182406.37048  20666123.3204   20666117.5394         50.0004
        48.0004
 -11244305.05149  -9279485.42348  21674524.6884   21674521.3094         48.2504
        40.7504
  -5296418.92649  -4507235.80947  23299491.5394   23299488.3954         45.2504
        31.5004
 07  1  1  1 42  0.0000000  0  5G22G27G19G11G16
  -1249272.55149   -968635.04846  24983962.2194   24983958.6484         37.7504
        22.2504
 -18080499.66049 -13944558.07448  21841671.0634   21841667.3244         51.0004
        41.7504
 -15180381.30549 -13159629.36048  20671685.3134   20671679.2704         51.0004
        48.0004
 -11331401.34449  -9347352.63248  21657950.4144   21657946.7234         47.2504
        41.2504
  -5229760.17249  -4455293.97447  23312176.0944   23312172.9694         43.7504
        30.2504
 07  1  1  1 42 30.0000000  0  5G22G27G19G11G16
  -1273533.94549   -987540.08646  24979345.6334   24979340.8364         41.5004
        22.5004
 -18126203.46149 -13980171.42348  21832973.7114   21832970.5314         50.2504
        41.2504
 -15150914.15249 -13136667.97448  20677293.1954   20677287.5124         52.2504
        48.2504
 -11418154.23449  -9414952.26048  21641442.3204   21641438.4414         48.5004
        40.2504
  -5162899.61349  -4403194.89547  23324900.0554   23324896.1214         44.7504
        31.5004
 07  1  1  1 43  0.0000000  0  5G22G27G19G11G16
  -1297429.78149  -1006160.18546  24974798.1334   24974794.0004         39.5004
        23.0004
 -18171422.25049 -14015406.86148  21824369.0864   21824365.2384         50.7504
        41.0004
 -15121212.00049 -13113523.44248  20682945.2894   20682939.4304         51.2504
        48.0004
 -11504561.45749  -9482282.52748  21624999.1804   21624995.6294         49.2504
        41.0004
  -5095837.55149  -4350938.76847  23337661.5634   23337657.4654         46.5004
        32.0004
 07  1  1  1 43 30.0000000  0  5G22G27G19G11G16
  -1320958.31249  -1024494.03346  24970321.6884   24970316.5824         42.2504
        22.5004
 -18216154.66449 -14050263.28448  21815856.6484   21815853.3954         50.5004
        41.0004
 -15091276.72349 -13090197.25148  20688641.6644   20688636.0704         52.0004
        47.7504
 -11590621.26649  -9549342.09348  21608623.1334   21608619.3364         49.2504
        41.2504
  -5028574.24249  -4298525.85947  23350460.6954   23350457.6094         46.0004
        32.0004
 07  1  1  1 44  0.0000000  0  5G22G27G19G11G16
  -1344118.15649  -1042540.70846  24965913.2974   24965910.3204         39.2504
        22.7504
 -18260399.00049 -14084739.40348  21807437.3444   21807434.3284         50.7504
        41.7504
 -15061109.66449 -13066690.46148  20694382.3284   20694376.4104         51.2504
        47.7504
 -11676331.52349  -9616129.27448  21592312.7344   21592309.2304         50.7504
        40.7504
  -4961109.40649  -4245955.93147  23363299.2034   23363295.6604         45.5004
        31.5004
 07  1  1  1 44 30.0000000  0  5G22G27G19G11G16
  -1366907.26249  -1060298.44346  24961577.5164   24961572.9454         41.5004
        22.7504
 -18304153.79749 -14118834.05448  21799111.0164   21799107.8984         50.2504
        41.5004
 -15030712.58649 -13043004.43348  20700166.8984   20700160.5474         51.7504
        47.7504
 -11761690.05149  -9682642.38948  21576069.6334   21576066.1454         50.0004
        41.0004
  -4893443.29349  -4193229.14647  23376175.8134   23376172.3554         46.5004
        31.2504
 07  1  1  1 45  0.0000000  0  5G22G27G19G11G16
  -1389323.02749  -1077765.25846  24957312.3984   24957308.0864         41.7504
        24.7504
 -18347416.50449 -14152545.26348  21790878.4224   21790874.8404         51.0004
        41.5004
 -15000085.94949 -13019139.53148  20705994.6174   20705988.5704         50.2504
        47.5004
 -11846694.01249  -9748879.21248  21559893.6724   21559890.5004         50.5004
        41.5004
  -4825575.39549  -4140345.10147  23389090.5394   23389086.8954         43.2504
        31.2504
 07  1  1  1 45 30.0000000  0  6G13G22G27G19G11G16
     52394.40618                  24751685.289                          31.750

  -1411364.34049  -1094940.35146  24953117.1884   24953112.7894         41.2504
        22.7504
 -18390186.09449 -14185872.23348  21782739.4924   21782736.5664         50.5004
        42.0004
 -14969231.99649 -12995097.48448  20711866.0164   20711860.4024         50.5004
        47.7504
 -11931341.79349  -9814838.50248  21543785.7584   21543782.3594         49.7504
        41.5004
  -4757505.88349  -4087303.97547  23402043.7034   23402040.6294         45.2504
        30.7504
 07  1  1  1 46  0.0000000  0  6G13G22G27G19G11G16
    126590.80918                  24765801.523                          31.750

  -1433029.46949  -1111822.23347  24948994.3524   24948991.5044         42.5004
        25.7504
 -18432461.41449 -14218814.05548  21774694.7194   21774692.0044         50.7504
        41.7504
 -14938152.25049 -12970879.50748  20717780.0474   20717774.5234         51.0004
        47.5004
 -12015631.92249  -9880519.10248  21527745.7344   21527741.9924         48.0004
        42.0004
  -4689235.17649  -4034106.04847  23415034.9304   23415031.9144         45.2504
        30.5004
 07  1  1  1 46 30.0000000  0  6G13G22G27G19G11G16
    200824.039 8                  24779928.500                          35.250

  -1454316.10949  -1128409.23246  24944944.1484   24944940.3524         41.5004
        24.2504
 -18474240.10549 -14251368.87448  21766744.6954   21766741.2974         50.7504
        42.0004
 -14906847.96149 -12946486.55048  20723737.0474   20723731.4654         50.5004
        47.5004
 -12099561.87549  -9945919.03648  21511774.5084   21511771.4224         48.0004
        41.7504
  -4620762.86349  -3980751.05147  23428064.6254   23428061.5864         45.0004
        30.0004
 07  1  1  1 47  0.0000000  0  6G13G22G27G19G11G16
    275091.348 8                  24794061.836                          34.000

  -1475222.51249  -1144699.92746  24940965.9454   24940961.3914         41.0004
        22.5004
 -18515521.02049 -14283535.81848  21758889.1414   21758885.4774         50.5004
        41.7504
 -14875320.21149 -12921919.46348  20729736.7194   20729731.2304         51.5004
        47.5004
 -12183129.47749 -10011036.61648  21495872.4384   21495868.4264         50.0004
        41.5004
  -4552088.85249  -3927238.90447  23441133.7344   23441130.6524         44.0004
        30.2504
 07  1  1  1 47 30.0000000  0  6G13G22G27G19G11G16
                                  24808196.711                          26.750

  -1495747.42249  -1160693.36446  24937059.8364   24937054.8014         41.0004
        22.7504
 -18556302.95749 -14315313.95948  21751128.5084   21751124.8164         51.0004
        41.2504
 -14843571.14549 -12897179.92648  20735778.5004   20735772.4884         51.0004
        47.7504
 -12266333.04349 -10075870.53348  21480038.8674   21480034.9804         50.0004
        41.5004
  -4483213.73849  -3873569.99747  23454240.0784   23454237.1804         43.5004
        31.0004
 07  1  1  1 48  0.0000000  0  5G22G27G19G11G16
  -1515888.81649  -1176387.90846  24933226.5784   24933222.2624         40.0004
        22.7504
 -18596583.90649 -14346701.73148  21743463.1884   21743460.2934         50.5004
        41.7504
 -14811602.00449 -12872268.91448  20741861.9454   20741856.3014         51.7504
        47.5004
 -12349170.17249 -10140418.92148  21464275.2734   21464271.8204         50.0004
        41.2504
  -4414137.15649  -3819744.16247  23467385.5634   23467381.3554         45.5004
        31.7504
 07  1  1  1 48 30.0000000  0  5G22G27G19G11G16
  -1535644.72749  -1191782.13846  24929467.7894   24929464.1134         41.2504
        23.0004
 -18636362.56249 -14377698.09448  21735893.5864   21735890.0594         50.2504
        42.0004
 -14779414.02349 -12847187.37448  20747987.2194   20747981.3404         50.7504
        47.7504
 -12431638.85549 -10204680.19548  21448582.2584   21448578.6804         51.0004
        42.0004
  -4344859.28949  -3765761.41747  23480567.8834   23480564.4804         43.2504
        31.2504
 07  1  1  1 49  0.0000000  0  5G22G27G19G11G16
  -1555014.08249  -1206875.14046  24925781.2584   24925777.5634         41.0004
        22.0004
 -18675638.07849 -14408302.39048  21728419.6954   21728417.0084         50.7504
        42.2504
 -14747009.44549 -12821937.05948  20754153.5234   20754147.4414         51.5004
        47.2504
 -12513738.00049 -10268653.53548  21432959.5084   21432955.7624         51.5004
        42.7504
  -4275380.91449  -3711622.48147  23493789.6254   23493785.7274         42.7504
        31.2504
 07  1  1  1 49 30.0000000  0  5G22G27G19G11G16
  -1573994.34849  -1221664.93246  24922169.7114   24922164.7854         41.7504
        22.5004
 -18714408.19949 -14438512.89948  21721042.4454   21721039.0904         51.5004
        41.7504
 -14714389.30549 -12796518.74548  20760360.9924   20760355.4344         51.5004
        47.5004
 -12595464.60549 -10332336.58148  21417407.1954   21417403.6214         51.5004
        42.5004
  -4205701.28549  -3657326.72647  23507049.0084   23507045.9414         43.2504
        30.2504
 07  1  1  1 50  0.0000000  0  5G22G27G19G11G16
  -1592584.44549  -1236150.72346  24918632.2974   24918628.6844         42.0004
        25.0004
 -18752671.85549 -14468328.74548  21713760.6564   21713757.9774         50.2504
        42.0004
 -14681554.55549 -12770933.23348  20766609.1954   20766603.6844         52.5004
        48.0004
 -12676816.91849 -10395727.95748  21401926.4694   21401922.3204         51.5004
        42.7504
  -4135820.61749  -3602874.30947  23520346.4454   23520344.8094         41.2504
        30.7504
 07  1  1  1 50 30.0000000  0  5G22G27G19G11G16
  -1610782.42649  -1250330.96947  24915168.5944   24915166.4414         41.0004
        26.0004
 -18790427.47349 -14497748.71348  21706576.1334   21706572.6134         51.0004
        42.2504
 -14648506.76249 -12745181.71548  20772898.2424   20772892.2194         52.0004
        47.5004
 -12757793.00049 -10458826.18048  21386516.9844   21386513.7894         51.2504
        42.7504
  -4065738.76649  -3548265.15847  23533682.7734   23533680.1884         42.5004
        29.0004
 07  1  1  1 51  0.0000000  0  5G22G27G19G11G16
  -1628587.19149  -1264204.76846  24911781.3444   24911776.7464         41.2504
        22.7504
 -18827674.14549 -14526772.09848  21699488.5634   21699485.2304         50.5004
        42.0004
 -14615248.18049 -12719265.93948  20779226.8284   20779220.8524         51.7504
        47.2504
 -12838391.54349 -10521630.20648  21371179.5704   21371175.8404         51.0004
        42.5004
  -3995456.54749  -3493499.86747  23547057.3134   23547054.3204         43.5004
        29.0004
 07  1  1  1 51 30.0000000  0  5G22G27G19G11G16
  -1645996.16449  -1277770.17546  24908468.9064   24908462.4574         42.0004
        22.5004
 -18864410.09049 -14555397.52248  21692497.9384   21692494.6024         50.5004
        41.7504
 -14581779.38349 -12693186.35948  20785596.0474   20785590.1254         51.2504
        47.5004
 -12918609.91049 -10584137.99648  21355914.3594   21355911.1254         50.5004
        42.2504
  -3924973.68749  -3438578.19147  23560470.4694   23560464.5394         44.2504
        28.7504
 07  1  1  1 52  0.0000000  0  5G22G27G19G11G16
  -1663007.89849  -1291026.03047  24905231.0474   24905227.0634         43.2504
        26.7504
 -18900633.91849 -14583623.88248  21685604.2034   21685601.1604         50.7504
        42.2504
 -14548101.66049 -12666943.98948  20792004.6724   20791998.7464         51.7504
        47.5004
 -12998445.29749 -10646347.37648  21340721.9384   21340718.4614         50.7504
        42.7504
  -3854290.12149  -3383500.13547  23573920.8914   23573917.0784         44.5004
        29.5004
 07  1  1  1 52 30.0000000  0  5G22G27G19G11G16
  -1679621.23849  -1303971.47346  24902069.7344   24902066.7194         42.0004
        25.0004
 -18936344.55149 -14611450.37948  21678809.4224   21678806.1914         52.0004
        42.2504
 -14514217.32449 -12640540.61348  20798452.4694   20798446.9694         51.5004
        47.2504
 -13077897.47349 -10708258.11748  21325603.1484   21325599.7664         51.2504
        43.0004
  -3783406.42649  -3328266.12847  23587409.4534   23587405.2304         43.0004
        30.2504
 07  1  1  1 53  0.0000000  0  5G22G27G19G11G16
  -1695834.52049  -1316605.14946  24898984.6564   24898979.7624         41.7504
        22.2504
 -18971540.86749 -14638876.07348  21672111.9924   21672108.2584         51.0004
        42.5004
 -14480127.30149 -12613976.95548  20804939.3284   20804933.7194         50.7504
        47.0004
 -13156963.89149 -10769868.29148  21310557.0944   21310553.3714         50.5004
        42.7504
  -3712322.43449  -3272876.06247  23600936.3674   23600933.8324         43.7504
        30.5004
 07  1  1  1 53 30.0000000  0  5G22G27G19G11G16
  -1711646.18749  -1328925.93946  24895975.3834   24895970.5554         42.2504
        22.5004
 -19006221.25449 -14665899.74948  21665511.9774   21665508.2704         50.2504
        42.0004
 -14445833.05149 -12587254.16348  20811465.6254   20811459.5664         51.0004
        47.0004
 -13235642.69149 -10831176.42448  21295584.9454   21295581.4414         51.2504
        43.0004
  -3641038.22749  -3217329.99447  23614500.8364   23614498.6604         42.5004
        30.5004
 07  1  1  1 54  0.0000000  0  5G22G27G19G11G16
  -1727054.21549  -1340932.10646  24893043.4144   24893040.5164         41.7504
        25.0004
 -19040384.12549 -14692520.17248  21659010.8834   21659007.5554         50.7504
        42.0004
 -14411335.57049 -12560373.01648  20818030.0084   20818024.0664         51.0004
        47.0004
 -13313931.39849 -10892180.59948  21280687.4614   21280683.2274         51.0004
        43.0004
  -3569553.84849  -3161627.92447  23628104.2584   23628100.6914         42.2504
        28.2504
 07  1  1  1 54 30.0000000  0  5G22G27G19G11G16
  -1742057.84849  -1352623.21446  24890188.3204   24890184.5004         42.7504
        24.0004
 -19074029.19149 -14718737.11648  21652608.7344   21652605.8874         50.5004
        42.0004
 -14376637.26249 -12533335.36448  20824632.9304   20824627.4264         50.5004
        47.0004
 -13391829.27349 -10952880.20948  21265863.6414   21265859.8714         51.0004
        43.2504
  -3497870.03149  -3105770.50347  23641745.2894   23641743.0164         41.7504
        29.2504
 07  1  1  1 55  0.0000000  0  5G22G27G19G11G16
  -1756655.07049  -1363997.62946  24887410.4454   24887405.4494         42.2504
        24.2504
 -19107154.37549 -14744548.94548  21646304.9694   21646302.0824         50.5004
        43.0004
 -14341738.94149 -12506141.87548  20831273.8984   20831267.8244         49.5004
        46.7504
 -13469333.69149 -11013273.25348  21251115.3364   21251111.4184         51.5004
        43.5004
  -3425986.28149  -3049757.27547  23655424.8054   23655422.5824         44.5004
        31.0004
 07  1  1  1 55 30.0000000  0  5G22G27G19G11G16
  -1770844.34049  -1375054.16646  24884709.8754   24884704.4104         42.2504
        22.7504
 -19139758.55549 -14769954.80048  21640100.7504   21640097.6024         50.2504
        42.5004
 -14306641.78549 -12478793.44148  20837952.7424   20837946.9964         50.5004
        46.7504
 -13546442.74649 -11073358.22548  21236441.8984   21236437.9654         50.5004
        43.0004
  -3353902.84849  -2993588.41947  23669141.6564   23669138.4964         42.5004
        31.0004
 07  1  1  1 56  0.0000000  0  5G22G27G19G11G16
  -1784624.60249  -1385792.03046  24882088.0004   24882083.7344         41.7504
        22.2504
 -19171840.75049 -14794953.92448  21633995.9774   21633992.7114         50.0004
        42.7504
 -14271347.50449 -12451291.40948  20844668.8754   20844663.3204         50.0004
        46.7504
 -13623155.03949 -11133134.00448  21221843.8914   21221840.3874         50.7504
        43.7504
  -3281620.46149  -2937264.53647  23682896.6564   23682892.6374         43.2504
        29.0004
 07  1  1  1 56 30.0000000  0  5G22G27G19G11G16
  -1797993.74249  -1396209.52046  24879543.5394   24879539.7384         42.0004
        24.7504
 -19203399.64149 -14819545.26948  21627990.4774   21627987.4774         49.5004
        42.5004
 -14235856.98849 -12423636.46648  20851422.5084   20851417.1914         51.5004
        46.7504
 -13699468.26249 -11192598.84248  21207322.1024   21207318.5704         52.0004
        44.0004
  -3209138.54749  -2880785.18647  23696689.4144   23696685.9534         41.7504
        28.0004
 07  1  1  1 57  0.0000000  0  5G22G27G19G11G16
  -1810951.15649  -1406306.20446  24877077.5704   24877074.8484         42.0004
        24.0004
 -19234434.48049 -14843728.26248  21622084.6884   21622081.7034         49.5004
        42.5004
 -14200172.84849 -12395830.63748  20858213.1024   20858207.2774         50.5004
        47.0004
 -13775380.98449 -11251751.58548  21192876.1884   21192872.7704         51.2504
        43.5004
  -3136458.23049  -2824151.18247  23710519.4614   23710515.7704         42.2504
        27.5004
 07  1  1  1 57 30.0000000  0  5G22G27G19G11G16
  -1823494.54349  -1416080.32246  24874691.5164   24874687.6214         43.0004
        25.0004
 -19264943.80549 -14867501.76648  21616278.5004   21616275.6214         50.0004
        41.7504
 -14164295.41449 -12367874.20848  20865040.4614   20865034.2114         50.2504
        46.5004
 -13850890.81649 -11310590.39648  21178507.2734   21178503.3754         51.7504
        43.7504
  -3063578.88749  -2767362.20347  23724388.3054   23724385.7624         42.5004
        27.0004
 07  1  1  1 58  0.0000000  0  5G22G27G19G11G16
  -1835623.00849  -1425531.06647  24872383.6484   24872380.0554         42.0004
        25.7504
 -19294926.80949 -14890865.17348  21610573.4844   21610569.9494         51.0004
        42.7504
 -14128226.42249 -12339768.50348  20871904.1414   20871898.1374         51.0004
        46.7504
 -13925996.90249 -11369114.60248  21164215.1174   21164210.8094         52.0004
        43.7504
  -2990501.11749  -2710418.52547  23738294.9694   23738291.1134         42.7504
        28.5004
 07  1  1  1 58 30.0000000  0  5G22G27G19G11G16
  -1847335.05149  -1434657.34746  24870154.3754   24870151.0274         42.0004
        25.0004
 -19324382.16049 -14913817.39148  21604967.8204   21604965.0634         49.2504
        43.0004
 -14091967.16449 -12311514.54048  20878804.0474   20878798.2034         50.2504
        47.0004
 -14000697.14149 -11427322.56348  21150000.0634   21149996.5204         52.5004
        44.0004
  -2917224.95749  -2653320.30847  23752238.4774   23752235.9964         43.2504
        29.5004
 07  1  1  1 59  0.0000000  0  5G22G27G19G11G16
  -1858628.98849  -1443457.80746  24868005.4144   24868001.9304         41.2504
        22.5004
 -19353308.92649 -14936357.73448  21599463.7504   21599460.6884         50.2504
        42.7504
 -14055518.87149 -12283113.26848  20885739.9694   20885733.8954         50.7504
        46.7504
 -14074989.48449 -11485212.69448  21135862.6024   21135858.6994         53.2504
        43.7504
  -2843750.65249  -2596067.67647  23766220.2114   23766218.6134         43.2504
        30.5004
 07  1  1  1 59 30.0000000  0  5G22G27G19G11G16
  -1869504.30949  -1451932.08846  24865935.7664   24865931.1054         43.0004
        24.5004
 -19381706.36749 -14958485.62048  21594059.9694   21594056.4304         50.5004
        43.2504
 -14018883.53149 -12254566.24948  20892711.7114   20892705.7384         51.0004
        46.7504
 -14148872.55149 -11542783.89648  21121803.2274   21121799.1454         52.2504
        44.0004
  -2770078.70749  -2538661.02547  23780239.5704   23780236.9614         44.5004
        29.2504
 07  1  1  2  0  0.0000000  0  6G 8G22G27G19G11G16
 -10463664.79759  -9072468.65657  22483441.4924   22483438.3444         47.7504
        35.7504
  -1879958.59049  -1460078.28446  24863946.7734   24863942.5204         42.7504
        22.7504
 -19409572.75049 -14980199.69248  21588756.8914   21588753.0944         50.7504
        42.0004
 -13982061.68749 -12225873.89548  20899718.1024   20899712.8444         51.5004
        46.5004
 -14222344.08649 -11600034.43348  21107822.0004   21107818.2114         53.0004
        44.2504
  -2696209.00449  -2481100.29347  23794296.9614   23794294.1454         43.5004
        29.0004
 07  1  1  2  0 30.0000000  0  6G 8G22G27G19G11G16
 -10539180.23449  -9131311.83847  22469070.7814   22469068.0634         47.7504
        34.5004
  -1889990.87949  -1467895.60446  24862037.1254   24862032.6884         42.2504
        22.7504
 -19436907.24249 -15001499.29848  21583555.2974   21583552.3954         50.2504
        43.2504
 -13945054.79349 -12197037.35348  20906760.5634   20906754.6024         51.2504
        46.7504
 -14295402.74249 -11656963.23348  21093919.3834   21093915.4774         53.0004
        44.0004
  -2622141.98049  -2423385.78747  23808391.6254   23808386.7424         44.0004
        27.2504
 07  1  1  2  1  0.0000000  0  6G 8G22G27G19G11G16
 -10614232.01249  -9189793.73547  22454788.6804   22454785.5474         47.0004
        34.0004
  -1899600.19949  -1475383.45746  24860208.8834   24860204.3634         41.7504
        24.7504
 -19463709.33649 -15022384.06148  21578455.3674   21578451.7934         51.5004
        43.0004
 -13907864.86749 -12168058.18948  20913837.5164   20913831.2464         51.5004
        46.5004
 -14368047.01249 -11713569.14648  21080095.6334   21080091.6954         53.0004
        44.2504
  -2547877.95749  -2365517.82447  23822523.1564   23822521.5514         42.0004
        28.0004
 07  1  1  2  1 30.0000000  0  6G 8G22G27G19G11G16
 -10688816.87949  -9247911.80447  22440596.1954   22440592.5044         47.0004
        34.5004
  -1908784.33649  -1482539.93946  24858461.4924   24858456.3634         41.2504
        22.5004
 -19489977.03149 -15042852.41048  21573456.7274   21573453.0004         51.0004
        42.7504
 -13870491.91849 -12138936.40548  20920949.0634   20920943.3674         51.0004
        46.5004
 -14440274.27049 -11769850.09848  21066351.2034   21066347.2704         52.5004
        44.2504
  -2473416.17249  -2307495.72747  23836693.0474   23836690.1724         43.2504
        25.7504
 07  1  1  2  2  0.0000000  0  6G 8G22G27G19G11G16
 -10762932.86749  -9305664.49947  22426492.4774   22426489.0784         42.7504
        35.2504
  -1917542.88349  -1489364.74846  24856794.6954   24856789.6684         42.5004
        24.7504
 -19515710.43749 -15062904.40248  21568559.4534   21568556.1524         50.5004
        42.0004
 -13832938.64549 -12109674.11948  20928095.5084   20928089.1644         51.5004
        46.5004
 -14512084.07449 -11825805.77148  21052686.1724   21052682.4414         51.0004
        44.5004
  -2398758.15249  -2249320.70847  23850899.9384   23850895.3714         43.0004
        26.2504
 07  1  1  2  2 30.0000000  0  6G 8G22G27G19G11G16
 -10836576.54749  -9363049.17647  22412478.4614   22412475.5084         47.5004
        36.0004
  -1925874.38749  -1495856.77346  24855208.2894   24855203.7304         40.7504
        22.7504
 -19540908.29349 -15082539.10548  21563764.4454   21563761.4534         50.2504
        42.2504
 -13795205.75449 -12080271.85648  20935275.8134   20935269.6414         52.0004
        46.0004
 -14583473.98449 -11881434.26648  21039101.6564   21039097.8284         53.0004
        44.0004
  -2323903.83649  -2190992.74347  23865144.6804   23865140.7974         43.2504
        28.0004
 07  1  1  2  3  0.0000000  0  6G 8G22G27G19G11G16
 -10909746.60249  -9420064.79347  22398554.6334   22398551.6994         42.7504
        35.2504
  -1933777.82049  -1502015.26246  24853705.0784   24853701.2974         41.5004
        23.5004
 -19565570.12949 -15101756.12448  21559071.5784   21559068.1804         50.7504
        42.7504
 -13757295.04349 -12050731.03648  20942490.1484   20942484.1334         51.2504
        46.2504
 -14654442.89849 -11936734.70248  21025596.3284   21025592.7074         50.5004
        43.7504
  -2248853.76649  -2132512.23847  23879426.3914   23879422.5044         43.7504
        29.0004
 07  1  1  2  3 30.0000000  0  6G 8G22G27G19G11G16
 -10982439.60949  -9476708.69347  22384721.4774   22384718.9064         47.5004
        35.5004
  -1941251.63349  -1507838.98846  24852282.8984   24852277.1684         42.7504
        23.0004
 -19589694.60249 -15120554.42248  21554481.1644   21554478.3674         49.0004
        42.2504
 -13719207.39849 -12021052.33848  20949737.5554   20949731.6844         50.7504
        46.5004
 -14724988.62549 -11991705.37948  21012171.8364   21012167.9494         52.2504
        44.5004
  -2173607.88749  -2073879.18447  23893745.4064   23893742.0744         44.5004
        30.0004
 07  1  1  2  4  0.0000000  0  6G 8G22G27G19G11G16
 -11054652.46149  -9532978.43347  22370979.5234   22370976.9844         47.0004
        34.0004
  -1948294.50049  -1513326.86246  24850941.5004   24850937.2584         41.2504
        22.2504
 -19613280.72349 -15138933.23048  21549992.9534   21549989.4264         48.5004
        43.0004
 -13680943.99649 -11991236.71048  20957019.1414   20957013.0984         50.0004
        46.5004
 -14795109.68449 -12046345.14948  20998828.3984   20998824.4414         53.2504
        44.5004
  -2098166.14849  -2015093.51147  23908101.3674   23908097.5314         43.7504
        28.5004
 07  1  1  2  4 30.0000000  0  6G 8G22G27G19G11G16
 -11126383.26649  -9588872.58947  22357329.8914   22357326.2854         47.5004
        34.2504
  -1954905.42649  -1518478.20846  24849684.0944   24849679.9414         42.5004
        22.5004
 -19636327.92249 -15156892.08448  21545606.9304   21545603.4414         47.0004
        42.7504
 -13642506.28549 -11961285.22948  20964333.3914   20964327.8054         49.0004
        46.2504
 -14864804.60549 -12100652.85248  20985565.7664   20985561.7234         52.7504
        44.5004
  -2022529.45349  -1956155.90647  23922494.1954   23922490.9384         42.7504
        27.0004
 07  1  1  2  5  0.0000000  0  6G 8G22G27G19G11G16
 -11197629.78549  -9644389.33747  22343771.9924   22343769.3324         48.0004
        35.0004
  -1961084.02049  -1523292.71746  24848509.2034   24848504.1054         41.7504
        23.0004
 -19658836.09049 -15174430.92748  21541324.0784   21541320.2734         47.5004
        43.0004
 -13603896.01249 -11931199.29848  20971680.8914   20971675.2194         49.5004
        46.2504
 -14934072.66849 -12154627.94548  20972384.2344   20972380.4884         52.5004
        44.5004
  -1946698.30149  -1897066.78446  23936924.7114   23936921.2464         42.5004
        25.5004
 07  1  1  2  5 30.0000000  0  6G 8G22G27G19G11G16
 -11268389.31649  -9699526.63747  22330306.7974   22330304.0594         44.2504
        35.7504
  -1966828.26249  -1527768.70546  24847415.4064   24847411.2034         39.5004
        22.7504
 -19680803.78549 -15191548.61148  21537143.7114   21537140.2344         51.2504
        43.2504
 -13565114.21949 -11900979.72548  20979060.6804   20979054.6174         50.7504
        46.2504
 -15002910.70749 -12208267.95448  20959285.1484   20959280.8484         52.5004
        45.2504
  -1870672.43449  -1837825.93147  23951392.1804   23951389.5944         43.7504
        27.0004
 07  1  1  2  6  0.0000000  0  6G 8G22G27G19G11G16
 -11338659.17249  -9754282.36447  22316935.0394   22316932.1644         45.5004
        36.2504
  -1972137.46149  -1531905.64246  24846405.1724   24846400.8834         41.0004
        25.0004
 -19702230.27049 -15208244.57748  21533066.0554   21533063.2974         48.5004
        43.0004
 -13526162.47349 -11870627.70548  20986472.8204   20986466.9264         49.0004
        45.7504
 -15071318.12149 -12261572.41448  20946267.8984   20946263.6884         53.0004
        45.5004
  -1794452.91449  -1778434.14647  23965896.1954   23965894.3054         44.5004
        27.7504
 07  1  1  2  6 30.0000000  0  6G 8G22G27G19G11G16
 -11408435.84449  -9808653.77447  22303656.7894   22303653.8484         47.5004
        36.0004
  -1977009.52049  -1535702.04046  24845478.6644   24845473.8324         42.5004
        24.5004
 -19723113.90649 -15224517.53448  21529091.9454   21529088.7894         48.7504
        42.5004
 -13487040.76649 -11840143.25248  20993917.4924   20993911.8164         51.5004
        46.0004
 -15139292.49649 -12314539.44548  20933332.1724   20933328.5004         53.0004
        45.0004
  -1718038.83249  -1718890.79647  23980437.2584   23980434.7934         45.0004
        28.0004
 07  1  1  2  7  0.0000000  0  6G 8G22G27G19G11G16
 -11477717.87949  -9862639.75847  22290473.2734   22290470.1524         42.0004
        35.7504
  -1981444.16449  -1539157.61546  24844634.2974   24844629.3134         41.0004
        24.5004
 -19743455.27749 -15240367.97148  21525221.2344   21525217.8204         48.0004
        42.2504
 -13447751.62549 -11809528.33748  21001394.0394   21001388.5664         50.0004
        46.0004
 -15206833.02049 -12367168.39748  20920479.9774   20920475.8794         49.2504
        45.7504
  -1641431.34049  -1659196.73847  23995015.4844   23995011.4104         44.7504
        27.7504
 07  1  1  2  7 30.0000000  0  6G 8G22G27G19G11G16
 -11546503.15249  -9916238.67947  22277383.7194   22277380.0594         42.5004
        35.7504
  -1985440.14549  -1542271.30446  24843873.7664   24843868.6914         42.2504
        23.2504
 -19763253.55949 -15255795.20948  21521453.8914   21521451.1054         47.2504
        42.5004
 -13408296.27749 -11778783.90648  21008902.1334   21008896.4774         48.2504
        46.0004
 -15273938.60949 -12419458.44448  20907710.1254   20907706.4064         50.0004
        45.5004
  -1564630.98449  -1599352.40247  24009630.6094   24009626.9534         43.5004
        27.2504
 07  1  1  2  8  0.0000000  0  6G 8G22G27G19G11G16
 -11614788.64549  -9969448.13747  22264389.2894   22264385.7114         47.2504
        35.5004
  -1988996.59049  -1545042.57546  24843196.8524   24843191.3634         42.0004
        22.5004
 -19782507.43749 -15270798.23248  21517789.8284   21517786.5314         48.0004
        43.0004
 -13368675.42249 -11747910.51448  21016441.9694   21016436.2424         49.5004
        46.0004
 -15340607.15249 -12471407.93848  20895023.5474   20895019.3484         53.0004
        45.7504
  -1487637.83249  -1539357.80647  24024281.5864   24024277.4144         42.5004
        25.7504
 07  1  1  2  8 30.0000000  0  6G 8G22G27G19G11G16
 -11682572.02749 -10022266.36047  22251490.5704   22251486.9884         47.7504
        35.7504
  -1992112.60249  -1547470.60846  24842603.5004   24842598.2304         41.5004
        23.0004
 -19801216.81249 -15285376.97448  21514229.8054   21514226.1024         49.5004
        43.0004
 -13328890.99249 -11716909.66048  21024012.4844   21024007.1174         50.2504
        46.2504
 -15406837.41049 -12523015.91148  20882420.2114   20882416.2544         52.7504
        46.0004
  -1410452.54349  -1479213.54347  24038969.4144   24038965.7664         44.0004
        27.7504
 07  1  1  2  9  0.0000000  0  6G 8G22G27G19G11G16
 -11749850.20749 -10074690.91047  22238688.0704   22238684.5784         48.0004
        36.0004
  -1994786.79749  -1549554.41646  24842094.7584   24842090.9414         42.5004
        23.5004
 -19819380.63749 -15299530.61348  21510773.4384   21510770.2584         50.5004
        43.0004
 -13288943.28949 -11685781.57848  21031614.2894   21031608.5904         50.0004
        46.0004
 -15472627.34449 -12574280.77248  20869900.6024   20869897.1254         53.2504
        45.5004
  -1333074.78549  -1418919.29247  24053693.8054   24053690.6724         42.0004
        26.0004
 07  1  1  2  9 30.0000000  0  6G 8G22G27G19G11G16
 -11816621.46149 -10126720.47847  22225982.0474   22225978.8954         48.0004
        36.5004
  -1997018.54349  -1551293.48146  24841670.6884   24841665.8014         42.0004
        25.2504
 -19836998.87549 -15313259.10648  21507420.8204   21507417.5904         51.0004
        43.0004
 -13248834.33249 -11654527.84148  21039246.6644   21039240.5044         50.0004
        45.7504
 -15537976.17249 -12625201.91148  20857465.0394   20857461.2704         53.2504
        45.7504
  -1255505.53149  -1358475.82347  24068454.8054   24068451.3014         42.7504
        26.5004
 07  1  1  2 10  0.0000000  0  6G 8G22G27G19G11G16
 -11882883.30949 -10178353.06447  22213372.6564   22213370.1054         48.0004
        37.0004
  -1998806.52349  -1552686.71846  24841330.5004   24841325.7074         42.5004
        25.5004
 -19854070.52349 -15326561.69648  21504171.8984   21504168.9494         50.5004
        43.0004
 -13208565.21149 -11623149.31048  21046909.5394   21046903.4064         50.2504
        45.7504
 -15602882.22749 -12675778.03148  20845113.9774   20845110.2894         52.7504
        46.0004
  -1177745.23049  -1297883.46646  24083252.2734   24083248.1334         44.5004
        24.0004
 07  1  1  2 10 30.0000000  0  6G 8G22G27G19G11G16
 -11948632.93049 -10229586.50647  22200860.9774   22200858.0394         42.2504
        36.7504
  -2000149.61349  -1553733.28146  24841073.8204   24841070.0164         41.2504
        24.2504
 -19870594.83249 -15339437.78948  21501027.5864   21501024.1094         52.2504
        43.0004
 -13168136.72349 -11591646.59148  21054602.9924   21054597.3134         51.7504
        46.0004
 -15667343.86349 -12726007.84648  20832847.2034   20832843.4494         50.2504
        45.7504
  -1099793.50449  -1237141.91647  24098086.2504   24098082.1524         44.0004
        26.0004
 07  1  1  2 11  0.0000000  0  6G 8G22G27G19G11G16
 -12013868.35949 -10280419.30647  22188447.1484   22188444.1524         43.7504
        36.7504
  -2001047.38749  -1554432.81947  24840903.7734   24840899.8954         39.7504
        25.7504
 -19886571.89849 -15351887.44648  21497987.0864   21497983.7154         51.5004
        43.0004
 -13127550.55149 -11560020.99948  21062326.3364   21062320.7664         51.0004
        46.0004
 -15731360.05149 -12775890.57048  20820665.3914   20820661.0784         52.2504
        45.7504
  -1021651.62149  -1176252.24247  24112955.9534   24112953.1644         42.2504
        25.7504
 07  1  1  2 11 30.0000000  0  6G 8G22G27G19G11G16
 -12078587.39849 -10330849.69947  22176131.4064   22176128.6024         48.7504
        37.2504
  -2001499.27049  -1554784.87046  24840818.4844   24840813.4304         41.5004
        25.0004
 -19902001.55149 -15363910.56448  21495051.0164   21495047.6844         50.5004
        42.7504
 -13086808.30149 -11528273.78748  21070079.1094   21070073.7974         49.5004
        46.2504
 -15794929.65649 -12825425.31448  20808568.6564   20808563.8754         52.5004
        45.5004
   -943320.34449  -1115214.97846  24127861.8834   24127860.3164         42.0004
        24.7504
 07  1  1  2 12  0.0000000  0  6G 8G22G27G19G11G16
 -12142786.94149 -10380875.31347  22163914.4144   22163911.4534         47.5004
        36.5004
  -2001503.30949  -1554787.99846  24840816.5784   24840812.9654         40.0004
        22.7504
 -19916882.10249 -15375505.81448  21492219.1644   21492216.0234         50.2504
        43.0004
 -13045910.42649 -11496405.31648  21077862.0944   21077856.3594         51.0004
        46.0004
 -15858050.20749 -12874610.14548  20796557.2344   20796553.3164         53.5004
        46.2504
   -864799.07049  -1054029.66846  24142804.2664   24142801.9304         42.0004
        24.0004
 07  1  1  2 12 30.0000000  0  6G 8G22G27G19G11G16
 -12206465.33649 -10430494.83247  22151796.8204   22151794.0204         46.7504
        35.5004
  -2001059.41449  -1554442.06346  24840901.3834   24840897.3164         39.5004
        25.0004
 -19931214.09849 -15386673.60648  21489492.0234   21489489.1804         51.2504
        43.2504
 -13004858.39149 -11464416.71848  21085673.5474   21085668.3634         51.2504
        46.0004
 -15920721.31649 -12923444.75348  20784631.3984   20784627.3284         53.0004
        46.2504
   -786088.86749   -992697.14447  24157781.9534   24157780.9184         42.7504
        26.7504
 07  1  1  2 13  0.0000000  0  6G 8G22G27G19G11G16
 -12269619.58649 -10479705.94247  22139778.5704   22139775.6844         47.7504
        36.5004
  -2000165.80549  -1553745.74746  24841071.9304   24841066.9304         41.0004
        25.2504
 -19944996.57449 -15397413.19148  21486869.2274   21486865.9734         51.5004
        43.2504
 -12963652.87549 -11432308.51548  21093514.6884   21093509.2074         50.5004
        46.0004
 -15982941.16449 -12971927.73448  20772791.1724   20772787.0664         52.7504
        45.7504
   -707189.41849   -931217.18247  24172796.8444   24172793.8874         43.0004
        27.2504
 07  1  1  2 13 30.0000000  0  6G 8G22G27G19G11G16
 -12332248.13749 -10528507.39347  22127861.2814   22127858.6134         48.0004
        37.0004
  -1998822.68049  -1552699.08746  24841327.5394   24841323.2894         42.2504
        25.2504
 -19958229.21949 -15407724.36248  21484351.0634   21484347.8324         51.2504
        42.7504
 -12922295.86349 -11400082.28048  21101384.9694   21101379.2074         51.5004
        46.0004
 -16044708.68449 -13020058.23548  20761037.2194   20761032.8404         52.0004
        46.0004
   -628101.98049   -869590.69647  24187846.0864   24187843.8594         42.7504
        26.5004
 07  1  1  2 14  0.0000000  0  6G 8G22G27G19G11G16
 -12394348.35549 -10576897.18547  22116043.8914   22116040.6684         47.5004
        35.7504
  -1997028.90649  -1551301.30746  24841668.2114   24841664.3874         41.2504
        22.5004
 -19970911.90249 -15417606.97248  21481937.8754   21481934.7934         51.7504
        43.5004
 -12880788.45749 -11367738.84048  21109283.5394   21109278.1054         52.2504
        45.7504
 -16106022.68749 -13067835.36248  20749369.6724   20749365.4224         52.0004
        46.5004
   -548826.93049   -807818.03947  24202931.8594   24202929.6524         43.0004
        26.7504
 07  1  1  2 14 30.0000000  0  6G 8G22G27G19G11G16
 -12455918.42249 -10624873.81247  22104327.3914   22104324.6024         47.5004
        35.7504
  -1994783.44149  -1549551.51246  24842095.5704   24842092.7814         41.5004
        25.5004
 -19983044.18749 -15427060.71248  21479629.1174   21479625.6564         51.5004
        43.0004
 -12839131.80949 -11335279.11648  21117210.3444   21117205.0124         52.0004
        46.0004
 -16166881.68749 -13115257.94048  20737788.3284   20737784.3554         52.2504
        46.0004
   -469364.60549   -745899.45946  24218053.4844   24218050.2544         41.0004
        25.5004
 07  1  1  2 15  0.0000000  0  6G 8G22G27G19G11G16
 -12516955.86349 -10672435.45447  22092712.6484   22092708.9414         47.5004
        36.2504
  -1992085.96549  -1547449.56446  24842609.0314   24842604.9344         41.2504
        24.7504
 -19994625.96549 -15436085.47348  21477424.9924   21477421.9064         51.0004
        42.7504
 -12797326.94549 -11302703.90448  21125165.5474   21125160.4064         52.0004
        46.0004
 -16227284.53149 -13162325.06248  20726293.8754   20726290.0904         52.5004
        46.5004
   -389715.48849   -683835.28146  24233209.8284   24233209.1294         40.2504
        24.0004
 07  1  1  2 15 30.0000000  0  6G 8G22G27G19G11G16
 -12577457.80549 -10719579.82547  22081199.6174   22081196.9384         47.7504
        37.2504
  -1988935.16449  -1544994.30447  24843208.3674   24843204.4104         42.0004
        25.7504
 -20005656.14549 -15444680.43748  21475326.2584   21475322.9264         51.7504
        43.5004
 -12755374.78949 -11270013.90948  21133148.9924   21133143.1374         51.7504
        46.0004
 -16287229.57449 -13209035.44348  20714886.5314   20714882.8914         52.0004
        46.2504
   -309879.92649   -621625.86446  24248402.6804   24248400.5004         39.7504
        24.5004
 07  1  1  2 16  0.0000000  0  6G 8G22G27G19G11G16
 -12637422.58649 -10766305.60947  22069788.3834   22069785.7934         48.7504
        37.0004
  -1985330.57849  -1542185.55646  24843894.2194   24843889.9414         39.5004
        24.7504
 -20016134.86749 -15452845.67448  21473332.2894   21473329.2704         51.5004
        43.7504
 -12713276.90249 -11237210.36848  21141160.0554   21141154.3324         52.5004
        45.7504
 -16346715.97749 -13255388.44748  20703567.0234   20703563.0514         53.0004
        46.7504
   -229858.51249   -559271.54646  24263629.3834   24263627.4924         40.0004
        24.2504
 07  1  1  2 16 30.0000000  0  6G 8G22G27G19G11G16
 -12696848.12949 -10812611.22247  22058480.0634   22058477.2814         48.0004
        37.0004
  -1981271.89549  -1539022.88746  24844666.8674   24844661.3714         39.0004
        22.2504
 -20026062.04349 -15460581.13648  21471442.7034   21471439.7194         50.5004
        43.0004
 -12671034.44949 -11204294.18548  21149198.3594   21149192.3134         51.5004
        45.7504
 -16405742.60549 -13301383.20248  20692334.4144   20692330.9654         53.0004
        46.2504
   -149651.79749   -496772.94846  24278893.5634   24278891.4064         39.2504
        25.5004
 07  1  1  2 17  0.0000000  0  6G 8G22G27G19G11G16
 -12755731.73049 -10858494.53447  22047275.0234   22047271.6024         48.0004
        37.2504
  -1976757.49649  -1535505.12246  24845525.5234   24845520.2274         41.5004
        22.7504
 -20035436.91849 -15467886.23948  21469659.2664   21469656.1644         50.0004
        43.0004
 -12628647.95749 -11171265.74548  21157264.3834   21157258.1804         52.5004
        45.5004
 -16464307.50049 -13347018.15748  20681190.1644   20681185.8634         52.7504
        46.7504
    -69260.13349   -434130.19946  24294191.1024   24294189.3164         39.2504
        25.5004
 07  1  1  2 17 30.0000000  0  6G 8G22G27G19G11G16
 -12814071.61749 -10903954.19547  22036172.9924   22036170.1214         47.2504
        37.0004
  -1971787.54349  -1531632.38846  24846471.8674   24846466.5864         43.0004
        24.7504
 -20044259.83649 -15474761.25348  21467980.3524   21467977.4064         50.5004
        43.0004
 -12586119.19549 -11138126.45948  21165357.4224   21165351.6024         51.7504
        45.5004
 -16522410.05949 -13392292.84348  20670133.3054   20670129.3914         52.5004
        46.5004
     11315.96549   -371343.80347  24309524.7424   24309522.0824         37.7504
        25.7504
 07  1  1  2 18  0.0000000  0  6G 8G22G27G19G11G16
 -12871865.64549 -10948988.50347  22025175.3284   22025172.4104         47.2504
        37.2504
  -1966361.16049  -1527403.96946  24847503.0704   24847499.3284         41.0004
        24.0004
 -20052530.42249 -15481205.86048  21466406.2814   21466403.6134         51.0004
        43.2504
 -12543449.02349 -11104876.97948  21173477.1484   21173471.6374         50.7504
        45.5004
 -16580049.05549 -13437206.31648  20659165.2894   20659160.8014         53.5004
        46.5004
     92075.91849   -308414.04747  24324892.2504   24324889.9264         40.7504
        26.2504
 07  1  1  2 18 30.0000000  0  6G 8G22G27G19G11G16
 -12929111.24649 -10993595.45747  22014282.1334   22014279.3164         48.5004
        39.0004
  -1960477.17649  -1522818.98246  24848623.8054   24848618.5084         41.2504
        22.7504
 -20060247.93449 -15487219.50548  21464937.4774   21464934.3444         50.7504
        42.7504
 -12500638.27049 -11071517.95548  21181623.9144   21181618.1884         51.7504
        45.5004
 -16637222.83649 -13481757.29448  20648285.0864   20648280.7894         53.0004
        46.5004
    173019.67649   -245341.07046  24340295.5164   24340293.0314         40.5004
        25.0004
 07  1  1  2 19  0.0000000  0  6G 8G22G27G19G11G16
 -12985806.99649 -11037773.93047  22003493.2194   22003489.6644         49.0004
        38.5004
  -1954135.69149  -1517877.54446  24849830.3284   24849825.4144         41.2504
        22.7504
 -20067413.11749 -15492802.77048  21463574.2734   21463571.0394         51.0004
        43.2504
 -12457688.77049 -11038050.81448  21189796.8134   21189790.8364         51.5004
        45.5004
 -16693931.37949 -13525945.73548  20637493.8754   20637490.1684         53.0004
        46.5004
    254145.83649   -182126.03446  24355732.8914   24355731.3094         38.7504
        22.5004
 07  1  1  2 19 30.0000000  0  6G 8G22G27G19G11G16
 -13041950.69949 -11081522.27347  21992809.2734   21992805.7544         48.5004
        37.0004
  -1947335.95749  -1512579.05546  24851124.0864   24851119.8164         41.2504
        22.5004
 -20074025.60249 -15497955.35648  21462315.7814   21462312.9144         51.5004
        43.2504
 -12414601.15249 -11004476.05448  21197995.9144   21197990.6844         51.7504
        45.5004
 -16750172.68749 -13569770.10548  20626791.2504   20626787.2424         52.5004
        46.0004
    335454.03149   -118769.07346  24371206.1174   24371202.7304         42.0004
        22.7504
 07  1  1  2 20  0.0000000  0  6G 8G22G27G19G11G16
 -13097540.23849 -11124838.76847  21982230.4924   21982227.9184         49.2504
        37.5004
  -1940077.25849  -1506922.85846  24852505.3524   24852500.0474         41.5004
        22.2504
 -20080085.41449 -15502677.30748  21461162.6484   21461159.8984         50.0004
        43.2504
 -12371376.62149 -10970794.60948  21206221.4614   21206215.5554         51.5004
        45.5004
 -16805945.76649 -13613229.62048  20616178.0474   20616174.0234         53.0004
        46.5004
    416943.76649    -55270.71647  24386712.5634   24386710.2384         43.0004
        26.2504
 07  1  1  2 20 30.0000000  0  6G 8G22G27G19G11G16
 -13152573.46149 -11167721.80247  21971758.4534   21971755.3594         49.2504
        37.5004
  -1932358.89549  -1500908.48146  24853974.5554   24853970.1764         41.2504
        22.7504
 -20085592.59049 -15506968.61348  21460114.9144   21460111.3674         51.0004
        43.0004
 -12328016.37149 -10937007.41348  21214472.4774   21214466.6094         52.0004
        45.5004
 -16861249.86749 -13656323.70648  20605654.2974   20605650.3164         53.2504
        46.5004
    498614.94949      8369.02146  24402255.3444   24402253.2234         42.5004
        24.5004
 07  1  1  2 21  0.0000000  0  6G 8G22G27G19G11G16
 -13207048.17249 -11210169.62647  21961392.4454   21961389.1054         48.7504
        37.5004
  -1924180.60249  -1494535.73846  24855530.7344   24855527.1454         39.2504
        22.2504
 -20090546.42649 -15510828.75648  21459172.0864   21459168.7774         51.5004
        43.0004
 -12284521.25849 -10903115.13348  21222749.6804   21222744.2774         51.7504
        45.5004
 -16916083.50449 -13699051.17948  20595219.5634   20595215.6724         53.5004
        47.0004
    580466.61349     72149.44846  24417830.3444   24417828.9774         42.0004
        22.7504
 07  1  1  2 21 30.0000000  0  6G 8G22G27G19G11G16
 -13260962.80149 -11252181.01447  21951132.7424   21951130.0434         48.7504
        37.2504
  -1915542.03549  -1487804.39946  24857173.6334   24857169.3204         38.2504
        22.2504
 -20094947.59449 -15514258.23348  21458334.5164   21458331.7504         51.2504
        43.2504
 -12240892.68449 -10869118.84148  21231051.5314   21231045.7624         51.7504
        45.2504
 -16970446.33649 -13741411.81248  20584874.9844   20584870.4884         53.5004
        47.0004
    662497.98449    136069.86846  24433440.5704   24433438.9774         42.0004
        24.2504
 07  1  1  2 22  0.0000000  0  6G 8G22G27G19G11G16
 -13314314.91049 -11293754.08947  21940980.2584   21940976.6804         48.5004
        37.5004
  -1906442.40249  -1480713.73246  24858905.7584   24858901.9144         39.2504
        22.5004
 -20098795.73449 -15517256.77948  21457602.5784   21457599.2504         51.0004
        43.5004
 -12197131.30949 -10835019.06548  21239379.1414   21239373.3204         52.0004
        45.5004
 -17024336.62949 -13783404.22748  20574620.1484   20574615.7894         53.5004
        47.2504
    744708.73849    200130.06546  24449085.1484   24449083.2934         42.0004
        24.0004
 07  1  1  2 22 30.0000000  0  6G 8G22G27G19G11G16
 -13367102.27749 -11334887.10947  21930935.5004   21930931.6994         49.2504
        37.2504
  -1896881.17249  -1473263.31246  24860725.1564   24860720.9804         39.2504
        22.0004
 -20102090.87549 -15519824.42148  21456975.4924   21456972.1374         51.2504
        43.5004
 -12153238.17249 -10800816.63348  21247731.7344   21247726.1564         51.5004
        45.5004
 -17077753.31249 -13825027.59148  20564455.1414   20564450.8404         53.5004
        47.0004
    827098.28149    264329.59146  24464763.7424   24464760.7704         43.7504
        22.2504
 07  1  1  2 23  0.0000000  0  6G 8G22G27G19G11G16
 -13419323.81649 -11375579.19747  21920997.4614   21920994.7234         49.0004
        38.0004
  -1886858.34449  -1465453.32846  24862632.4454   24862628.4614         39.2504
        22.5004
 -20104833.53549 -15521961.57348  21456453.3834   21456450.4344         51.2504
        43.0004
 -12109214.96949 -10766512.83748  21256109.3524   21256103.6724         51.2504
        45.2504
 -17130695.77749 -13866281.43348  20554380.3594   20554376.2504         53.5004
        47.0004
    909665.62149    328667.62946  24480475.0864   24480473.9144         42.2504
        22.7504
 07  1  1  2 23 30.0000000  0  6G 8G22G27G19G11G16
 -13470976.96149 -11415828.38247  21911167.9924   21911165.7934         48.2504
        38.0004
  -1876372.82049  -1457282.78346  24864627.9614   24864623.8594         39.5004
        22.5004
 -20107023.18449 -15523667.80248  21456036.9774   21456034.1174         51.5004
        43.5004
 -12065062.28549 -10732108.15848  21264511.3524   21264505.3674         51.0004
        44.7504
 -17183162.69549 -13907164.71548  20544396.4224   20544391.7114         53.2504
        47.2504
    992410.93849    393144.37246  24496221.1414   24496219.5124         41.2504
        23.5004
 07  1  1  2 24  0.0000000  0  6G 8G22G27G19G11G16
 -13522060.12149 -11455633.44247  21901447.4064   21901444.4494         48.0004
        37.5004
  -1865424.59049  -1448751.64246  24866711.1094   24866707.0944         40.0004
        22.2504
 -20108660.28949 -15524943.46348  21455724.9694   21455722.4184         49.2504
        43.2504
 -12020781.29749 -10697603.49248  21272937.4144   21272931.8714         51.5004
        45.0004
 -17235153.37549 -13947676.91348  20534502.7344   20534498.2544         52.2504
        46.7504
   1075333.10249    457758.90246  24512000.5314   24511997.9844         41.0004
        22.7504
 07  1  1  2 24 30.0000000  0  6G 8G22G27G19G11G16
 -13572571.23449 -11494992.73147  21891835.4614   21891831.9024         48.5004
        38.0004
  -1854013.33249  -1439859.73246  24868882.6094   24868877.7704         40.0004
        23.0004
 -20109744.44149 -15525788.27148  21455518.7114   21455515.8284         50.5004
        43.0004
 -11976372.96949 -10662999.60548  21281388.3524   21281382.4884         52.0004
        45.2504
 -17286666.53549 -13987817.01048  20524699.6414   20524695.8094         52.5004
        46.7504
   1158431.69149    522510.90246  24527814.5634   24527811.7274         40.5004
        23.7504
 07  1  1  2 25  0.0000000  0  7G28G 8G22G27G19G11G16
   -323960.16818                  24780363.914                          32.250

 -13622508.84049 -11533905.15747  21882332.8674   21882329.5084         49.0004
        37.5004
  -1842138.55549  -1430606.58146  24871141.9924   24871136.9654         38.0004
        22.5004
 -20110276.75449 -15526203.05948  21455417.3914   21455414.6724         51.0004
        43.0004
 -11931838.44549 -10628297.38248  21289862.7034   21289857.2624         51.5004
        45.2504
 -17337701.79749 -14027584.70448  20514988.4144   20514983.9964         52.5004
        47.0004
   1241705.71549    587399.62546  24543661.0164   24543658.7584         41.7504
        22.0004
 07  1  1  2 25 30.0000000  0  7G28G 8G22G27G19G11G16
   -414293.34818                  24763175.148                          32.750

 -13671870.83249 -11572369.03647  21872939.2974   21872936.1954         49.2504
        38.0004
  -1829799.75849  -1420991.94946  24873490.7034   24873485.6954         39.5004
        23.7504
 -20110256.61749 -15526187.37548  21455421.4304   21455418.2854         50.7504
        43.0004
 -11887178.52049 -10593497.45248  21298361.5864   21298355.8674         50.2504
        45.0004
 -17388258.09849 -14066979.20548  20505367.9774   20505363.4414         52.5004
        47.2504
   1325154.75049    652424.65946  24559540.9774   24559539.5704         41.2504
        22.7504
 07  1  1  2 26  0.0000000  0  7G28G 8G22G27G19G11G16
   -504699.84848   -263812.46156  24745970.5164   24745965.0234         33.5004
        16.7504
 -13720655.54349 -11610383.08447  21863655.6724   21863653.0394         45.5004
        38.0004
  -1816996.64149  -1411015.46747  24875927.1334   24875921.1484         40.5004
        25.7504
 -20109684.71549 -15525741.73948  21455530.7034   21455526.8324         50.0004
        43.2504
 -11842394.37149 -10558600.72048  21306883.2194   21306877.7774         51.2504
        45.2504
 -17438334.39149 -14105999.67948  20495838.6644   20495834.0594         50.2504
        46.7504
   1408778.05149    717585.55946  24575453.5864   24575452.0314         42.0004
        22.7504
 07  1  1  2 26 30.0000000  0  7G28G 8G22G27G19G11G16
   -595178.58258   -334315.34856  24728752.9224   24728748.3404         34.0004
        16.2504
 -13768860.97749 -11647945.78047  21854482.9924   21854479.5944         43.2504
        38.5004
  -1803729.24649  -1400677.18346  24878451.5784   24878446.9844         39.0004
        25.0004
 -20108561.13749 -15524866.21848  21455743.6954   21455741.3054         50.0004
        43.0004
 -11797486.83249 -10523607.84548  21315429.0474   21315422.9224         51.0004
        45.5004
 -17487929.99649 -14144645.57248  20486400.5554   20486396.5394         49.7504
        47.5004
   1492575.00049    782881.72246  24591400.1414   24591398.6254         41.2504
        22.7504
 07  1  1  2 27  0.0000000  0  7G28G 8G22G27G19G11G16
   -685727.94148   -404873.21146  24711522.1884   24711517.5744         35.5004
        16.7504
 -13816484.96149 -11685055.35947  21845420.1024   21845417.0554         48.0004
        38.5004
  -1789996.80949  -1389976.54546  24881064.4924   24881060.0514         39.5004
        22.5004
 -20106885.77749 -15523560.76848  21456062.8204   21456060.1684         49.7504
        43.0004
 -11752456.53149 -10488519.31048  21323998.2194   21323992.1604         51.5004
        45.0004
 -17537043.42649 -14182915.75148  20477054.8204   20477051.1804         52.2504
        47.5004
   1576545.37549    848313.00546  24607379.0234   24607377.2304         40.5004
        22.0004
 07  1  1  2 27 30.0000000  0  7G28G 8G22G27G19G11G16
   -776346.97349   -475485.42646  24694276.9304   24694273.1524         37.5004
        15.5004
 -13863526.36349 -11721710.98247  21836468.1414   21836465.2584         48.0004
        38.5004
  -1775799.51649  -1378913.62446  24883766.1334   24883761.3284         39.0004
        24.7504
 -20104659.19149 -15521825.76548  21456486.7734   21456483.1414         51.0004
        43.0004
 -11707305.42249 -10453336.64048  21332590.1024   21332584.3674         50.5004
        45.0004
 -17585674.37549 -14220809.96748  20467800.4144   20467796.7734         52.2504
        47.5004
   1660688.37149    913878.80446  24623392.2974   24623390.2504         43.2504
        24.5004
 07  1  1  2 28  0.0000000  0  7G28G 8G22G27G19G11G16
   -867035.09049   -546151.46746  24677020.9844   24677015.3054         37.0004
        18.2504
 -13909983.68449 -11757911.50047  21827628.3594   21827624.8284         46.5004
        38.0004
  -1761137.10249  -1367488.32846  24886556.4064   24886551.4454         40.2504
        24.5004
 -20101881.96149 -15519661.68648  21457015.2424   21457012.0824         51.5004
        43.5004
 -11662034.16849 -10418060.34648  21341204.9384   21341199.4184         49.7504
        45.2504
 -17633822.43049 -14258327.91748  20458638.3984   20458634.1414         51.5004
        47.5004
   1745002.66849    979578.10046  24639435.7894   24639434.5514         41.5004
        24.0004
 07  1  1  2 28 30.0000000  0  7G28G 8G22G27G19G11G16
   -957790.50449   -616869.85946  24659749.7664   24659743.9844         37.0004
        17.2504
 -13955854.79349 -11793655.23247  21818898.5394   21818895.6604         45.5004
        37.7504
  -1746008.97349  -1355700.16847  24889435.1024   24889431.1334         40.0004
        26.0004
 -20098554.11349 -15517068.57348  21457648.5164   21457645.7664         51.5004
        43.5004
 -11616643.27749 -10382690.83548  21349842.4224   21349836.8404         51.0004
        45.0004
 -17681485.96149 -14295468.29548  20449568.3364   20449563.8164         53.0004
        47.2504
   1829487.97349   1045410.65646  24655512.8754   24655510.5394         40.7504
        21.7504
 07  1  1  2 29  0.0000000  0  7G28G 8G22G27G19G11G16
  -1048612.46149   -687640.12146  24642466.9064   24642461.6884         36.0004
        16.2504
 -14001138.15249 -11828940.96547  21810282.1724   21810279.0824         44.0004
        38.7504
  -1730414.94549  -1343548.96846  24892402.0314   24892397.3834         36.2504
        22.0004
 -20094675.75449 -15514046.48648  21458386.5234   21458383.1174         51.2504
        42.7504
 -11571134.00849 -10347229.09448  21358502.7424   21358496.7664         49.0004
        44.7504
 -17728664.29749 -14332230.61148  20440590.1414   20440585.9104         50.0004
        47.0004
   1914143.55549   1111375.90046  24671622.2974   24671619.8754         38.5004
        22.2504
 07  1  1  2 29 30.0000000  0  7G28G 8G22G27G19G11G16
  -1139499.39548   -758461.13046  24625170.6254   24625167.0084         35.7504
        18.2504
 -14045832.03949 -11863767.34848  21801777.3914   21801773.8094         44.7504
        39.5004
  -1714354.72749  -1331034.41246  24895458.4384   24895452.1254         39.0004
        22.7504
 -20090247.42249 -15510595.83948  21459229.5234   21459225.7344         51.5004
        43.5004
 -11525507.19949 -10311675.73848  21367184.8754   21367179.5434         50.0004
        44.5004
 -17775357.04349 -14368614.55448  20431705.2194   20431700.8204         49.7504
        47.5004
   1998968.94549   1177473.40846  24687764.4454   24687762.3524         40.0004
        22.5004
 07  1  1  2 30  0.0000000  0  7G28G 8G22G27G19G11G16
  -1230450.67648   -829332.15646  24607863.7034   24607860.4574         35.0004
        17.2504
 -14089934.89149 -11898133.20447  21793384.3134   21793381.6374         49.0004
        39.0004
  -1697828.77049  -1318157.03046  24898603.4384   24898598.8594         37.5004
        24.7504
 -20085269.46549 -15506716.92148  21460176.4064   21460172.9064         50.2504
        42.7504
 -11479763.75049 -10276031.51648  21375890.0554   21375884.1684         47.5004
        45.0004
 -17821563.27049 -14404619.38248  20422912.4844   20422908.0664         50.7504
        47.5004
   2083963.23849   1243702.53146  24703938.0164   24703936.6254         41.2504
        23.0004
 07  1  1  2 30 30.0000000  0  7G28G 8G22G27G19G11G16
  -1321465.01649   -900252.37346  24590543.8754   24590540.8094         36.0004
        18.2504
 -14133444.94149 -11932037.13947  21785105.2664   21785101.3014         44.5004
        39.0004
  -1680836.56649  -1304916.30446  24901836.1564   24901832.7734         37.2504
        22.0004
 -20079742.75449 -15502410.40248  21461227.7974   21461225.1024         50.5004
        42.5004
 -11433904.89549 -10240297.34248  21384616.2344   21384610.6174         48.5004
        44.5004
 -17867282.37949 -14440244.64548  20414212.4924   20414207.9184         50.0004
        47.2504
   2169125.67249   1310062.66746  24720145.1094   24720142.5594         41.2504
        22.7504
 07  1  1  2 31  0.0000000  0  7G28G 8G22G27G19G11G16
  -1412541.45749   -971220.95546  24573212.6564   24573209.9184         36.2504
        18.5004
 -14176360.98049 -11965478.21247  21776937.7974   21776934.4694         46.0004
        37.2504
  -1663378.39849  -1291312.53246  24905158.7664   24905153.9024         38.0004
        21.7504
 -20073667.73849 -15497676.64048  21462384.4064   21462381.4384         51.0004
        43.7504
 -11387931.68449 -10204474.07348  21393364.8284   21393359.0234         46.5004
        44.5004
 -17912513.87949 -14475489.93848  20405605.0164   20405600.1684         49.5004
        47.5004
   2254455.07049   1376552.95846  24736382.0944   24736381.0234         40.0004
        22.5004
 07  1  1  2 31 30.0000000  0  7G28G 8G22G27G19G11G16
  -1503678.28148  -1042236.64446  24555870.1174   24555866.6134         35.2504
        19.5004
 -14218681.09049 -11998454.91947  21768884.7894   21768881.4654         47.7504
        38.2504
  -1645453.66449  -1277345.11046  24908569.3674   24908564.0944         39.0004
        22.5004
 -20067044.44149 -15492515.62748  21463644.5704   21463641.6374         51.5004
        43.0004
 -11341844.64149 -10168562.09748  21402135.2034   21402129.3834         49.2504
        44.7504
 -17957256.57849 -14510354.35648  20397090.6724   20397086.2234         51.7504
        47.7504
   2339951.48849   1443173.36246  24752651.7664   24752650.7974         40.2504
        21.2504
 07  1  1  2 32  0.0000000  0  7G28G 8G22G27G19G11G16
  -1594874.59849  -1113298.71946  24538516.3134   24538512.8524         36.5004
        20.2504
 -14260403.98849 -12030966.25748  21760945.5084   21760942.2814         49.0004
        39.5004
  -1627062.57049  -1263014.43646  24912070.0944   24912064.6294         40.0004
        24.5004
 -20059873.89149 -15486928.20048  21465009.0234   21465005.9774         51.7504
        43.0004
 -11295645.01649 -10132562.38348  21410926.4534   21410921.1374         49.7504
        45.0004
 -18001510.08249 -14544837.59148  20388669.3914   20388664.8324         51.5004
        47.7504
   2425613.69549   1509922.91446  24768952.4774   24768951.7424         40.7504
        22.2504
 07  1  1  2 32 30.0000000  0  7G28G 8G22G27G19G11G16
  -1686129.27349  -1184406.26046  24521151.6954   24521148.0204         38.5004
        21.0004
 -14301528.10549 -12063011.01747  21753119.6884   21753116.2504         49.2504
        38.2504
  -1608204.96949  -1248320.18946  24915657.3834   24915653.1954         39.5004
        25.0004
 -20052156.14549 -15480914.38248  21466477.5004   21466475.0084         51.0004
        43.5004
 -11249333.43749 -10096475.45048  21419739.4774   21419733.2034         51.7504
        44.5004
 -18045273.69949 -14578939.09148  20380341.7504   20380337.4024         53.0004
        47.5004
   2511441.06649   1576801.21146  24785285.6644   24785284.6054         39.5004
        21.5004
 07  1  1  2 33  0.0000000  0  7G28G 8G22G27G19G11G16
  -1777440.82849  -1255558.00446  24503775.8444   24503771.2774         37.5004
        20.7504
 -14342051.97749 -12094588.05947  21745408.0314   21745404.8914         48.7504
        37.7504
  -1588880.80149  -1233262.34946  24919335.2894   24919331.0944         41.7504
        25.2504
 -20043891.93049 -15474474.76148  21468050.3364   21468047.7894         51.5004
        43.7504
 -11202910.80549 -10060301.98348  21428573.5004   21428567.4104         50.5004
        44.7504
 -18088546.75049 -14612658.33548  20372107.0784   20372102.6414         52.0004
        47.5004
   2597432.92249   1643807.55846  24801649.3674   24801648.1134         39.0004
        19.7504
 07  1  1  2 33 30.0000000  0  7G28G 8G22G27G19G11G16
  -1868807.90249  -1326753.12946  24486389.3284   24486384.8404         38.2504
        21.0004
 -14381974.19549 -12125696.29247  21737811.1724   21737808.2974         47.0004
        38.7504
  -1569089.38349  -1217840.49746  24923101.1564   24923097.3794         38.0004
        22.7504
 -20035081.46549 -15467609.46448  21469727.2194   21469723.4804         51.5004
        43.5004
 -11156377.91449 -10024042.58548  21437428.1884   21437422.5084         47.7504
        44.7504
 -18131328.48449 -14645994.73448  20363966.0554   20363961.3324         50.0004
        47.7504
   2683588.57449   1710941.64346  24818044.2344   24818043.2934         37.5004
        20.0004
 07  1  1  2 34  0.0000000  0  7G28G 8G22G27G19G11G16
  -1960229.44549  -1397990.66346  24468992.4304   24468987.9844         38.0004
        19.7504
 -14421292.75449 -12156334.11348  21730329.5944   21730326.1054         50.0004
        39.7504
  -1548831.58649  -1202055.16246  24926956.7504   24926952.1724         39.5004
        23.0004
 -20025725.81249 -15460319.34448  21471507.1254   21471504.6094         50.0004
        42.7504
 -11109735.86749  -9987698.13648  21446303.4534   21446298.5044         47.7504
        44.5004
 -18173618.23849 -14678947.76848  20355918.5234   20355914.1054         51.2504
        47.7504
   2769907.30949   1778202.75746  24834470.5864   24834468.6054         38.0004
        19.5004
 07  1  1  2 34 30.0000000  0  7G28G 8G22G27G19G11G16
  -2051704.30549  -1469269.69246  24451584.7584   24451581.2034         37.2504
        19.5004
 -14460007.25049 -12186501.24247  21722962.4064   21722958.6524         49.5004
        38.5004
  -1528107.41049  -1185906.38846  24930900.1484   24930896.2274         39.7504
        23.2504
 -20015825.94949 -15452605.18548  21473391.1804   21473388.0634         50.5004
        43.2504
 -11062985.63749  -9951269.38848  21455199.9144   21455194.6294         47.0004
        44.5004
 -18215416.00049 -14711517.43648  20347964.6804   20347960.2934         51.0004
        47.5004
   2856387.70749   1845589.85546  24850927.3284   24850926.0514         37.7504
        18.5004
 07  1  1  2 35  0.0000000  0  7G28G 8G22G27G19G11G16
  -2143231.03949  -1540589.21446  24434168.1954   24434163.1024         37.2504
        21.0004
 -14498115.45749 -12216195.94947  21715710.2274   21715706.7814         48.7504
        38.2504
  -1506916.69949  -1169394.16346  24934932.0234   24934927.9264         39.2504
        22.0004
 -20005381.81649 -15444466.92248  21475378.7734   21475375.7734         51.0004
        43.0004
 -11016127.74249  -9914756.73148  21464116.8834   21464111.3634         49.5004
        44.0004
 -18256720.92249 -14743703.08348  20340104.4844   20340099.7154         51.0004
        47.5004
   2943029.60549   1913102.73446  24867414.8524   24867414.2464         37.2504
        17.7504
 07  1  1  2 35 30.0000000  0  7G28G 8G22G27G19G11G16
  -2234808.45749  -1611948.21346  24416742.4384   24416736.8714         37.5004
        19.7504
 -14535616.89149 -12245417.85847  21708573.8984   21708570.5514         47.5004
        38.5004
  -1485259.43749  -1152518.29346  24939053.4924   24939049.0004         38.7504
        22.5004
 -19994394.23449 -15435905.19048  21477469.2504   21477466.4734         51.5004
        43.0004
 -10969163.73849  -9878161.41748  21473053.7034   21473048.1334         50.5004
        44.5004
 -18297532.20749 -14775504.06048  20332338.2344   20332333.7544         51.2504
        47.5004
   3029831.95349   1980740.76246  24883933.4144   24883931.7344         38.5004
        17.7504
 07  1  1  2 36  0.0000000  0  7G28G 8G22G27G19G11G16
  -2326435.52349  -1683345.82746  24399305.8444   24399301.2234         37.5004
        19.7504
 -14572509.64549 -12274165.45447  21701553.4304   21701550.2854         50.0004
        39.0004
  -1463135.92649  -1135279.19846  24943263.9454   24943257.6214         39.7504
        21.5004
 -19982864.12549 -15426920.70248  21479663.8914   21479660.8164         51.2504
        43.7504
 -10922093.73049  -9841483.48248  21482010.9844   21482005.0784         50.7504
        44.2504
 -18337849.65649 -14806920.23448  20324666.1334   20324661.8634         52.2504
        47.7504
   3116794.09849   2048503.19946  24900481.1954   24900479.9924         36.7504
        16.7504
 07  1  1  2 36 30.0000000  0  7G28G 8G22G27G19G11G16
  -2418110.71949  -1754780.95146  24381860.2504   24381855.7704         37.2504
        21.5004
 -14608792.04349 -12302437.45247  21694649.3834   21694646.1094         50.0004
        39.2504
  -1440545.57849  -1117676.29846  24947562.2814   24947557.5314         39.0004
        20.7504
 -19970791.68449 -15417513.61548  21481960.9844   21481957.9964         50.7504
        43.5004
 -10874918.44549  -9804723.52748  21490988.0944   21490982.4184         51.2504
        44.5004
 -18377672.23849 -14837950.80548  20317088.1804   20317083.8204         53.5004
        47.7504
   3203915.32848   2116389.62946  24917060.7274   24917058.8484         35.2504
        16.7504
 07  1  1  2 37  0.0000000  0  7G28G 8G22G27G19G11G16
  -2509832.78949  -1826252.62046  24364405.0784   24364400.7894         36.0004
        19.7504
 -14644463.60949 -12330233.46847  21687861.1884   21687857.3014         47.5004
        38.7504
  -1417489.59849  -1099710.56946  24951949.4694   24951945.1174         39.5004
        22.5004
 -19958178.58649 -15407685.24148  21484360.8674   21484358.0044         49.7504
        42.2504
 -10827639.57449  -9767882.84648  21499984.9534   21499979.6454         51.0004
        44.5004
 -18417000.44949 -14868596.15748  20309604.5004   20309600.1524         51.7504
        48.0004
   3291194.22748   2184398.80946  24933669.9774   24933667.8014         34.5004
        14.7504
 07  1  1  2 37 30.0000000  0  7G28G 8G22G27G19G11G16
  -2601599.95349  -1897759.43746  24346942.7274   24346937.7934         36.0004
        17.7504
 -14679522.14149 -12357551.80547  21681189.7734   21681186.0554         48.5004
        39.2504
  -1393966.96149  -1081381.19746  24956425.4384   24956420.0594         38.0004
        22.7504
 -19945024.38349 -15397435.22748  21486864.4144   21486861.1604         50.0004
        43.7504
 -10780256.75849  -9730961.16248  21509001.4614   21508996.3284         50.7504
        44.2504
 -18455832.75449 -14898855.07348  20302214.7504   20302210.6214         52.5004
        48.0004
   3378631.01648   2252531.06346  24950309.1024   24950307.2034         34.2504
        13.7504
 07  1  1  2 38  0.0000000  0  7G28G 8G22G27G19G11G16
  -2693411.82849  -1969301.07446  24329470.8524   24329466.9494         37.0004
        20.0004
 -14713967.96549 -12384392.71047  21674634.7664   21674631.6764         47.5004
        39.0004
  -1369979.20349  -1062689.42246  24960990.5084   24960986.0314         37.0004
        22.2504
 -19931331.29349 -15386765.29348  21489470.0234   21489466.8164         50.7504
        43.2504
 -10732772.42649  -9693960.39548  21518037.6174   21518031.6764         51.0004
        44.2504
 -18494169.86749 -14928728.13648  20294919.5314   20294915.1764         52.0004
        48.0004
   3466223.21948   2320784.40646  24966976.9304   24966975.0004         31.7504
        13.7504
 07  1  1  2 38 30.0000000  0  7G28G 8G22G27G19G11G16
  -2785266.27349  -2040875.98346  24311992.6644   24311988.3134         39.0004
        20.5004
 -14747798.30949 -12410754.02047  21668197.2814   21668194.7814         47.5004
        38.7504
  -1345525.54349  -1043634.57046  24965644.2814   24965639.1764         38.5004
        20.5004
 -19917099.01249 -15375675.21948  21492178.6954   21492175.5044         52.2504
        43.2504
 -10685186.19149  -9656880.20748  21527092.5474   21527087.7074         51.5004
        44.5004
 -18532010.43049 -14958214.27448  20287718.7034   20287713.8874         53.0004
        48.0004
   3553971.55948   2389159.43846  24983675.2584   24983672.7424         33.2504
        15.5004
 07  1  1  2 39  0.0000000  0  7G28G 8G22G27G19G11G16
  -2877162.58649  -2112483.43146  24294504.8914   24294500.7894         37.7504
        21.5004
 -14781012.74649 -12436635.40247  21661876.5944   21661872.8594         49.5004
        38.5004
  -1320606.63349  -1024217.17646  24970386.2664   24970382.0824         39.2504
        21.0004
 -19902328.81249 -15364165.98748  21494989.0784   21494985.5784         51.0004
        43.0004
 -10637499.13349  -9619721.47048  21536167.8134   21536162.1454         51.2504
        44.2504
 -18569354.41049 -14987313.46348  20280612.0394   20280607.4694         52.5004
        47.7504
   3641874.54748   2457654.98846  25000402.1094   25000401.1414         33.2504
        15.5004
 07  1  1  2 39 30.0000000  0  7G28G 8G22G27G19G11G16
  -2969099.09049  -2184122.22946  24277010.1724   24277005.1604         36.2504
        20.2504
 -14813610.39549 -12462036.18447  21655673.1954   21655670.3324         49.5004
        38.2504
  -1295222.18449  -1004437.05146  24975214.7974   24975210.9494         37.0004
        20.2504
 -19887021.78949 -15352238.44848  21497902.0944   21497898.9654         51.2504
        42.5004
 -10589712.21549  -9582484.90148  21545260.9534   21545255.0164         51.5004
        44.5004
 -18606201.48049 -15016025.45548  20273600.4144   20273596.1374         53.0004
        47.7504
   3729931.27048   2526270.25846  25017161.1884   25017158.9224         31.5004
        13.7504
 07  1  1  2 40  0.0000000  0  7G28G 8G22G27G19G11G16
  -3061073.82048  -2255790.79246  24259507.5394   24259502.1294         35.7504
        19.7504
 -14845589.21949 -12486954.73747  21649588.3204   21649585.0204         48.7504
        39.2504
  -1269372.66449   -984294.50446  24980135.5164   24980129.5554         40.7504
        20.0004
 -19871178.23849 -15339892.83948  21500916.6564   21500913.5864         49.2504
        43.0004
 -10541825.27349  -9545170.40948  21554373.4844   21554367.8874         50.5004
        44.2504
 -18642550.66049 -15044349.47448  20266683.6334   20266679.0634         53.2504
        48.2504
                                  25033945.656                          26.750

 07  1  1  2 40 30.0000000  0  6G28G 8G22G27G19G11
  -3153086.07049  -2327488.65746  24241997.5164   24241992.5744         37.5004
        19.7504
 -14876948.96149 -12511390.87848  21643620.8984   21643617.6804         48.5004
        40.0004
  -1243058.09849   -963789.55046  24985142.6484   24985136.8364         40.5004
        20.7504
 -19854799.87149 -15327130.48048  21504033.9064   21504030.7934         49.5004
        43.2504
 -10493840.55149  -9507779.71848  21563504.6884   21563499.4534         49.5004
        44.5004
 -18678402.25049 -15072285.76648  20259860.9064   20259856.8954         52.5004
        47.7504
 07  1  1  2 41  0.0000000  0  6G28G 8G22G27G19G11
  -3245134.54349  -2399214.64146  24224481.4844   24224477.0044         36.5004
        19.7504
 -14907688.14849 -12535343.48348  21637771.1024   21637768.6564         50.2504
        39.7504
  -1216279.68749   -942923.19846  24990238.2974   24990233.1174         37.5004
        21.0004
 -19837886.96149 -15313951.60048  21507252.1954   21507249.3364         48.0004
        43.0004
 -10445758.21949  -9470312.96148  21572654.4064   21572649.1994         48.5004
        44.2504
 -18713755.49249 -15099833.72748  20253133.4614   20253128.8554         53.0004
        48.0004
 07  1  1  2 41 30.0000000  0  6G28G 8G22G27G19G11
  -3337217.82449  -2470967.82546  24206958.2974   24206953.7304         38.2504
        20.5004
 -14937806.01649 -12558811.95748  21632040.0314   21632036.2274         50.2504
        39.7504
  -1189037.41449   -921695.50646  24995422.1804   24995417.2584         37.5004
        21.0004
 -19820441.03949 -15300357.39548  21510571.7274   21510568.8524         48.0004
        42.7504
 -10397579.16449  -9432770.84448  21581822.8914   21581817.0394         49.5004
        43.7504
 -18748610.90249 -15126993.77148  20246500.7504   20246496.6844         51.7504
        48.2504
 07  1  1  2 42  0.0000000  0  6G28G 8G22G27G19G11
  -3429334.12149  -2542746.66546  24189429.6254   24189425.8484         38.0004
        21.0004
 -14967301.71949 -12581795.63248  21626427.0634   21626423.7624         48.7504
        39.5004
  -1161331.24649   -900106.18246  25000694.9144   25000690.0784         41.0004
        21.7504
 -19802462.74249 -15286348.33348  21513992.8204   21513989.7974         50.0004
        42.2504
 -10349303.64849  -9395153.56348  21591009.3284   21591003.3714         50.2504
        44.0004
 -18782967.37949 -15153765.03148  20239962.9694   20239958.6374         52.2504
        48.0004
 07  1  1  2 42 30.0000000  0  6G28G 8G22G27G19G11
  -3521482.09449  -2614550.22346  24171894.2114   24171891.2274         38.2504
        22.7504
 -14996173.79749 -12604293.34348  21620933.0864   21620929.4414         49.7504
        40.0004
  -1133161.44549   -878155.69046  25006055.1094   25006049.3364         38.0004
        21.5004
 -19783953.07449 -15271925.22448  21517515.6564   21517512.1804         50.0004
        42.2504
 -10300932.49649  -9357461.75848  21600213.8134   21600208.8444         49.5004
        43.5004
 -18816824.66449 -15180147.30948  20233520.3364   20233515.7974         52.5004
        48.2504
 07  1  1  2 43  0.0000000  0  6G28G 8G22G27G19G11
  -3613660.37149  -2686377.47346  24154353.2504   24154349.5904         39.7504
        22.5004
 -15024421.60249 -12626304.61448  21615557.4534   21615554.6914         49.7504
        39.5004
  -1104528.29349   -855844.09046  25011504.0394   25011498.8834         37.5004
        21.5004
 -19764912.98849 -15257088.78648  21521138.0944   21521135.5744         48.2504
        42.0004
 -10252466.97349  -9319696.42348  21609436.5234   21609431.1484         49.5004
        43.7504
 -18850182.87149 -15206140.69748  20227172.2114   20227167.5004         52.5004
        48.2504
 07  1  1  2 43 30.0000000  0  6G28G 8G22G27G19G11
  -3705867.02349  -2758226.72146  24136806.3364   24136802.8834         39.0004
        24.2504
 -15052043.62149 -12647828.26847  21610301.2424   21610298.4064         50.5004
        39.0004
  -1075432.69549   -833172.21246  25017040.5164   25017035.8324         36.5004
        22.0004
 -19745343.24649 -15241839.65948  21524862.5164   21524859.3594         47.0004
        42.2504
 -10203906.73449  -9281857.28348  21618677.4304   21618671.5514         46.2504
        44.0004
 -18883040.96549 -15231744.38048  20220919.6564   20220915.1254         52.5004
        48.0004
 07  1  1  2 44  0.0000000  0  6G28G 8G22G27G19G11
  -3798102.04349  -2830098.15146  24119255.0394   24119250.7114         39.0004
        22.5004
 -15079040.03149 -12668864.41348  21605164.1254   21605160.7234         50.2504
        39.7504
  -1045875.28549   -810140.48346  25022664.8364   25022660.2344         36.2504
        21.2504
 -19725245.88749 -15226179.39748  21528686.9304   21528683.7624         48.0004
        42.5004
 -10155254.16449  -9243946.19548  21627935.8054   21627929.8754         49.0004
        43.5004
 -18915399.98049 -15256959.17048  20214761.6804   20214757.5084         52.2504
        48.0004
 07  1  1  2 44 30.0000000  0  6G28G 8G22G27G19G11
  -3890363.09849  -2901989.84646  24101698.2274   24101693.6414         39.7504
        22.7504
 -15105409.28949 -12689411.88948  21600146.0084   21600143.2304         49.7504
        39.7504
  -1015855.79749   -786748.62946  25028377.1094   25028371.8634         36.5004
        20.7504
 -19704621.54349 -15210108.49048  21532611.6094   21532608.5864         50.0004
        42.5004
 -10106509.09449  -9205963.04348  21637211.3134   21637206.2704         49.5004
        43.5004
 -18947259.25049 -15281784.54748  20208699.2814   20208694.5944         51.2504
        48.0004
 07  1  1  2 45  0.0000000  0  6G28G 8G22G27G19G11
  -3982648.34849  -2973900.41146  24084137.4454   24084132.5394         38.7504
        23.7504
 -15131150.56649 -12709470.03348  21595247.7504   21595244.3404         50.0004
        39.5004
   -985374.75849   -762997.19046  25034178.3134   25034172.7194         37.0004
        23.0004
 -19683471.05149 -15193627.59448  21536636.3754   21536633.2974         51.5004
        42.5004
 -10057671.73449  -9167907.95048  21646504.8984   21646499.7734         51.5004
        44.0004
 -18978618.22749 -15306220.10048  20202731.6724   20202727.2424         51.2504
        48.2504
 07  1  1  2 45 30.0000000  0  6G28G 8G22G27G19G11
  -4074956.66449  -3045828.92146  24066570.8594   24066567.1884         41.2504
        24.5004
 -15156263.46149 -12729038.51948  21590468.7504   21590465.9884         50.5004
        39.7504
   -954432.78949   -738886.56547  25040066.2274   25040061.8834         39.5004
        25.7504
 -19661795.64549 -15176737.68448  21540761.0554   21540758.2234         50.2504
        42.5004
 -10008743.27049  -9129781.88248  21655815.7194   21655810.0474         51.0004
        43.5004
 -19009477.03949 -15330265.89948  20196859.4774   20196855.3594         52.5004
        48.2504
 07  1  1  2 46  0.0000000  0  6G28G 8G22G27G19G11
  -4167286.67249  -3117774.34946  24049001.8444   24048997.7464         40.5004
        23.7504
 -15180746.78949 -12748116.44548  21585809.4694   21585806.7584         49.7504
        40.0004
   -923030.43049   -714417.19046  25046041.9694   25046037.3164         38.5004
        23.7504
 -19639596.81649 -15159439.90648  21544985.4614   21544982.6414         50.5004
        43.0004
  -9959724.53949  -9091585.46348  21665143.7894   21665138.2734         50.7504
        43.5004
 -19039835.42249 -15353921.76948  20191082.4384   20191078.5664         52.2504
        48.2504
 07  1  1  2 46 30.0000000  0  6G28G 8G22G27G19G11
  -4259636.89149  -3189735.51246  24031428.4924   24031423.9104         42.2504
        24.2504
 -15204599.87949 -12766703.28848  21581270.9844   21581267.6334         50.5004
        40.0004
   -891168.15249   -689589.42846  25052105.1334   25052099.9224         38.2504
        24.2504
 -19616875.67249 -15141735.13948  21549309.2424   21549306.0554         50.5004
        42.0004
  -9910616.31649  -9053319.31348  21674488.5864   21674482.6454         51.0004
        43.0004
 -19069693.44949 -15377187.74348  20185400.6644   20185396.0784         52.5004
        48.0004
 07  1  1  2 47  0.0000000  0  6G28G 8G22G27G19G11
  -4352005.47349  -3261711.00547  24013850.9924   24013847.4144         42.5004
        27.0004
 -15227822.03549 -12784798.45848  21576851.7114   21576848.9694         50.5004
        40.0004
   -858846.44948   -664403.67146  25058254.8674   25058251.1374         35.0004
        22.0004
 -19593633.23449 -15123624.15448  21553732.0004   21553729.2274         50.2504
        42.5004
  -9861418.73449  -9014983.55048  21683850.8594   21683845.3204         52.2504
        43.5004
 -19099050.87149 -15400063.62648  20179814.1174   20179809.7154         51.7504
        48.2504
 07  1  1  2 47 30.0000000  0  6G28G 8G22G27G19G11
  -4444391.37149  -3333699.97347  23996270.1954   23996266.8834         43.0004
        26.7504
 -15250412.75849 -12802401.61848  21572552.8054   21572550.0474         49.7504
        39.5004
   -826066.10549   -638860.51846  25064493.3524   25064488.7504         37.7504
        21.5004
 -19569870.90649 -15105108.06548  21558253.6414   21558251.0514         50.2504
        42.5004
  -9812133.02749  -8976579.09648  21693229.6484   21693224.0084         50.7504
        43.2504
 -19127908.00049 -15422549.67548  20174322.7344   20174318.4884         52.0004
        48.2504
 07  1  1  2 48  0.0000000  0  6G28G 8G22G27G19G11
  -4536792.72749  -3405700.98847  23978687.3594   23978683.2584         42.7504
        27.5004
 -15272371.31249 -12819512.18948  21568374.2584   21568370.7304         50.0004
        39.5004
   -792827.49649   -612960.35446  25070818.4144   25070814.1414         37.2504
        20.5004
 -19545589.99249 -15086187.90148  21562874.2114   21562871.6564         50.5004
        42.5004
  -9762759.39149  -8938106.13448  21702625.1804   21702619.1054         50.7504
        43.0004
 -19156264.19149 -15444645.39448  20168926.5704   20168921.8244         52.0004
        47.7504
 07  1  1  2 48 30.0000000  0  6G28G 8G22G27G19G11
  -4629207.74249  -3477712.64746  23961101.4454   23961096.5354         43.7504
        25.5004
 -15293696.62949 -12836129.32748  21564316.0944   21564312.9534         50.0004
        39.5004
   -759131.18749   -586703.43446  25077230.8284   25077225.0084         38.5004
        19.7504
 -19520791.68749 -15066864.55648  21567593.3054   21567590.0704         50.7504
        42.2504
  -9713298.68449  -8899565.33248  21712036.9774   21712031.3364         51.0004
        43.0004
 -19184119.54749 -15466350.86648  20163626.0634   20163621.2384         52.5004
        48.0004
 07  1  1  2 49  0.0000000  0  6G28G 8G22G27G19G11
  -4721635.65249  -3549734.34947  23943512.6644   23943508.0744         43.5004
        26.2504
 -15314389.18449 -12852253.39448  21560378.6564   21560375.6994         50.0004
        40.5004
   -724978.16449   -560090.66846  25083729.7974   25083725.1294         37.5004
        22.5004
 -19495477.72349 -15047139.41148  21572410.5784   21572407.5474         50.0004
        42.2504
  -9663751.85949  -8860957.41448  21721465.6564   21721459.5904         51.0004
        43.2504
 -19211474.68449 -15487666.53648  20158420.4844   20158415.8164         52.7504
        48.5004
 07  1  1  2 49 30.0000000  0  6G28G 8G22G27G19G11
  -4814074.14549  -3621764.30847  23925922.5944   23925917.3054         42.0004
        26.7504
 -15334447.55949 -12867883.29848  21556561.3754   21556557.9924         50.5004
        40.0004
   -690368.37549   -533121.98946  25090315.6804   25090310.3874         38.7504
        20.7504
 -19469648.67649 -15027012.90048  21577325.4064   21577322.4924         49.7504
        41.0004
  -9614118.97749  -8822282.43948  21730910.2974   21730904.8874         51.0004
        43.2504
 -19238328.68449 -15508591.71648  20153310.0784   20153305.7704         52.5004
        48.0004
 07  1  1  2 50  0.0000000  0  7G28G 8G22G20G27G19G11
  -4906521.78149  -3693801.37647  23908330.2504   23908325.0514         42.5004
        26.0004
 -15353871.05549 -12883018.50448  21552865.6094   21552862.0514         50.2504
        40.2504
   -655302.74648   -505798.14446  25096988.2734   25096983.0864         34.5004
        19.7504
   -169750.66818                  24712692.609                          31.750

 -19443306.15649 -15006486.27848  21582338.2114   21582335.5354         49.0004
        41.2504
  -9564400.56649  -8783540.82148  21740371.3594   21740365.7584         51.0004
        43.0004
 -19264681.74249 -15529126.55748  20148295.5474   20148290.8364         52.5004
        48.2504
 07  1  1  2 50 30.0000000  0  7G28G 8G22G20G27G19G11
  -4998977.44949  -3765844.75347  23890735.9064   23890731.2704         42.2504
        28.2504
 -15372659.58649 -12897658.90748  21549290.2974   21549286.7734         50.7504
        40.5004
   -619782.29749   -478119.81246  25103747.9534   25103742.3794         36.2504
        20.0004
   -265296.781 8                  24694510.234                          31.500

 -19416451.78549 -14985560.80448  21587448.3594   21587445.1644         50.5004
        42.0004
  -9514598.02749  -8744733.64748  21749848.4454   21749842.9264         50.7504
        43.5004
 -19290534.25849 -15549271.36148  20143376.2114   20143371.5944         51.7504
        48.5004
 07  1  1  2 51  0.0000000  0  7G28G 8G22G20G27G19G11
  -5091438.98049  -3837892.64147  23873141.4304   23873136.4654         42.0004
        26.2504
 -15390812.46149 -12911804.00048  21545835.9304   21545833.1094         50.5004
        40.5004
   -583807.02749   -450087.21246  25110594.3914   25110587.6214         37.7504
        20.2504
   -360964.223 8                  24676306.227                          34.000

 -19389086.95749 -14964237.56048  21592655.9064   21592652.6914         50.0004
        41.2504
  -9464711.33249  -8705860.90848  21759341.8834   21759335.4344         51.5004
        43.2504
 -19315886.12549 -15569026.05048  20138551.4694   20138547.2934         52.7504
        48.0004
 07  1  1  2 51 30.0000000  0  7G28G 8G22G20G27G19G11
  -5183905.31649  -3909944.28647  23855545.1804   23855541.6724         42.5004
        28.7504
 -15408329.44949 -12925453.60048  21542501.9534   21542499.3204         49.5004
        39.5004
   -547378.26648   -421701.09446  25117526.5234   25117520.3324         31.7504
        17.7504
   -456750.660 8                  24658077.641                          34.000

 -19361213.18049 -14942517.77248  21597960.0554   21597956.8714         49.5004
        42.0004
  -9414741.40249  -8666923.30148  21768850.5554   21768844.9494         51.5004
        43.2504
 -19340737.41849 -15588390.67748  20133822.9224   20133817.9654         52.2504
        48.0004
 07  1  1  2 52  0.0000000  0  7G28G 8G22G20G27G19G11
  -5276374.46949  -3981998.13047  23837949.2734   23837944.9774         43.5004
        29.0004
 -15425209.92649 -12938607.21548  21539289.8284   21539287.1214         49.5004
        39.7504
   -510496.37949   -392962.00446  25124544.6024   25124539.7114         37.0004
        17.2504
   -552653.352 9                  24639828.383                          36.250

 -19332831.82049 -14920402.44748  21603361.0314   21603357.9844         49.2504
        41.5004
  -9364688.78149  -8627921.25748  21778375.2034   21778369.6954         51.2504
        43.5004
 -19365088.20349 -15607365.29748  20129188.6174   20129184.4064         52.5004
        48.0004
 07  1  1  2 52 30.0000000  0  7G28G 8G22G20G27G19G11
  -5368844.18049  -4054052.43347  23820353.0864   23820348.3524         44.5004
        29.2504
 -15441452.87149 -12951264.07048  21536198.8284   21536196.3444         49.5004
        40.5004
   -473162.00448   -363870.27046  25131648.8674   25131643.2464         33.0004
        15.5004
   -648669.363 9                  24621557.375                          37.500

 -19303943.91849 -14897892.40448  21608858.2114   21608854.6684         49.0004
        41.7504
  -9314553.78549  -8588855.03548  21787915.9384   21787909.9844         51.2504
        43.7504
 -19388938.16849 -15625949.66648  20124650.3444   20124645.8594         52.5004
        48.0004
 07  1  1  2 53  0.0000000  0  7G28G 8G22G20G27G19G11
  -5461313.77349  -4126106.66447  23802756.6414   23802751.9104         43.7504
        29.2504
 -15457058.72749 -12963424.47448  21533229.4694   21533226.2034         50.5004
        40.5004
   -435376.00448   -334426.60946  25138838.7504   25138833.1484         34.5004
        15.5004
   -744796.76649   -546855.78956  24603264.8204   24603265.2704         38.0004
        16.7504
 -19274551.51249 -14874989.25048  21614450.9224   21614448.1804         49.7504
        41.7504
  -9264337.16449  -8549725.18948  21797471.6094   21797465.9104         50.5004
        43.2504
 -19412288.18449 -15644144.46448  20120206.8134   20120202.6294         52.5004
        48.0004
 07  1  1  2 53 30.0000000  0  7G28G 8G22G20G27G19G11
  -5553781.34449  -4198159.27147  23785160.4384   23785155.3874         44.2504
        29.5004
 -15472026.99649 -12975088.07548  21530380.9844   21530377.6524         50.5004
        40.7504
   -397139.312 8                  25146114.766                          32.500

   -841032.55149   -621844.44146  24584950.9844   24584951.4384         39.0004
        17.2504
 -19244655.60249 -14851693.76648  21620140.8204   21620137.7154         50.2504
        42.0004
  -9214039.22349  -8510531.99748  21807043.4534   21807037.1954         51.0004
        42.5004
 -19435137.75049 -15661949.28448  20115858.6884   20115854.2274         52.0004
        48.0004
 07  1  1  2 54  0.0000000  0  7G28G 8G22G20G27G19G11
  -5646245.86349  -4270209.51447  23767564.6414   23767560.2504         44.2504
        28.0004
 -15486357.66849 -12986254.82648  21527653.9614   21527651.4024         51.0004
        41.0004
   -358453.016 8                  25153477.422                          33.500

   -937374.55949   -696915.89846  24566617.0314   24566617.4454         40.0004
        15.5004
 -19214258.48049 -14828007.71848  21625924.7274   21625922.0234         49.7504
        41.5004
  -9163661.24249  -8471276.42648  21816629.4774   21816623.8054         49.7504
        42.2504
 -19457487.91449 -15679364.98048  20111605.5864   20111600.7074         52.7504
        48.2504
 07  1  1  2 54 30.0000000  0  7G28G 8G22G20G27G19G11
  -5738704.91049  -4342255.48747  23749970.2894   23749965.6134         43.5004
        28.2504
 -15500050.21949 -12996924.33848  21525048.7194   21525045.1644         51.5004
        40.5004
   -319317.89148   -243991.63756  25160924.4534   25160918.5984         34.2504
        17.2504
  -1033819.88349   -772067.87346  24548264.9614   24548263.8324         40.5004
        18.2504
 -19183361.13349 -14803931.87848  21631804.2974   21631801.3444         50.0004
        41.5004
  -9113203.17649  -8431958.45248  21826231.7504   21826226.0044         51.0004
        42.5004
 -19479338.16849 -15696391.14248  20107447.4924   20107442.6174         51.7504
        48.2504
 07  1  1  2 55  0.0000000  0  7G28G 8G22G20G27G19G11
  -5831156.46149  -4414295.66347  23732377.5164   23732372.7624         43.0004
        27.5004
 -15513104.26649 -13007096.32348  21522564.5704   21522561.6134         50.5004
        40.5004
   -279734.08648   -213147.09046  25168457.7114   25168452.2664         34.5004
        15.5004
  -1130366.33249   -847298.60546  24529892.1884   24529892.0044         40.5004
        19.0004
 -19151965.07849 -14779467.45248  21637778.6804   21637776.1024         49.2504
        42.0004
  -9062665.51649  -8392578.45748  21835848.4304   21835842.9734         51.0004
        42.5004
 -19500688.68049 -15713027.87748  20103384.5084   20103380.1804         52.2504
        48.2504
 07  1  1  2 55 30.0000000  0  7G28G 8G22G20G27G19G11
  -5923599.50449  -4486329.12947  23714785.5864   23714781.2074         45.0004
        29.5004
 -15525519.89849 -13016770.85648  21520201.9224   21520198.6994         51.0004
        41.5004
   -239702.99648   -181954.09846  25176074.0164   25176068.8594         30.7504
        16.2504
  -1227010.77349   -922605.72046  24511501.7814   24511501.5044         40.5004
        19.5004
 -19120072.33649 -14754615.97748  21643847.6954   21643844.8634         50.0004
        42.0004
  -9012049.29349  -8353137.24648  21845480.5784   21845474.9304         50.2504
        42.5004
 -19521539.96149 -15729275.60548  20099416.7814   20099412.3754         52.0004
        48.2504
 07  1  1  2 56  0.0000000  0  7G28G 8G22G20G27G19G11
  -6016031.95349  -4558354.39447  23697196.5164   23697192.5084         43.5004
        29.5004
 -15537296.74249 -13025947.61748  21517960.7734   21517957.8754         50.5004
        41.0004
   -199225.20358   -150413.02056  25183777.5474   25183770.8794         32.5004
        13.7504
  -1323750.91849   -997987.45646  24493092.0864   24493092.9024         38.7504
        19.2504
 -19087684.51649 -14729378.73848  21650011.1024   21650008.3754         50.7504
        42.0004
  -8961354.67249  -8313634.94648  21855127.2424   21855122.1604         50.7504
        43.0004
 -19541892.06249 -15745134.36248  20095543.9774   20095539.5044         52.2504
        48.2504
 07  1  1  2 56 30.0000000  0  7G28G 8G22G20G27G19G11
  -6108452.18049  -4630370.10847  23679609.5944   23679604.9064         44.7504
        29.5004
 -15548434.36349 -13034626.27348  21515841.6334   21515837.9384         49.5004
        40.5004
   -158301.60258   -118524.48056  25191566.2274   25191558.6054         32.7504
        16.2504
  -1420583.96149  -1073441.44146  24474664.7894   24474665.0394         39.2504
        19.7504
 -19054802.82449 -14703756.65748  21656268.6254   21656265.5394         50.0004
        41.7504
  -8910581.92249  -8274071.76448  21864788.9454   21864783.6884         48.7504
        42.7504
 -19561745.25849 -15760604.36448  20091766.2344   20091761.7234         52.5004
        48.5004
 07  1  1  2 57  0.0000000  0  7G28G 8G22G20G27G19G11
  -6200858.86749  -4702375.25547  23662025.2344   23662021.1884         45.0004
        29.2504
 -15558932.96149 -13042807.00548  21513843.8054   21513840.5984         48.7504
        40.7504
                                  25199433.4064   25199432.1294         30.7504
        15.5004
  -1517507.40649  -1148966.01546  24456220.9694   24456219.9964         39.2504
        19.2504
 -19021429.11349 -14677751.19448  21662619.4694   21662616.4494         50.7504
        41.5004
  -8859732.16049  -8234448.57648  21874465.2734   21874459.9024         48.5004
        42.5004
 -19581099.96549 -15775685.93748  20088082.9454   20088078.7814         51.7504
        48.5004
 07  1  1  2 57 30.0000000  0  7G28G 8G22G20G27G19G11
  -6293250.15249  -4774368.47447  23644443.5004   23644439.0514         45.0004
        30.0004
 -15568792.75449 -13050489.98248  21511966.8444   21511964.0434         48.7504
        40.5004
    -75121.21158    -53708.72756  25207394.1804   25207389.1804         34.5004
        14.7504
  -1614518.73449  -1224559.09046  24437759.6024   24437760.2114         39.2504
        19.2504
 -18987565.44549 -14651363.93348  21669062.9924   21669060.2854         50.7504
        41.5004
  -8808805.85249  -8194765.74248  21884156.0234   21884150.6094         49.5004
        42.7504
 -19599956.48049 -15790379.30148  20084494.5864   20084490.1484         52.0004
        48.2504
 07  1  1  2 58  0.0000000  0  7G28G 8G22G20G27G19G11
  -6385624.01649  -4846348.09547  23626865.6884   23626860.3554         45.5004
        29.7504
 -15578013.13749 -13057674.70948  21510212.7584   21510209.5554         50.7504
        41.0004
    -32866.35549    -20782.87546  25215434.7274   25215429.5664         36.0004
        17.2504
  -1711615.07849  -1300218.31146  24419283.6414   24419283.2734         38.2504
        19.2504
 -18953213.10249 -14624595.89148  21675600.1804   21675597.2424         49.5004
        41.7504
  -8757803.19149  -8155023.42148  21893861.6804   21893856.1414         50.5004
        42.5004
 -19618315.15649 -15804684.74748  20081000.9774   20080996.5984         51.5004
        48.2504
 07  1  1  2 58 30.0000000  0  7G28G 8G22G20G27G19G11
  -6477978.89549  -4918312.92647  23609291.1484   23609286.0784         45.2504
        29.5004
 -15586594.25849 -13064361.29148  21508579.6884   21508576.5664         49.7504
        41.5004
      9830.38749     12487.35946  25223559.2974   25223554.0594         37.2504
        17.2504
  -1808793.91449  -1375941.86646  24400790.4694   24400789.8834         38.0004
        21.0004
 -18918373.86749 -14597448.44848  21682230.5634   21682227.0864         50.7504
        41.5004
  -8706724.81249  -8115222.10148  21903582.0084   21903576.1134         50.2504
        42.5004
 -19636176.09049 -15818602.33048  20077602.3134   20077598.2034         52.2504
        48.5004
 07  1  1  2 59  0.0000000  0  7G28G 8G22G20G27G19G11
  -6570312.30549  -4990261.02747  23591720.2974   23591715.9614         44.7504
        29.2504
 -15594535.44149 -13070549.22848  21507068.5084   21507065.5394         47.5004
        40.7504
     52968.59048     46101.59046  25231767.5634   25231763.6374         35.5004
        20.0004
  -1906051.96149  -1451727.11446  24382282.8674   24382282.4384         38.0004
        22.5004
 -18883049.03149 -14569922.61448  21688952.1254   21688948.9494         50.5004
        40.5004
  -8655570.30149  -8075361.45148  21913316.3524   21913310.4774         48.0004
        42.5004
 -19653539.06249 -15832131.89848  20074298.3594   20074293.5204         52.0004
        48.5004
 07  1  1  2 59 30.0000000  0  7G28G 8G22G20G27G19G11
  -6662623.80949  -5062192.02447  23574154.3444   23574149.8874         44.7504
        29.0004
 -15601838.10249 -13076239.62848  21505679.0704   21505675.7934         48.7504
        40.5004
     96545.96949     80057.93246  25240060.2194   25240056.9534         39.2504
        21.7504
  -2003387.62149  -1527572.83146  24363760.6884   24363759.9964         37.7504
        22.7504
 -18847241.50849 -14542020.66948  21695765.9614   21695763.1294         49.5004
        40.7504
  -8604341.68749  -8035443.05448  21923064.4694   21923059.1484         48.7504
        42.5004
 -19670406.11749 -15845275.03948  20071088.4694   20071083.9964         52.5004
        48.5004
 07  1  1  3  0  0.0000000  0  7G28G 8G22G20G27G19G11
  -6754910.89549  -5134104.00347  23556592.4774   23556588.2934         44.5004
        29.5004
 -15608501.56249 -13081431.94348  21504411.0004   21504408.2704         50.5004
        41.5004
    140562.48049    114356.42346  25248436.8594   25248432.3244         38.5004
        20.0004
  -2100797.68449  -1603476.59746  24345224.0084   24345223.3484         38.5004
        22.0004
 -18810952.33249 -14513743.40248  21702671.4844   21702668.8324         50.2504
        40.7504
  -8553038.57049  -7995466.60248  21932826.7664   21932821.0554         49.0004
        42.0004
 -19686776.61749 -15858031.25548  20067973.3444   20067969.1604         51.5004
        48.5004
 07  1  1  3  0 30.0000000  0  7G28G 8G22G20G27G19G11
  -6847171.64549  -5205995.46247  23539035.8674   23539031.3874         43.7504
        30.2504
 -15614525.77749 -13086126.14748  21503264.9144   21503261.1914         51.0004
        41.2504
    185017.10949    148996.42246  25256895.5864   25256891.0784         37.5004
        17.2504
  -2198279.00049  -1679435.79946  24326674.0394   24326672.6484         39.2504
        24.2504
 -18774183.37949 -14485092.28648  21709668.3674   21709665.3404         49.7504
        40.7504
  -8501661.27349  -7955432.33948  21942604.1414   21942598.2814         50.0004
        42.5004
 -19702650.42649 -15870400.44948  20064952.6484   20064947.8364         51.7504
        48.2504
 07  1  1  3  1  0.0000000  0  7G28G 8G22G20G27G19G11
  -6939404.51249  -5277865.18047  23521484.0864   23521480.1844         44.2504
        30.2504
 -15619911.09449 -13090322.48648  21502239.4144   21502237.0314         51.5004
        41.0004
    229908.87149    183977.03946  25265439.6804   25265431.7704         38.5004
        13.7504
  -2295829.39149  -1755448.84046  24308109.5634   24308108.5904         40.0004
        22.5004
 -18736936.56649 -14456068.81248  21716756.8834   21716753.2424         50.7504
        41.0004
  -8450210.62149  -7915340.93548  21952395.1174   21952389.4454         50.7504
        42.0004
 -19718028.66049 -15882383.46748  20062026.2734   20062021.0904         51.5004
        48.5004
 07  1  1  3  1 30.0000000  0  7G28G 8G22G20G27G19G11
  -7031607.58649  -5349711.72947  23503939.0704   23503934.1134         45.0004
        32.2504
 -15624657.77749 -13094021.22248  21501336.4534   21501333.7344         50.5004
        41.0004
    275236.03149    219296.91046  25274064.3594   25274058.0744         37.2504
        15.5004
  -2393446.21949  -1831513.69546  24289533.2974   24289533.8484         39.5004
        22.7504
 -18699213.91449 -14426674.55348  21723934.4924   21723931.8404         49.5004
        40.5004
  -8398686.94549  -7875192.62948  21962199.6724   21962193.6564         50.2504
        42.0004
 -19732911.93049 -15893980.79648  20059194.1334   20059189.3754         52.5004
        48.5004
 07  1  1  3  2  0.0000000  0  7G28G 8G22G20G27G19G11
  -7123778.80149  -5421533.43747  23486399.1724   23486395.2664         43.7504
        31.5004
 -15628765.34049 -13097221.94048  21500555.2274   21500551.9184         50.2504
        41.5004
    320998.08649    254955.55146  25282773.2114   25282766.7274         38.2504
        15.5004
  -2491126.51249  -1907627.97346  24270945.4844   24270944.9104         40.7504
        23.0004
 -18661016.73849 -14396910.53148  21731203.7114   21731200.4614         50.0004
        40.7504
  -8347090.25049  -7834987.40848  21972017.9384   21972012.2464         49.5004
        41.7504
 -19747300.21949 -15905192.41948  20056456.0314   20056451.4734         52.5004
        48.7504
 07  1  1  3  2 30.0000000  0  7G28G 8G22G20G27G19G11
  -7215917.14549  -5493329.52747  23468866.4384   23468861.6564         43.5004
        31.5004
 -15632234.82849 -13099925.44248  21499894.8284   21499891.7304         49.7504
        41.0004
    367193.30159    290951.88756  25291563.7664   25291558.1254         36.7504
        15.5004
  -2588867.80949  -1983789.80146  24252345.9614   24252345.3054         41.5004
        25.5004
 -18622347.47749 -14366778.65448  21738561.8914   21738559.4144         50.2504
        41.2504
  -8295421.78149  -7794726.26048  21981849.7504   21981844.1094         49.7504
        41.5004
 -19761194.34849 -15916018.99648  20053812.0314   20053806.9184         52.2504
        48.2504
 07  1  1  3  3  0.0000000  0  7G28G 8G22G20G27G19G11
  -7308019.87549  -5565097.84747  23451339.0004   23451335.1524         44.2504
        31.2504
 -15635065.84849 -13102131.43848  21499356.2974   21499352.8364         50.0004
        41.0004
                                  25300437.1884   25300430.9414         34.2504
        15.5004
  -2686666.93449  -2059996.71146  24233735.1724   24233734.9654         42.2504
        24.0004
 -18583207.38749 -14336279.90548  21746010.2504   21746006.8524         49.5004
        40.7504
  -8243681.41849  -7754409.10048  21991696.1094   21991689.9454         50.0004
        42.0004
 -19774594.34449 -15926460.52048  20051261.7974   20051257.6524         51.7504
        48.2504
 07  1  1  3  3 30.0000000  0  7G28G 8G22G20G27G19G11
  -7400085.99649  -5636837.65647  23433819.7894   23433815.0274         43.7504
        31.5004
 -15637259.23449 -13103840.57248  21498938.8444   21498936.0474         50.0004
        40.5004
    460880.51659    363954.93856  25309390.7584   25309385.4614         37.0004
        14.7504
  -2784521.98449  -2136247.18346  24215113.6174   24215113.3324         40.5004
        24.0004
 -18543598.96549 -14305416.21948  21753547.2894   21753544.7154         50.5004
        40.0004
  -8191869.89849  -7714036.49148  22001555.4304   22001549.7774         49.0004
        42.0004
 -19787501.09849 -15936517.70048  20048805.6334   20048801.2734         51.7504
        48.2504
 07  1  1  3  4  0.0000000  0  6G28G 8G20G27G19G11
  -7492111.99649  -5708546.23847  23416307.6644   23416302.8874         44.0004
        32.0004
 -15638814.43449 -13105052.44548  21498642.4224   21498638.8364         49.7504
        40.5004
  -2882428.73849  -2212537.97546  24196482.6884   24196480.8524         41.2504
        24.5004
 -18503523.54349 -14274188.62848  21761173.3984   21761171.1254         50.0004
        41.0004
  -8139986.69549  -7673608.02248  22011428.5554   22011422.8444         49.7504
        42.2504
 -19799914.54749 -15946190.49748  20046443.7274   20046438.8244         51.2504
        48.0004
 07  1  1  3  4 30.0000000  0  6G28G 8G20G27G19G11
  -7584097.94549  -5780223.54847  23398802.8054   23398798.7344         44.0004
        32.0004
 -15639733.06649 -13105768.26648  21498468.3914   21498464.6764         49.5004
        41.2504
  -2980386.18049  -2288868.26046  24177841.5004   24177840.2194         41.7504
        24.5004
 -18462984.32049 -14242599.62948  21768887.9224   21768884.6524         49.7504
        41.0004
  -8088033.56249  -7633125.05548  22021314.8134   22021309.3054         50.0004
        41.5004
 -19811836.51249 -15955480.31448  20044175.0634   20044170.0004         51.2504
        48.2504
 07  1  1  3  5  0.0000000  0  6G28G 8G20G27G19G11
  -7676041.48449  -5851867.85047  23381307.0634   23381302.6524         43.7504
        31.2504
 -15640014.78149 -13105987.78348  21498414.2974   21498411.1294         50.2504
        42.0004
  -3078390.78949  -2365235.27746  24159191.2194   24159189.6884         41.5004
        24.7504
 -18421982.60549 -14210650.26048  21776690.4774   21776687.7034         50.0004
        41.2504
  -8036010.23849  -7592587.40848  22031214.6804   22031208.4264         50.0004
        42.0004
 -19823266.89849 -15964387.07848  20041999.7114   20041994.9494         52.5004
        48.2504
 07  1  1  3  5 30.0000000  0  6G28G 8G20G27G19G11
  -7767939.95749  -5923477.01947  23363819.4454   23363814.4844         45.5004
        32.5004
 -15639659.74649 -13105711.13048  21498481.7584   21498478.9654         50.0004
        42.0004
  -3176439.19949  -2441636.41446  24140533.6024   24140531.6564         41.5004
        25.2504
 -18380519.91449 -14178341.69048  21784580.5944   21784578.0594         49.5004
        41.5004
  -7983916.96949  -7551995.25248  22041127.2194   22041121.6254         49.0004
        41.5004
 -19834205.99649 -15972911.03348  20039917.9924   20039913.4844         51.2504
        48.2504
 07  1  1  3  6  0.0000000  0  6G28G 8G20G27G19G11
  -7859792.35549  -5995050.28447  23346340.4064   23346335.4344         45.7504
        32.5004
 -15638668.41849 -13104938.68048  21498670.6334   21498667.3054         50.0004
        41.5004
  -3274529.22349  -2518070.01747  24121868.4924   24121865.8984         40.0004
        26.5004
 -18338598.62549 -14145675.77648  21792557.6644   21792554.7194         49.7504
        41.0004
  -7931754.20749  -7511348.95448  22051053.5784   22051048.2384         49.0004
        42.0004
 -19844654.34849 -15981052.58148  20037929.8834   20037925.3594         51.7504
        48.2504
 07  1  1  3  6 30.0000000  0  6G28G 8G20G27G19G11
  -7951596.21549  -6066585.74847  23328870.8524   23328866.3524         45.0004
        32.2504
 -15637041.56249 -13103671.00448  21498980.0164   21498976.7974         50.2504
        41.5004
  -3372657.98449  -2594533.78747  24103194.5164   24103192.8524         40.7504
        26.0004
 -18296220.62949 -14112653.99248  21800622.0784   21800619.3054         49.2504
        41.0004
  -7879522.30549  -7470648.77348  22060993.2274   22060987.7384         47.5004
        41.5004
 -19854612.81249 -15988812.39548  20036034.8984   20036030.0554         50.0004
        48.0004
 07  1  1  3  7  0.0000000  0  6G28G 8G20G27G19G11
  -8043349.30149  -6138081.61547  23311411.1484   23311407.2584         45.0004
        32.5004
 -15634779.19149 -13101908.11348  21499410.3914   21499407.4924         50.2504
        41.0004
  -3470822.84849  -2671025.65246  24084514.0944   24084512.6214         40.5004
        25.5004
 -18253388.08249 -14079277.99548  21808772.9144   21808769.7624         50.0004
        40.7504
  -7827221.69149  -7429895.05448  22070945.7034   22070940.4304         48.5004
        41.7504
 -19864082.04349 -15996191.00148  20034232.7344   20034228.2424         50.5004
        48.2504
 07  1  1  3  7 30.0000000  0  6G28G 8G20G27G19G11
  -8135050.41449  -6209536.96547  23293960.8054   23293956.5314         45.2504
        32.5004
 -15631882.50849 -13099650.97548  21499962.1174   21499958.9774         50.0004
        41.0004
  -3569021.00849  -2747543.52147  24065827.1804   24065826.3014         41.0004
        26.7504
 -18210103.40249 -14045549.69148  21817009.6564   21817006.4884         49.5004
        40.0004
  -7774852.86749  -7389088.19248  22080911.5314   22080905.9964         48.2504
        42.2504
 -19873063.11749 -16003189.22648  20032524.3834   20032518.9964         50.5004
        48.2504
 07  1  1  3  8  0.0000000  0  6G28G 8G20G27G19G11
  -8226697.45749  -6280950.21847  23276520.6724   23276516.0704         45.0004
        31.7504
 -15628351.60249 -13096899.61248  21500633.6254   21500630.5904         50.5004
        40.7504
  -3667249.37949  -2824084.98047  24047135.7734   24047133.8284         41.5004
        26.5004
 -18166368.27349 -14011470.38047  21825331.7664   21825329.2664         48.7504
        39.2504
  -7722416.18749  -7348228.44748  22090889.7974   22090883.5474         47.0004
        41.0004
 -19881556.05549 -16009807.08348  20030907.6724   20030902.7464         50.0004
        48.2504
 07  1  1  3  8 30.0000000  0  6G28G 8G20G27G19G11
  -8318287.64149  -6352319.17947  23259092.0004   23259086.4964         46.2504
        32.0004
 -15624186.48849 -13093654.07748  21501426.6334   21501423.7814         51.2504
        41.0004
  -3765504.63749  -2900647.34947  24028438.3834   24028436.0434         41.0004
        27.2504
 -18122184.43449 -13977041.43747  21833740.1174   21833736.7934         49.0004
        39.0004
  -7669910.98849  -7307315.32248  22100881.2274   22100875.3204         48.5004
        41.5004
 -19889561.07849 -16016044.75548  20029384.5234   20029379.5394         51.0004
        48.0004
 07  1  1  3  9  0.0000000  0  6G28G 8G20G27G19G11
  -8409820.44149  -6423643.42347  23241673.1724   23241668.7854         46.0004
        32.7504
 -15619389.03549 -13089915.80448  21502339.1334   21502336.1764         50.7504
        41.5004
  -3863785.40649  -2977229.62747  24009735.8134   24009733.3484         40.7504
        27.2504
 -18077554.94549 -13942265.23447  21842232.3364   21842230.0354         48.2504
        39.0004
  -7617339.12549  -7266350.23048  22110885.2034   22110879.6174         48.5004
        41.2504
 -19897080.29749 -16021903.87948  20027953.4924   20027948.8834         50.0004
        48.2504
 07  1  1  3  9 30.0000000  0  6G28G 8G20G27G19G11
  -8501293.04349  -6494920.73947  23224266.3054   23224262.5904         45.0004
        32.5004
 -15613959.23849 -13085684.78948  21503372.2664   21503369.5274         51.0004
        41.5004
  -3962088.12549  -3053828.98946  23991029.2504   23991026.7504         40.5004
        25.2504
 -18032481.59449 -13907143.13948  21850809.9924   21850807.0124         49.2504
        40.0004
  -7564700.18449  -7225332.89348  22120901.6254   22120896.4964         47.7504
        41.2504
 -19904113.54349 -16027384.30848  20026615.1564   20026610.1724         50.5004
        48.5004
 07  1  1  3 10  0.0000000  0  6G28G 8G20G27G19G11
  -8592703.47749  -6566149.61747  23206871.7194   23206867.5354         45.7504
        32.5004
 -15607897.72349 -13080961.53948  21504525.9924   21504522.9024         50.7504
        40.7504
  -4060409.50049  -3130442.91146  23972318.9924   23972317.0784         40.2504
        25.5004
 -17986966.09849 -13871676.53648  21859471.3364   21859468.4844         49.5004
        39.5004
  -7511994.16449  -7184263.28548  22130931.2194   22130925.4614         47.7504
        41.0004
 -19910661.48449 -16032486.58548  20025369.1644   20025364.4694         51.0004
        48.5004
 07  1  1  3 10 30.0000000  0  6G28G 8G20G27G19G11
  -8684050.06649  -6637328.74947  23189488.9614   23189484.6134         45.2504
        32.0004
 -15601205.28949 -13075746.65848  21505799.3054   21505796.1844         51.0004
        40.7504
  -4158747.05149  -3207069.45947  23953605.1254   23953603.7774         40.5004
        27.0004
 -17941011.13349 -13835867.48648  21868216.1484   21868213.1914         49.7504
        39.7504
  -7459222.03549  -7143142.15548  22140974.2034   22140967.8674         48.0004
        40.5004
 -19916725.12549 -16037211.49148  20024215.3984   20024210.4184         51.2504
        48.5004
 07  1  1  3 11  0.0000000  0  6G28G 8G20G27G19G11
  -8775330.74249  -6708456.52347  23172118.5864   23172114.5864         45.2504
        32.7504
 -15593882.55949 -13070040.64148  21507192.7274   21507189.2424         51.0004
        40.5004
  -4257098.07849  -3283706.48847  23934890.2734   23934888.3094         41.2504
        26.5004
 -17894618.64149 -13799717.50847  21877044.6024   21877041.6454         49.2504
        39.0004
  -7406383.46949  -7101969.26648  22151028.6954   22151022.3914         47.5004
        40.7504
 -19922305.27349 -16041559.63348  20023153.3594   20023148.8284         50.5004
        48.5004
 07  1  1  3 11 30.0000000  0  6G28G 8G20G27G19G11
  -8866543.10549  -6779531.06747  23154761.7974   23154757.4414         46.5004
        32.7504
 -15585930.03549 -13063843.88148  21508706.3834   21508703.5904         51.0004
        41.5004
  -4355459.43049  -3360351.56647  23916172.3054   23916170.2504         42.7504
        26.7504
 -17847790.72749 -13763228.24847  21885955.1564   21885952.3094         48.5004
        39.0004
  -7353478.81649  -7060744.86548  22161096.5474   22161090.5514         50.0004
        41.2504
 -19927402.49249 -16045531.48048  20022183.0704   20022178.5274         51.7504
        48.5004
 07  1  1  3 12  0.0000000  0  6G28G 8G20G27G19G11
  -8957685.27049  -6850550.92047  23137418.1564   23137414.0634         46.0004
        33.2504
 -15577348.92249 -13057157.29248  21510339.1174   21510336.7584         51.5004
        41.5004
  -4453828.48449  -3437002.67447  23897453.5634   23897450.9414         43.0004
        27.0004
 -17800529.90649 -13726401.67147  21894948.5084   21894946.2664         48.2504
        38.7504
  -7300508.43449  -7019469.24948  22171175.8914   22171170.2194         48.7504
        41.0004
 -19932017.68449 -16049127.72148  20021305.0634   20021300.5354         52.0004
        48.5004
 07  1  1  3 12 30.0000000  0  6G28G 8G20G27G19G11
  -9048755.85249  -6921514.98847  23120088.0314   23120082.9964         46.0004
        32.7504
 -15568140.43049 -13049981.85048  21512091.3674   21512088.3554         50.7504
        41.0004
  -4552202.79349  -3513657.84747  23878733.4924   23878730.7194         42.7504
        28.0004
 -17752839.03149 -13689239.96547  21904024.2664   21904021.3714         48.5004
        39.2504
  -7247473.07449  -6978143.01548  22181267.9844   22181262.4694         49.2504
        40.2504
 -19936151.80549 -16052349.09848  20020518.4224   20020513.7734         51.0004
        48.2504
 07  1  1  3 13  0.0000000  0  6G28G 8G20G27G19G11
  -9139752.13749  -6992421.18047  23102771.9924   23102767.3594         46.0004
        32.2504
 -15558304.57449 -13042317.53948  21513963.2814   21513959.8714         51.2504
        41.2504
  -4650578.41849  -3590314.05847  23860012.4224   23860010.5234         42.0004
        27.5004
 -17704719.23849 -13651744.02747  21913181.1484   21913178.4654         49.0004
        38.7504
  -7194372.57449  -6936766.01648  22191373.3054   22191367.2704         49.5004
        41.0004
 -19939805.59049 -16055196.18748  20019823.2114   20019818.4224         51.7504
        48.5004
 07  1  1  3 13 30.0000000  0  6G28G 8G20G27G19G11
  -9230671.96549  -7063267.79547  23085470.6094   23085465.5824         45.0004
        32.2504
 -15547842.46949 -13034165.25748  21515953.8364   21515951.0744         51.5004
        41.0004
  -4748952.71949  -3666969.23547  23841292.7504   23841290.5204         42.0004
        27.5004
 -17656172.94149 -13613915.75647  21922418.9844   21922417.0274         49.0004
        39.0004
  -7141207.22749  -6895338.48748  22201489.9454   22201484.4734         49.0004
        41.0004
 -19942979.69549 -16057669.50448  20019219.2344   20019214.4734         51.5004
        48.2504
 07  1  1  3 14  0.0000000  0  6G28G 8G20G27G19G11
  -9321513.69949  -7134053.52647  23068183.7274   23068179.6334         44.7504
        33.2504
 -15536755.16449 -13025525.81148  21518063.8204   21518060.9184         50.2504
        41.5004
  -4847323.41049  -3743621.59946  23822572.6724   23822570.8984         40.5004
        25.5004
 -17607202.71949 -13575757.15747  21931737.7894   21931735.1764         48.5004
        38.5004
  -7087977.41449  -6853860.72548  22211619.6174   22211613.6414         49.7504
        41.2504
 -19945675.16049 -16059769.84848  20018706.1644   20018701.6094         52.2504
        48.7504
 07  1  1  3 14 30.0000000  0  6G28G 8G20G27G19G11
  -9412275.22349  -7204776.77047  23050912.6724   23050908.1844         44.7504
        33.7504
 -15525044.00049 -13016400.21948  21520292.7194   21520289.2154         49.7504
        40.7504
  -4945687.23049  -3820268.57147  23803854.9384   23803853.4654         41.7504
        27.5004
 -17557811.11349 -13537270.23347  21941136.9144   21941133.9844         47.5004
        38.7504
  -7034683.44949  -6812332.98348  22221760.8594   22221755.2624         49.5004
        41.0004
 -19947892.99649 -16061498.00748  20018284.3054   20018279.6054         51.5004
        48.7504
 07  1  1  3 15  0.0000000  0  6G28G 8G20G27G19G11
  -9502954.65249  -7275436.03847  23033656.7814   23033652.8754         43.5004
        34.5004
 -15512709.30949 -13006788.78048  21522639.6254   21522636.1844         50.0004
        41.0004
  -5044041.52049  -3896908.16147  23785138.8204   23785137.4104         42.7504
        27.7504
 -17508000.24249 -13498456.58347  21950615.3984   21950612.9024         48.2504
        38.5004
  -6981325.35949  -6770755.25948  22231914.8674   22231908.7464         49.5004
        40.7504
 -19949634.14149 -16062854.72848  20017952.7114   20017947.9304         49.0004
        48.5004
 07  1  1  3 15 30.0000000  0  6G28G 8G20G27G19G11
  -9593549.89549  -7346029.68747  23016416.7974   23016412.8794         43.2504
        33.7504
 -15499752.51649 -12996692.58948  21525105.2664   21525102.1174         50.0004
        41.5004
  -5142383.55149  -3973538.19947  23766424.9844   23766423.3484         42.7504
        28.0004
 -17457772.75849 -13459318.32647  21960174.0314   21960171.3444         49.0004
        39.0004
  -6927903.84449  -6729128.12648  22242080.5314   22242074.0004         48.7504
        40.5004
 -19950899.54349 -16063840.73748  20017711.7664   20017707.1484         50.2504
        48.5004
 07  1  1  3 16  0.0000000  0  6G28G 8G20G27G19G11
  -9684058.27049  -7416555.68247  22999193.6804   22999189.5274         44.5004
        33.7504
 -15486173.98449 -12986111.90848  21527689.3204   21527686.7074         50.5004
        41.0004
  -5240709.68749  -4050155.85247  23747713.8754   23747712.0164         42.7504
        28.0004
 -17407130.12149 -13419856.54547  21969810.5084   21969807.7034         49.0004
        39.0004
  -6874418.31649  -6687451.11948  22252258.6954   22252252.4654         49.7504
        40.2504
 -19951689.50049 -16064456.26848  20017561.8364   20017556.6604         51.0004
        48.5004
 07  1  1  3 16 30.0000000  0  6G28G 8G20G27G19G11
  -9774478.10949  -7487012.67247  22981987.0004   22981983.4694         44.2504
        34.0004
 -15471975.07049 -12975047.83948  21530391.5084   21530388.1294         50.2504
        41.2504
  -5339017.26649  -4126759.04947  23729006.9694   23729005.4024         43.5004
        29.0004
 -17356075.48449 -13380073.73147  21979525.5004   21979522.6844         48.5004
        37.7504
  -6820869.59049  -6645724.85848  22262448.4304   22262442.4804         49.0004
        41.0004
 -19952005.40249 -16064702.40548  20017501.6954   20017496.9064         50.7504
        48.5004
 07  1  1  3 17  0.0000000  0  6G28G 8G20G27G19G11
  -9864807.30149  -7557399.03847  22964798.4844   22964794.3404         44.5004
        34.5004
 -15457157.09449 -12963501.36048  21533210.8754   21533207.7304         50.5004
        41.0004
  -5437303.57049  -4203345.65147  23710303.5704   23710302.3634         43.0004
        29.2504
 -17304610.92249 -13339971.49447  21989319.4844   21989316.8054         49.0004
        37.7504
  -6767257.64549  -6603949.34248  22272650.5394   22272644.5704         49.0004
        40.2504
 -19951848.23449 -16064579.91948  20017531.4534   20017526.5274         50.7504
        48.5004
 07  1  1  3 17 30.0000000  0  6G28G 8G20G27G19G11
  -9955044.21549  -7627713.49747  22947627.0004   22947622.8134         43.7504
        35.0004
 -15441721.07849 -12951473.28448  21536148.3984   21536145.3954         51.0004
        41.0004
  -5535565.65249  -4279913.38247  23691604.7034   23691603.3284         44.0004
        28.5004
 -17252739.18449 -13299551.97847  21999190.1644   21999187.5474         48.5004
        37.7504
  -6713583.13349  -6562125.06248  22282864.2194   22282858.8594         49.7504
        40.2504
 -19951219.32849 -16064089.84348  20017651.3134   20017646.0664         50.7504
        48.5004
 07  1  1  3 18  0.0000000  0  6G28G 8G20G27G19G11
 -10045185.70349  -7697953.59047  22930473.8914   22930469.1994         46.7504
        36.0004
 -15425667.80549 -12938964.25248  21539203.1254   21539200.1844         50.5004
        41.0004
  -5633800.04349  -4356459.50447  23672911.4774   23672908.4064         44.2504
        28.5004
 -17200462.10949 -13258816.63247  22009138.5554   22009135.7734         43.7504
        38.5004
  -6659845.19149  -6520251.35348  22293090.0394   22293084.3364         44.0004
        40.0004
 -19950118.95349 -16063232.40248  20017860.5634   20017855.6884         50.0004
        48.5004
 07  1  1  3 18 30.0000000  0  6G28G 8G20G27G19G11
 -10135230.02049  -7768117.95947  22913338.0864   22913334.4844         45.7504
        34.5004
 -15408998.63749 -12925975.28848  21542375.2114   21542371.9064         51.0004
        40.7504
  -5732004.18749  -4432982.10747  23654223.9144   23654220.5514         43.7504
        28.5004
 -17147782.20749 -13217767.38247  22019163.0004   22019159.7234         46.7504
        37.5004
  -6606044.57449  -6478328.82548  22303328.0784   22303322.0234         47.7504
        40.0004
 -19948548.11749 -16062008.35448  20018159.2734   20018154.7424         51.2504
        48.5004
 07  1  1  3 19  0.0000000  0  6G28G 8G20G27G19G11
 -10225175.31649  -7838205.17547  22896222.4064   22896218.4574         47.2504
        36.0004
 -15391715.20349 -12912507.69548  21545664.0084   21545661.2504         50.5004
        41.0004
  -5830175.45749  -4509479.09047  23635541.6484   23635538.6524         43.2504
        27.5004
 -17094702.33649 -13176406.46847  22029263.5704   22029260.7424         48.0004
        37.2504
  -6552181.62149  -6436357.70648  22313577.9454   22313572.2194         49.2504
        39.5004
 -19946508.31649 -16060418.88448  20018547.6564   20018543.1094         52.2504
        48.7504
 07  1  1  3 19 30.0000000  0  6G28G 8G20G27G19G11
 -10315018.98449  -7908213.21047  22879126.1954   22879121.3914         48.2504
        36.0004
 -15373818.50849 -12898562.22848  21549069.6414   21549066.4574         50.7504
        40.7504
  -5928310.37149  -4585947.75047  23616867.0704   23616864.4924         41.7504
        26.7504
 -17041224.63349 -13134735.55147  22039440.3134   22039437.6564         47.7504
        38.0004
  -6498256.53549  -6394338.19148  22323839.8594   22323834.1884         50.0004
        40.0004
 -19944000.36349 -16058464.63048  20019024.8524   20019020.0984         52.2504
        48.7504
 07  1  1  3 20  0.0000000  0  6G28G 8G20G27G19G11
 -10404759.07049  -7978140.54047  22862049.1334   22862044.3204         48.0004
        36.0004
 -15355309.41049 -12884139.56748  21552591.9614   21552589.2894         49.7504
        40.7504
  -6026406.03549  -4662385.81347  23598199.9924   23598198.0394         43.0004
        28.0004
 -16987351.52749 -13092756.51747  22049691.6484   22049688.9184         47.7504
        37.7504
  -6444269.19549  -6352270.16048  22334112.9144   22334107.5274         48.7504
        39.5004
 -19941025.07049 -16056146.21448  20019590.7664   20019586.1564         52.5004
        48.5004
 07  1  1  3 20 30.0000000  0  6G28G 8G20G27G19G11
 -10494393.95749  -8047985.87847  22844991.8134   22844987.2774         48.0004
        36.0004
 -15336189.65649 -12869241.05248  21556230.1174   21556227.4224         50.0004
        41.0004
  -6124459.69549  -4738791.12747  23579541.4384   23579538.7464         45.5004
        29.2504
 -16933085.75449 -13050471.52447  22060018.3054   22060015.8284         47.5004
        38.2504
  -6390220.19949  -6310154.07347  22344398.2274   22344392.1294         48.5004
        39.2504
 -19937584.01649 -16053464.86548  20020245.7734   20020241.1254         52.5004
        48.7504
 07  1  1  3 21  0.0000000  0  6G28G 8G20G27G19G11
 -10583921.30949  -8117747.44747  22827955.4534   22827950.6414         46.5004
        35.5004
 -15316460.64849 -12853867.79848  21559984.7894   21559981.8244         50.5004
        40.5004
  -6222468.68049  -4815161.66347  23560890.9064   23560888.5084         44.2504
        29.5004
 -16878429.98849 -13007882.62847  22070418.8674   22070416.5474         47.0004
        38.0004
  -6336109.55549  -6267989.95348  22354695.3834   22354689.6254         48.7504
        39.7504
 -19933678.27049 -16050421.40948  20020988.8204   20020984.3554         52.0004
        48.5004
 07  1  1  3 21 30.0000000  0  6G28G 8G20G27G19G11
 -10673337.98849  -8187422.73647  22810939.3984   22810935.5474         46.5004
        34.5004
 -15296123.24649 -12838020.47848  21563854.9454   21563851.7464         50.0004
        41.2504
  -6320429.19149  -4891494.40947  23542248.9924   23542247.6994         44.0004
        31.0004
 -16823386.10549 -12964991.30747  22080893.3444   22080890.7584         45.7504
        38.7504
  -6281937.00449  -6225777.59048  22365004.5084   22364999.0664         47.7504
        40.2504
 -19929308.13349 -16047016.09848  20021820.4144   20021815.5394         52.5004
        48.5004
 07  1  1  3 22  0.0000000  0  6G28G 8G20G27G19G11
 -10762642.57449  -8257010.70147  22793945.6174   22793941.6134         46.5004
        35.5004
 -15275179.16849 -12821700.42748  21567840.1954   21567837.0474         49.2504
        40.7504
  -6418338.56249  -4967787.31147  23523617.8444   23523614.9344         43.0004
        29.5004
 -16767957.00049 -12921799.82547  22091441.4224   22091438.6884         43.5004
        37.5004
  -6227703.07449  -6183517.41348  22375324.6414   22375319.3484         46.0004
        39.7504
 -19924475.47749 -16043250.37248  20022740.2274   20022735.0664         52.0004
        48.5004
 07  1  1  3 22 30.0000000  0  6G28G 8G20G27G19G11
 -10851832.57849  -8326509.36747  22776973.2504   22776969.0904         46.7504
        36.0004
 -15253629.74249 -12804908.66348  21571941.1724   21571938.3444         49.7504
        40.5004
  -6516194.01649  -5044038.17747  23504996.1564   23504993.4734         43.5004
        28.5004
 -16712145.35549 -12878310.24047  22102061.6174   22102058.8244         47.2504
        37.0004
  -6173407.74649  -6141209.36748  22385656.6024   22385651.0704         49.0004
        39.7504
 -19919181.15249 -16039124.91648  20023747.4304   20023742.5394         52.0004
        48.5004
 07  1  1  3 23  0.0000000  0  6G28G 8G20G27G19G11
 -10940905.95349  -8395917.18047  22760023.7114   22760018.9614         47.0004
        36.5004
 -15231476.06649 -12787646.05948  21576156.4304   21576153.3014         48.7504
        40.5004
  -6613992.65649  -5120244.78047  23486385.7344   23486382.0354         43.2504
        29.0004
 -16655953.68449 -12834524.55747  22112755.0004   22112752.8984         46.5004
        36.5004
  -6119051.19949  -6098853.62348  22396000.2194   22395994.8444         48.5004
        40.2504
 -19913426.28949 -16034640.59348  20024842.5864   20024837.8134         52.0004
        48.5004
 07  1  1  3 23 30.0000000  0  6G28G 8G20G27G19G11
 -11029860.40649  -8465232.31047  22743095.9454   22743091.4774         47.2504
        35.5004
 -15208719.64849 -12769913.81548  21580487.1954   21580484.4774         48.5004
        39.7504
  -6711730.91849  -5196404.35347  23467786.5234   23467783.2114         44.5004
        29.5004
 -16599384.11749 -12790444.39747  22123519.5554   22123516.8794         46.5004
        36.0004
  -6064633.41049  -6056450.16248  22406355.3524   22406350.4024         48.7504
        39.7504
 -19907212.08649 -16029798.34248  20026025.2814   20026020.2304         52.7504
        48.5004
 07  1  1  3 24  0.0000000  0  6G28G 8G20G27G19G11
 -11118694.42249  -8534453.61747  22726191.1644   22726186.6914         46.2504
        36.0004
 -15185363.04749 -12751713.84048  21584931.6804   21584928.6724         48.5004
        41.0004
  -6809406.66449  -5272515.16447  23449199.6024   23449196.3444         44.0004
        30.2504
 -16542440.18049 -12746072.53647  22134355.5474   22134353.4454         46.5004
        35.5004
  -6010155.28149  -6013999.69848  22416723.0004   22416716.8484         48.2504
        40.0004
 -19900540.43749 -16024599.64448  20027295.0234   20027289.9964         52.5004
        48.5004
 07  1  1  3 24 30.0000000  0  6G28G 8G20G27G19G11
 -11207404.33649  -8603578.19447  22709309.6954   22709305.7774         45.7504
        35.0004
 -15161406.30549 -12733046.27348  21589490.6094   21589487.4224         48.2504
        40.5004
  -6907015.79349  -5348574.08547  23430625.0004   23430622.3134         44.5004
        30.5004
 -16485123.03549 -12701409.85947  22145262.8204   22145260.1294         47.5004
        36.7504
  -5955615.61349  -5971501.27348  22427101.0554   22427095.9304         48.5004
        39.7504
 -19893410.94949 -16019044.18948  20028651.5474   20028646.6374         52.5004
        48.5004
 07  1  1  3 25  0.0000000  0  6G28G 8G20G27G19G11
 -11295989.37149  -8672605.45347  22692452.9534   22692448.8204         46.7504
        35.5004
 -15136851.58649 -12713912.72048  21594163.5554   21594160.4574         50.5004
        41.0004
  -7004556.19949  -5424579.48947  23412063.1884   23412060.6254         44.0004
        30.5004
 -16427436.40249 -12656459.24547  22156240.2814   22156237.5704         48.0004
        36.2504
  -5901015.53149  -5928955.77048  22437491.2114   22437485.3834         49.7504
        39.7504
 -19885826.00849 -16013133.83848  20030094.5864   20030090.0274         51.7504
        48.5004
 07  1  1  3 25 30.0000000  0  6G28G 8G20G27G19G11
 -11384446.36749  -8741532.96247  22675620.3204   22675615.7194         47.2504
        36.2504
 -15111700.29749 -12694314.29648  21598948.9064   21598946.3634         49.7504
        39.7504
  -7102024.38349  -5500528.62047  23393515.9224   23393512.2974         45.0004
        30.0004
 -16369382.49649 -12611222.45047  22167287.2734   22167284.8054         46.2504
        35.5004
  -5846354.43749  -5886362.73348  22447892.9454   22447886.8914         48.0004
        39.7504
 -19877786.39149 -16006869.18048  20031624.5004   20031619.7974         52.2504
        48.5004
 07  1  1  3 26  0.0000000  0  6G28G 8G20G27G19G11
 -11472773.07849  -8810358.95347  22658812.3754   22658807.4964         48.0004
        36.5004
 -15085954.07449 -12674252.32148  21603848.8134   21603845.5434         49.2504
        40.7504
  -7199417.43049  -5576419.16047  23374982.1094   23374978.8014         46.2504
        29.2504
 -16310963.94149 -12565701.50247  22178404.4614   22178402.1804         46.7504
        37.0004
  -5791632.91449  -5843722.59947  22458305.7424   22458300.0314         46.7504
        39.0004
 -19869293.12949 -16000251.04348  20033240.9694   20033236.0634         52.0004
        48.5004
 07  1  1  3 26 30.0000000  0  6G28G 8G20G27G19G11
 -11560967.72349  -8879082.03847  22642029.0474   22642024.7774         47.2504
        36.0004
 -15059614.84449 -12653728.25648  21608860.7974   21608857.9654         49.5004
        40.2504
  -7296732.68049  -5652249.11347  23356463.5864   23356460.6254         45.7504
        31.0004
 -16252183.46549 -12519898.56347  22189589.9694   22189587.0084         47.2504
        37.0004
  -5736851.01649  -5801035.42348  22468730.7974   22468725.4614         48.2504
        39.7504
 -19860347.82849 -15993280.67448  20034942.9304   20034937.9104         53.0004
        48.2504
 07  1  1  3 27  0.0000000  0  6G28G 8G20G27G19G11
 -11649027.64149  -8947700.15347  22625272.0084   22625267.5554         47.7504
        35.7504
 -15032683.71549 -12632742.96948  21613985.5394   21613982.5514         49.5004
        41.0004
  -7393966.46149  -5728015.56847  23337960.8834   23337957.8444         45.0004
        31.7504
 -16193043.28549 -12473815.33247  22200844.1414   22200841.3364         45.7504
        37.0004
  -5682008.38349  -5758300.92847  22479166.8674   22479161.0234         48.0004
        39.2504
 -19850951.18449 -15985958.60248  20036731.2344   20036726.5664         52.5004
        48.5004
 07  1  1  3 27 30.0000000  0  6G28G 8G20G27G19G11
 -11736950.52049  -9016211.47047  22608540.5314   22608536.6524         47.0004
        36.2504
 -15005162.48849 -12611297.86748  21619222.6334   21619219.1994         48.5004
        40.0004
  -7491115.73449  -5803716.18347  23319473.6174   23319471.1334         45.0004
        30.7504
 -16133546.69949 -12427454.38947  22212166.0394   22212163.4024         45.7504
        37.5004
  -5627105.53149  -5715519.49748  22489614.3054   22489609.3324         48.5004
        40.0004
 -19841104.74249 -15978286.04948  20038604.9534   20038600.0204         52.5004
        48.5004
 07  1  1  3 28  0.0000000  0  6G28G 8G20G27G19G11
 -11824734.36749  -9084614.43347  22591835.7584   22591831.8984         46.7504
        35.0004
 -14977053.22349 -12589394.54248  21624571.5944   21624569.0044         49.0004
        40.0004
  -7588177.91049  -5879348.90147  23301003.7274   23301001.1374         45.2504
        31.2504
 -16073696.43749 -12380817.85747  22223555.0944   22223552.7274         45.7504
        37.2504
  -5572142.45749  -5672691.15448  22500073.5314   22500068.3714         48.5004
        39.5004
 -19830810.07049 -15970264.22148  20040563.8054   20040558.7114         51.5004
        48.2504
 07  1  1  3 28 30.0000000  0  6G28G 8G20G27G19G11
 -11912376.77349  -9152907.20747  22575158.4454   22575153.8874         47.2504
        36.7504
 -14948357.43449 -12567034.19948  21630032.0784   21630029.5354         47.7504
        40.7504
  -7685149.55149  -5954911.08647  23282550.8754   23282548.1414         46.7504
        33.0004
 -16013494.71549 -12333907.47147  22235010.7114   22235009.1334         45.0004
        37.5004
  -5517119.09049  -5629815.82247  22510544.3284   22510539.0314         49.5004
        39.0004
 -19820068.21949 -15961893.95248  20042607.8674   20042602.9144         52.5004
        48.2504
 07  1  1  3 29  0.0000000  0  6G28G 8G20G27G19G11
 -11999875.50849  -9221088.03447  22558507.7894   22558503.5124         47.7504
        36.2504
 -14919077.00849 -12544218.28148  21635604.6334   21635600.6254         48.7504
        40.0004
  -7782028.01249  -6030400.71847  23264115.4694   23264112.2344         47.0004
        31.5004
 -15952944.28549 -12286725.36147  22246533.4534   22246530.9964         43.5004
        36.2504
  -5462035.48049  -5586893.53447  22521026.4694   22521020.6914         48.5004
        39.0004
 -19808880.44949 -15953176.21648  20044737.0554   20044732.3874         52.2504
        48.5004
 07  1  1  3 29 30.0000000  0  6G28G 8G20G27G19G11
 -12087227.96949  -9289154.88247  22541885.4924   22541880.5594         47.5004
        37.0004
 -14889213.56249 -12520948.06248  21641287.2424   21641284.7034         49.5004
        41.0004
  -7878810.11749  -6105815.25747  23245698.1564   23245694.6414         45.2504
        31.7504
 -15892048.22749 -12239273.87747  22258121.4844   22258119.1054         44.5004
        36.2504
  -5406891.73449  -5543924.40747  22531519.5704   22531513.2304         48.0004
        38.7504
 -19797248.12549 -15944112.06248  20046950.5944   20046945.3634         51.7504
        48.5004
 07  1  1  3 30  0.0000000  0  6G28G 8G20G27G19G11
 -12174432.23049  -9357106.25147  22525290.7504   22525286.4344         47.0004
        37.2504
 -14858769.19949 -12497225.21448  21647080.5234   21647077.8404         48.2504
        41.2504
  -7975492.87149  -6181152.36647  23227299.8364   23227296.3834         46.2504
        30.5004
 -15830809.03149 -12191555.04747  22269775.0554   22269772.2114         43.7504
        36.2504
  -5351687.89149  -5500908.46047  22542024.5864   22542018.9884         47.5004
        38.7504
 -19785172.68049 -15934702.61348  20049248.0704   20049243.4104         52.7504
        48.5004
 07  1  1  3 30 30.0000000  0  7G28G 8G17G20G27G19G11
 -12261485.44149  -9424939.89247  22508725.0394   22508721.1844         45.5004
        37.2504
 -14827745.24649 -12473050.69648  21652984.5234   21652980.8054         47.7504
        40.2504
   -101146.21118                  24991588.102                          31.500

  -8072072.50849  -6256409.09747  23208920.6724   23208918.6054         45.7504
        31.0004
 -15769229.00049 -12143570.63847  22281493.3444   22281490.5864         44.5004
        36.7504
  -5296423.62149  -5457845.40847  22552540.8834   22552535.4734         47.5004
        39.0004
 -19772654.71949 -15924948.36648  20051630.3754   20051625.7544         51.7504
        48.5004
 07  1  1  3 31  0.0000000  0  7G28G 8G17G20G27G19G11
 -12348385.77349  -9492654.40847  22492188.6174   22492184.7464         46.5004
        36.7504
 -14796144.05149 -12448426.40548  21658997.8754   21658994.9534         49.0004
        40.7504
                                  24978160.445                          28.250

  -8168546.83649  -6331583.77147  23190562.6024   23190559.6724         45.0004
        32.0004
 -15707311.24249 -12095323.08147  22293276.1094   22293273.4654         45.7504
        36.5004
  -5241099.43749  -5414735.67647  22563069.3204   22563063.7304         47.7504
        39.0004
 -19759696.22349 -15914850.82748  20054096.4924   20054091.6054         51.5004
        48.2504
 07  1  1  3 31 30.0000000  0  6G28G 8G20G27G19G11
 -12435130.93049  -9560248.01647  22475681.3284   22475677.4224         45.5004
        37.2504
 -14763967.13749 -12423353.49848  21665120.5474   21665118.0634         48.2504
        40.5004
  -8264912.38749  -6406673.68747  23172224.4614   23172221.7344         45.0004
        32.2504
 -15645058.58249 -12046814.51447  22305121.6804   22305119.2384         45.5004
        35.5004
  -5185715.24249  -5371579.19447  22573608.2814   22573603.4774         48.2504
        39.2504
 -19746298.62549 -15904411.15248  20056645.9454   20056640.6524         52.7504
        48.5004
 07  1  1  3 32  0.0000000  0  6G28G 8G20G27G19G11
 -12521718.15249  -9627718.57547  22459204.2814   22459200.6844         46.5004
        37.5004
 -14731215.98449 -12397833.12548  21671352.9454   21671349.5354         49.7504
        40.0004
  -8361166.00449  -6481676.40747  23153907.6724   23153905.1024         45.0004
        31.2504
 -15582473.45349 -11998046.93947  22317031.5944   22317028.7424         45.7504
        36.2504
  -5130271.28949  -5328376.13947  22584159.2734   22584153.9964         48.5004
        39.2504
 -19732463.05549 -15893630.18848  20059278.6334   20059273.6374         51.7504
        48.2504
 07  1  1  3 32 30.0000000  0  6G28G 8G20G27G19G11
 -12608145.34049  -9695064.40847  22442757.5084   22442753.8054         47.7504
        37.2504
 -14697893.03549 -12371867.19748  21677694.2034   21677690.9614         48.7504
        39.7504
  -8457305.05549  -6556589.85147  23135613.0864   23135610.2344         47.0004
        32.0004
 -15519559.17649 -11949022.85747  22329004.0554   22329001.7234         46.7504
        36.7504
  -5074767.40649  -5285126.37547  22594721.0634   22594715.9144         48.0004
        38.7504
 -19718191.19949 -15882509.25848  20061994.7894   20061989.8524         52.7504
        48.5004
 07  1  1  3 33  0.0000000  0  6G28G 8G20G27G19G11
 -12694409.91849  -9762283.55647  22426342.3754   22426337.8244         47.7504
        37.5004
 -14664000.13349 -12345457.15548  21684143.8204   21684141.1764         48.5004
        40.0004
  -8553326.04349  -6631411.28347  23117340.9224   23117337.9264         47.2504
        33.7504
 -15456317.97749 -11899744.01947  22341038.2424   22341035.7114         46.5004
        37.2504
  -5019203.10949  -5241829.55947  22605294.4064   22605289.3134         48.0004
        39.0004
 -19703483.79349 -15871048.94748  20064793.3134   20064788.9064         52.2504
        48.5004
 07  1  1  3 33 30.0000000  0  6G28G 8G20G27G19G11
 -12780510.01249  -9829374.53147  22409958.0314   22409953.1564         47.0004
        38.0004
 -14629539.52049 -12318604.74248  21690701.9614   21690698.1024         48.5004
        39.7504
  -8649225.98849  -6706138.41147  23099091.9144   23099089.1374         45.2504
        33.0004
 -15392752.85249 -11850212.76847  22353134.1414   22353131.4614         45.0004
        36.0004
  -4963578.91049  -5198486.05647  22615879.1954   22615874.3554         48.0004
        38.7504
 -19688342.66049 -15859250.65648  20067674.7974   20067669.9184         52.2504
        48.5004
 07  1  1  3 34  0.0000000  0  6G28G 8G20G27G19G11
 -12866442.60249  -9896334.97647  22393605.8444   22393600.6174         47.5004
        37.2504
 -14594512.89149 -12291311.26648  21697366.8054   21697363.6454         47.7504
        39.5004
  -8745001.72749  -6780768.75447  23080865.8134   23080863.3754         44.7504
        32.5004
 -15328866.37949 -11800431.12747  22365291.6094   22365288.1884         45.2504
        34.7504
  -4907894.38749  -5155095.54547  22626476.0164   22626470.9144         47.2504
        38.2504
 -19672769.03949 -15847115.36848  20070638.1884   20070633.3284         52.5004
        48.5004
 07  1  1  3 34 30.0000000  0  6G28G 8G20G27G19G11
 -12952205.85949  -9963163.46947  22377285.2114   22377281.2344         47.2504
        37.5004
 -14558922.62149 -12263578.59748  21704139.8754   21704136.7734         48.2504
        40.2504
  -8840650.60249  -6855300.23847  23062664.6884   23062661.7114         45.5004
        32.5004
 -15264661.90649 -11750401.66947  22377509.3984   22377506.9654         43.5004
        33.7504
  -4852150.21149  -5111658.55547  22637083.6724   22637078.4184         48.0004
        38.0004
 -19656764.81249 -15834644.54348  20073684.0474   20073678.6294         52.2504
        48.5004
 07  1  1  3 35  0.0000000  0  6G28G 8G20G27G19G11
 -13037797.09449 -10029857.93147  22360998.0164   22360993.4734         46.7504
        38.0004
 -14522770.25049 -12235407.93048  21711019.0944   21711016.1884         48.5004
        40.2504
  -8936168.84049  -6929729.92847  23044488.4384   23044485.2814         46.2504
        33.5004
 -15200141.52049 -11700126.07347  22389786.9224   22389784.8674         43.0004
        33.0004
  -4796346.04749  -5068174.82847  22647703.0474   22647697.6604         47.0004
        38.7504
 -19640330.69949 -15821838.73648  20076811.0634   20076805.9454         52.2504
        48.2504
 07  1  1  3 35 30.0000000  0  6G28G 8G20G27G19G11
 -13123214.10249 -10096416.59747  22344743.5944   22344739.3634         48.7504
        38.0004
 -14486058.19149 -12206801.17448  21718005.5554   21718001.8134         49.7504
        40.0004
  -9031553.93749  -7004055.89447  23026336.9454   23026334.4304         45.7504
        32.5004
 -15135308.44549 -11649606.82747  22402124.2274   22402121.6214         44.0004
        32.7504
  -4740481.72749  -5024644.22247  22658333.5164   22658328.4924         47.7504
        38.2504
 -19623468.62149 -15808699.45648  20080019.7814   20080015.0514         52.5004
        48.5004
 07  1  1  3 36  0.0000000  0  6G28G 8G20G27G19G11
 -13208453.91449 -10162837.21747  22328523.2584   22328518.6914         48.0004
        38.5004
 -14448788.56649 -12177759.90848  21725097.4844   21725094.2114         50.5004
        40.7504
  -9126802.07849  -7078275.11747  23008211.4064   23008208.7704         46.0004
        33.5004
 -15070165.21949 -11598845.88947  22414521.0004   22414518.0204         45.7504
        34.5004
  -4684556.92249  -4981066.48447  22668976.0864   22668970.9454         47.0004
        39.0004
 -19606179.48449 -15795227.39148  20083309.9304   20083304.7384         52.5004
        48.5004
 07  1  1  3 36 30.0000000  0  6G28G 8G20G27G19G11
 -13293514.62549 -10229118.26947  22312335.9774   22312332.3674         48.7504
        38.0004
 -14410963.40649 -12148285.74448  21732295.6804   21732292.4884         51.0004
        40.0004
  -9221910.65649  -7152385.60347  22990112.9144   22990109.9844         46.2504
        33.5004
 -15004715.01249 -11547845.75747  22426975.3594   22426973.3794         46.0004
        34.5004
  -4628571.89549  -4937441.80847  22679629.5704   22679624.1564         46.7504
        38.7504
 -19588465.16849 -15781424.03548  20086680.7894   20086675.8444         52.5004
        48.5004
 07  1  1  3 37  0.0000000  0  6G28G 8G20G27G19G11
 -13378393.91049 -10295257.95347  22296184.1564   22296179.9964         48.7504
        38.7504
 -14372584.96549 -12118380.47948  21739598.3594   21739595.0784         50.2504
        40.0004
  -9316876.88349  -7226385.18447  22972041.2504   22972038.3874         44.7504
        33.7504
 -14938960.65249 -11496608.63147  22439488.4454   22439485.8714         46.0004
        35.0004
  -4572527.03549  -4893770.52147  22690294.7114   22690289.0084         47.2504
        38.7504
 -19570327.39549 -15767290.68748  20090132.1334   20090127.3324         53.2504
        48.5004
 07  1  1  3 37 30.0000000  0  6G28G 8G20G27G19G11
 -13463089.63749 -10361254.61747  22280067.7274   22280063.2504         48.5004
        38.2504
 -14333655.76249 -12088046.06548  21747006.3594   21747003.5164         51.0004
        40.2504
  -9411697.71149  -7300271.47247  22953997.6564   22953994.1334         45.7504
        32.5004
 -14872905.34849 -11445136.98747  22452058.2424   22452055.6414         46.5004
        36.0004
  -4516422.31649  -4850052.59547  22700971.1644   22700965.6724         47.5004
        38.2504
 -19551767.56249 -15752828.47848  20093663.8754   20093658.9184         52.2504
        48.2504
 07  1  1  3 38  0.0000000  0  6G28G 8G20G27G19G11
 -13547598.51249 -10427105.67447  22263985.6954   22263981.7774         48.7504
        38.2504
 -14294177.07049 -12057283.44048  21754519.1334   21754515.9384         49.7504
        39.7504
  -9506369.05149  -7374041.29147  22935982.0314   22935978.7774         45.0004
        32.0004
 -14806551.17649 -11393432.47447  22464685.4304   22464682.6054         46.2504
        36.5004
  -4460256.78949  -4806287.28147  22711658.5234   22711653.4344         47.7504
        38.0004
 -19532786.66049 -15738038.15648  20097276.0634   20097271.4064         52.2504
        48.5004
 07  1  1  3 38 30.0000000  0  6G28G 8G20G27G19G11
 -13631918.75049 -10492809.73547  22247939.9064   22247935.5824         47.2504
        38.0004
 -14254151.60549 -12026094.78548  21762135.6094   21762132.4064         50.2504
        40.0004
  -9600888.59449  -7447692.77747  22917995.4924   22917993.2384         47.0004
        34.2504
 -14739901.43049 -11341497.64847  22477368.3364   22477365.6214         46.5004
        35.0004
  -4404031.03149  -4762475.04347  22722358.3914   22722352.1454         47.5004
        38.0004
 -19513386.45349 -15722921.10448  20100967.7664   20100963.1054         53.0004
        49.2504
 07  1  1  3 39  0.0000000  0  6G28G 8G20G27G19G11
 -13716047.64149 -10558364.70947  22231930.8754   22231926.0084         47.7504
        38.2504
 -14213581.62949 -11994481.83947  21769855.6884   21769853.2384         49.5004
        39.2504
  -9695252.82049  -7521223.27347  22900038.8054   22900036.5314         47.0004
        34.2504
 -14672958.90649 -11289334.65847  22490106.8524   22490103.5164         46.2504
        35.7504
  -4347744.82849  -4718615.68247  22733068.8594   22733063.7624         47.5004
        38.0004
 -19493568.52049 -15707478.56048  20104738.9614   20104734.0434         51.7504
        48.5004
 07  1  1  3 39 30.0000000  0  6G28G 8G20G27G19G11
 -13799982.64549 -10623768.60347  22215958.6334   22215954.2894         48.7504
        39.2504
 -14172469.30549 -11962446.27447  21777679.2664   21777676.1254         49.7504
        39.2504
  -9789458.51649  -7594630.23347  22882112.2344   22882109.5474         47.0004
        35.2504
 -14605726.46149 -11236945.78647  22502900.8524   22502897.5784         46.5004
        35.5004
  -4291397.90249  -4674709.00847  22743791.3364   22743786.3054         47.5004
        38.2504
 -19473334.02049 -15691711.41748  20108589.4304   20108584.3594         52.5004
        48.5004
 07  1  1  3 40  0.0000000  0  6G28G 8G20G27G19G11
 -13883721.97749 -10689020.00248  22200023.4454   22200019.4534         48.0004
        40.0004
 -14130817.43049 -11929990.26747  21785605.6024   21785602.6214         49.0004
        38.7504
  -9883503.61749  -7667912.06647  22864215.4614   22864213.4224         48.0004
        35.2504
 -14538207.45349 -11184333.60947  22515749.1174   22515746.5594         46.2504
        35.5004
  -4234990.95349  -4630755.55947  22754525.9924   22754520.2154         48.0004
        38.0004
 -19452685.07449 -15675621.32848  20112518.8204   20112513.5354         52.5004
        48.5004
 07  1  1  3 40 30.0000000  0  6G28G 8G20G27G19G11
 -13967261.92249 -10754116.07748  22184126.4534   22184121.9104         48.5004
        39.5004
 -14088627.27349 -11897114.83947  21793633.9454   21793630.7934         49.0004
        39.0004
  -9977383.56249  -7741065.20547  22846351.0474   22846347.7384         48.0004
        34.7504
 -14470403.63349 -11131499.50447  22528652.0864   22528649.1134         46.0004
        36.0004
  -4178522.93049  -4586754.52447  22765271.2814   22765265.9804         47.5004
        38.0004
 -19431622.52049 -15659208.93948  20116526.9454   20116522.1174         52.5004
        48.5004
 07  1  1  3 41  0.0000000  0  6G28G 8G20G27G19G11
 -14050601.16049 -10819055.71447  22168267.3134   22168263.1914         48.0004
        38.7504
 -14045901.88749 -11863822.34747  21801764.5394   21801761.0354         49.2504
        38.7504
 -10071096.10949  -7814087.91347  22828518.0004   22828514.9804         47.5004
        34.2504
 -14402318.78549 -11078446.41047  22541608.5864   22541605.9224         46.0004
        36.7504
  -4121994.39549  -4542706.35747  22776028.2274   22776022.5004         48.5004
        38.2504
 -19410148.84849 -15642476.20548  20120613.1174   20120608.0084         52.2504
        48.5004
 07  1  1  3 41 30.0000000  0  6G28G 8G20G27G19G11
 -14133736.73049 -10883836.66747  22152447.4534   22152442.6844         49.0004
        39.2504
 -14002643.14149 -11830114.24447  21809996.1954   21809993.0204         49.2504
        38.5004
 -10164637.66449  -7886977.38747  22810718.0084   22810714.0234         48.5004
        34.5004
 -14333955.29749 -11025176.19447  22554617.3754   22554614.6254         46.0004
        36.2504
  -4065404.91049  -4498610.69647  22786796.7974   22786792.2274         48.7504
        38.0004
 -19388264.39149 -15625423.37548  20124777.6334   20124772.3284         52.0004
        48.5004
 07  1  1  3 42  0.0000000  0  7G28G 8G17G20G27G19G11
 -14216666.78549 -10948457.48147  22136666.0084   22136661.2774         48.2504
        38.7504
 -13958854.25449 -11795993.04847  21818328.8054   21818326.3914         48.5004
        38.0004
    -69475.91818                  24683119.703                          32.750

 -10258006.03549  -7959731.91247  22792950.2344   22792947.0514         47.5004
        34.7504
 -14265316.74249 -10971691.63047  22567678.7664   22567676.1174         45.5004
        36.5004
  -4008754.78949  -4454467.78147  22797576.7664   22797571.6374         48.0004
        37.5004
 -19365971.94949 -15608052.63448  20129019.9304   20129015.2074         52.2504
        48.5004
 07  1  1  3 42 30.0000000  0  7G28G 8G17G20G27G19G11
 -14299387.83649 -11012915.42647  22120924.7894   22120920.3674         48.7504
        39.2504
 -13914536.35949 -11761459.65247  21826762.2034   21826759.1564         49.0004
        38.7504
   -139889.35949   -224413.89556  24669719.6094   24669717.2464         36.0004
        17.7504
 -10351196.88349  -8032348.07747  22775216.3524   22775213.1254         47.5004
        35.2504
 -14196405.28949 -10917994.44347  22580792.5944   22580789.8164         47.5004
        37.2504
  -3952043.18749  -4410276.95747  22808368.6564   22808363.8324         47.5004
        38.0004
 -19343271.91849 -15590364.29748  20133339.7504   20133334.4614         52.5004
        48.5004
 07  1  1  3 43  0.0000000  0  7G28G 8G17G20G27G19G11
 -14381898.20749 -11077209.21048  22105223.4924   22105219.2304         49.0004
        39.5004
 -13869693.07449 -11726516.84347  21835295.8284   21835292.3284         49.5004
        38.7504
   -210299.48749   -279278.97746  24656321.3524   24656317.3524         38.5004
        19.0004
 -10444207.80949  -8104824.05847  22757517.1484   22757513.2464         49.0004
        34.5004
 -14127224.88349 -10864087.66247  22593956.8914   22593954.5084         46.7504
        37.0004
  -3895270.94949  -4366038.88447  22819172.2814   22819166.6484         47.5004
        38.0004
 -19320166.98449 -15572360.45148  20137736.0554   20137731.4924         52.7504
        48.2504
 07  1  1  3 43 30.0000000  0  7G28G 8G17G20G27G19G11
 -14464194.34849 -11141336.06548  22089563.2274   22089559.2274         49.2504
        39.7504
 -13824325.82849 -11691165.76247  21843929.0784   21843925.5004         49.0004
        39.0004
   -280705.68449   -334140.95546  24642923.2504   24642920.5204         38.5004
        22.0004
 -10537035.05949  -8177156.94347  22739853.1254   22739848.4384         48.2504
        34.7504
 -14057777.24649 -10809972.66847  22607172.2974   22607169.6094         45.2504
        36.0004
  -3838436.78149  -4321752.55347  22829987.4454   22829982.4144         46.7504
        37.0004
 -19296657.57049 -15554041.41648  20142209.8444   20142204.7074         53.0004
        48.5004
 07  1  1  3 44  0.0000000  0  7G28G 8G17G20G27G19G11
 -14546275.07449 -11205295.07348  22073943.8444   22073939.4224         49.7504
        39.5004
 -13778438.13749 -11655409.13947  21852661.0864   21852658.2034         49.7504
        39.0004
   -351109.34048   -389000.85146  24629525.3444   24629522.5984         34.5004
        20.5004
 -10629676.48449  -8249345.04347  22722223.5084   22722220.0394         48.2504
        35.2504
 -13988066.26649 -10755652.43347  22620438.0554   22620435.5744         47.0004
        35.5004
  -3781541.64549  -4277418.70447  22840814.4694   22840809.6214         47.2504
        37.5004
 -19272746.27049 -15535409.23548  20146760.2034   20146754.9574         52.2504
        48.5004
 07  1  1  3 44 30.0000000  0  7G28G 8G17G20G27G19G11
 -14628137.60549 -11269084.04048  22058365.7584   22058361.5124         49.2504
        40.0004
 -13732031.60949 -11619248.22147  21861491.4144   21861489.2274         49.2504
        39.0004
   -421510.01649   -443858.39346  24616128.9144   24616125.8364         39.2504
        22.0004
 -10722128.18749  -8321385.25747  22704630.2344   22704627.2154         47.0004
        36.0004
 -13918094.35549 -10701128.89747  22633752.3444   22633750.5704         45.7504
        34.0004
  -3724584.96549  -4233036.92447  22851653.0944   22851647.2504         47.5004
        37.5004
 -19248434.16449 -15516464.73648  20151386.3134   20151381.2344         52.7504
        48.2504
 07  1  1  3 45  0.0000000  0  7G28G 8G17G20G27G19G11
 -14709778.58249 -11332700.37548  22042829.9614   22042825.5634         49.7504
        40.0004
 -13685108.81249 -11582685.03547  21870421.2034   21870418.4384         49.7504
        39.2504
   -491907.51249   -498713.62146  24602732.2894   24602729.5664         38.2504
        20.7504
 -10814387.31649  -8393275.44947  22687074.0394   22687070.7934         47.0004
        35.7504
 -13847864.26649 -10646404.17847  22647117.5554   22647113.9804         46.0004
        33.7504
  -3667566.38749  -4188606.89447  22862503.0084   22862497.2114         46.5004
        37.0004
 -19223722.68049 -15497209.03748  20156088.8444   20156083.7034         52.5004
        48.2504
 07  1  1  3 45 30.0000000  0  7G28G 8G17G20G27G19G11
 -14791196.60249 -11396142.96948  22027336.7814   22027332.0164         49.7504
        39.7504
 -13637672.89549 -11545721.99447  21879448.3284   21879444.4774         49.7504
        39.0004
   -562302.77749   -553567.01846  24589336.7814   24589332.5084         36.0004
        19.2504
 -10906450.87149  -8465013.21647  22669554.6094   22669551.9414         46.0004
        35.0004
 -13777379.39549 -10591480.93947  22660530.5944   22660528.0474         46.5004
        34.7504
  -3610486.35549  -4144128.99747  22873364.7504   22873359.4144         45.2504
        36.0004
 -19198614.06249 -15477643.87948  20160866.8674   20160861.9694         51.7504
        48.5004
 07  1  1  3 46  0.0000000  0  7G28G 8G17G20G27G19G11
 -14872388.42649 -11459409.31548  22011886.2424   22011882.4614         49.2504
        40.5004
 -13589725.40649 -11508360.33147  21888572.4384   21888568.7894         49.5004
        38.5004
   -632695.46948   -608418.38946  24575941.2814   24575937.8794         35.0004
        19.5004
 -10998315.32449  -8536595.84747  22652073.4454   22652070.8674         46.5004
        35.5004
 -13706642.40249 -10536361.26447  22673990.8754   22673988.2234         46.2504
        33.5004
  -3553344.31649  -4099602.77947  22884239.2584   22884233.4774         45.0004
        37.0004
 -19173109.35949 -15457770.08548  20165720.0704   20165715.4144         52.5004
        48.5004
 07  1  1  3 46 30.0000000  0  7G28G 8G17G20G27G19G11
 -14953351.86349 -11522497.69848  21996479.2584   21996475.6804         49.0004
        39.5004
 -13541269.68049 -11470602.65047  21897792.5234   21897789.8594         48.2504
        38.2504
   -703085.94948   -663268.11746  24562546.2894   24562543.9574         32.5004
        19.0004
 -11089978.02749  -8608021.28647  22634630.6954   22634627.3874         46.0004
        35.5004
 -13635656.39849 -10481047.52347  22687498.9144   22687496.8794         45.0004
        33.2504
  -3496140.81649  -4055028.65847  22895124.5784   22895118.7384         45.5004
        37.0004
 -19147210.69549 -15437589.30448  20170648.6414   20170643.6564         51.2504
        48.2504
 07  1  1  3 47  0.0000000  0  7G28G 8G17G20G27G19G11
 -15034084.33249 -11585406.10747  21981116.4614   21981112.2154         50.0004
        39.2504
 -13492308.25049 -11432450.90947  21907109.8204   21907107.1484         49.2504
        38.0004
   -773474.52348   -718116.17946  24549151.7974   24549149.1844         34.5004
        19.0004
 -11181435.64849  -8679286.92747  22617227.0084   22617222.8754         46.2504
        36.5004
 -13564424.44549 -10425542.12147  22701054.2274   22701052.2974         45.5004
        31.7504
  -3438874.91449  -4010405.89647  22906021.6174   22906016.1644         44.5004
        37.0004
 -19120919.44549 -15417102.61248  20175651.5784   20175646.4574         51.5004
        48.5004
 07  1  1  3 47 30.0000000  0  7G28G 8G17G20G27G19G11
 -15114583.28149 -11648132.55448  21965797.8834   21965793.2974         49.2504
        39.5004
 -13442843.41049 -11393906.90447  21916522.5864   21916519.6644         49.5004
        38.7504
                                  24535757.5554   24535754.4734         32.7504
        17.2504
 -11272684.82049  -8750390.13547  22599863.1024   22599859.2344         46.2504
        36.0004
 -13492949.38349 -10369847.29747  22714655.7814   22714653.5084         45.7504
        32.2504
  -3381546.65249  -3965734.54647  22916930.7974   22916925.8284         44.5004
        37.2504
 -19094237.28149 -15396311.31348  20180729.1724   20180724.1844         51.0004
        48.5004
 07  1  1  3 48  0.0000000  0  7G28G 8G17G20G27G19G11
 -15194845.83649 -11710674.79548  21950524.6644   21950520.0704         49.7504
        40.0004
 -13392877.73849 -11354972.62547  21926030.6174   21926027.9184         48.2504
        38.0004
   -914246.25849   -827808.21546  24522365.2274   24522359.7584         37.0004
        18.2504
 -11363722.44549  -8821328.46547  22582538.6804   22582535.4924         45.7504
        36.2504
 -13421234.28549 -10313965.45247  22728303.3204   22728299.9024         46.0004
        33.0004
  -3324155.75449  -3921014.43347  22927852.2664   22927847.7424         45.2504
        37.2504
 -19067165.44149 -15375216.37748  20185880.2584   20185875.9654         50.7504
        48.2504
 07  1  1  3 48 30.0000000  0  7G28G 8G17G20G27G19G11
 -15274870.11749 -11773031.37148  21935296.6174   21935291.5824         49.7504
        39.5004
 -13342414.18749 -11315650.40047  21935633.6564   21935630.7544         48.5004
        38.2504
   -984629.82848   -882652.53046  24508972.0554   24508966.3014         35.7504
        19.0004
 -11454545.70349  -8892099.78047  22565255.4534   22565252.4144         45.7504
        35.7504
 -13349282.30149 -10257898.98847  22741995.1564   22741991.9774         45.2504
        32.0004
  -3266702.43449  -3876245.62547  22938785.0084   22938779.8714         42.5004
        36.7504
 -19039706.21949 -15353819.56548  20191106.1564   20191101.4844         51.5004
        48.2504
 07  1  1  3 49  0.0000000  0  7G28G 8G17G20G27G19G11
 -15354653.49649 -11835200.21448  21920114.0704   21920110.1724         49.7504
        40.5004
 -13291455.23049 -11275942.12047  21945330.9694   21945328.1564         49.0004
        39.0004
  -1055012.46948   -937496.06646  24495577.5164   24495572.9494         28.7504
        16.2504
 -11545151.60549  -8962701.69847  22548013.6094   22548010.6804         46.2504
        36.0004
 -13277096.35949 -10201650.23447  22755730.6484   22755729.0274         42.5004
        29.2504
  -3209186.60549  -3831428.13247  22949729.9844   22949724.6524         43.7504
        36.5004
 -19011861.33649 -15332122.25948  20196404.6804   20196399.8634         51.5004
        48.5004
 07  1  1  3 49 30.0000000  0  6G28G 8G20G27G19G11
 -15434193.24649 -11897179.24448  21904978.5944   21904974.2034         50.7504
        40.5004
 -13240003.37949 -11235849.81147  21955121.7114   21955118.5984         49.5004
        39.0004
 -11635536.64849  -9033131.55647  22530814.1254   22530810.5434         46.0004
        36.7504
 -13204679.22749 -10145221.38447  22769512.0394   22769509.4224         42.2504
        27.5004
  -3151607.69149  -3786561.47947  22960687.4064   22960681.5594         44.5004
        36.2504
 -18983632.17249 -15310125.50048  20201776.4144   20201771.6684         50.0004
        48.0004
